[
    {
        "id": "LU-1",
        "name": "Aral Berchem",
        "lat": 49.541531,
        "lng": 6.116122,
        "site_brand": "AR",
        "country_code": "LU",
        "address": "A 3 / E 25",
        "city": "Berchem Ouest - Shop",
        "state": null,
        "postcode": "3325",
        "telephone": "",
        "facilities": [
            "alcohol",
            "high_speed_pump",
            "truck_parking",
            "truck_suitable_site",
            "cash_point",
            "toilet",
            "wifi",
            "aral_store",
            "motorway_site",
            "shop",
            "bakery_bistro",
            "restaurant",
            "accepts_routex_cards",
            "shop_open_24_hours",
            "open_saturday",
            "open_sunday"
        ],
        "products": [
            "ad_blue_cannister",
            "ad_blue_pump",
            "lpg",
            "red_diesel",
            "ad_blue"
        ],
        "website": null,
        "watchlist_id": null,
        "formatted_address": "A 3 / E 25\n3325\nBerchem Ouest - Shop",
        "channel_of_trade": null
    },
    {
        "id": "LU-1022403400",
        "name": "BERCHEM - Aral Luxembourg SA",
        "lat": 49.543,
        "lng": 6.118,
        "site_brand": "AR",
        "country_code": "LU",
        "address": "A 3 / E 25",
        "city": "Berchem Ouest - LKW1",
        "state": null,
        "postcode": "3325",
        "telephone": "",
        "facilities": [
            "alcohol",
            "tobacco",
            "high_speed_pump",
            "truck_parking",
            "truck_suitable_site",
            "cash_point",
            "toilet",
            "aral_store",
            "motorway_site",
            "shop",
            "bakery_bistro",
            "restaurant",
            "accepts_routex_cards",
            "shop_open_24_hours",
            "open_saturday",
            "open_sunday"
        ],
        "products": [
            "ad_blue_cannister",
            "ad_blue_pump",
            "diesel_on",
            "lpg",
            "red_diesel",
            "unleaded_95",
            "ad_blue"
        ],
        "website": null,
        "watchlist_id": null,
        "formatted_address": "A 3 / E 25\n3325\nBerchem Ouest - LKW1",
        "channel_of_trade": null
    },
    {
        "id": "LU-1028496137",
        "name": "BERCHEM . Aral Luxembourg SA",
        "lat": 49.543,
        "lng": 6.118,
        "site_brand": "AR",
        "country_code": "LU",
        "address": "A 3 / E 25",
        "city": "Berchem Ouest - PKW2",
        "state": null,
        "postcode": "3325",
        "telephone": "",
        "facilities": [
            "alcohol",
            "high_speed_pump",
            "truck_suitable_site",
            "aral_store",
            "motorway_site",
            "shop",
            "bakery_bistro",
            "restaurant",
            "accepts_routex_cards",
            "shop_open_24_hours",
            "open_saturday",
            "open_sunday"
        ],
        "products": [
            "diesel_on",
            "lpg",
            "red_diesel",
            "ultimate",
            "ultimate_diesel",
            "unleaded_95"
        ],
        "website": null,
        "watchlist_id": null,
        "formatted_address": "A 3 / E 25\n3325\nBerchem Ouest - PKW2",
        "channel_of_trade": null
    },
    {
        "id": "LU-1043355931",
        "name": "BP CAPELLEN - PKW",
        "lat": 49.63536,
        "lng": 5.97021,
        "site_brand": "BP",
        "country_code": "LU",
        "address": "Aire de Capellen E25",
        "city": "Capellen - PKW",
        "state": null,
        "postcode": "8309",
        "telephone": "02610641",
        "facilities": [
            "motorway_site",
            "shop",
            "accepts_routex_cards",
            "open_saturday",
            "open_sunday"
        ],
        "products": [
            "auto_gas",
            "diesel_on",
            "lpg",
            "ultimate",
            "ultimate_diesel",
            "unleaded_95"
        ],
        "website": null,
        "watchlist_id": null,
        "formatted_address": "Aire de Capellen E25\n8309\nCapellen - PKW",
        "channel_of_trade": null
    },
    {
        "id": "LU-12511",
        "name": "BS Services S.\u00e0 r.l. - Pommerloch",
        "lat": 49.960809,
        "lng": 5.860189,
        "site_brand": "AR",
        "country_code": "LU",
        "address": "route de Bastogne",
        "city": "Pommerloch",
        "state": null,
        "postcode": "9638",
        "telephone": "",
        "facilities": [
            "alcohol",
            "lotto",
            "high_speed_pump",
            "truck_suitable_site",
            "toilet",
            "aral_store",
            "shop",
            "accepts_routex_cards",
            "open_saturday",
            "open_sunday"
        ],
        "products": [
            "ad_blue_cannister",
            "diesel_on",
            "electricity",
            "ultimate",
            "ultimate_diesel",
            "unleaded_95"
        ],
        "website": null,
        "watchlist_id": null,
        "formatted_address": "route de Bastogne\n9638\nPommerloch",
        "channel_of_trade": null
    },
    {
        "id": "LU-12512",
        "name": "Garage J. Leyder S.\u00e0 r.l. - REDANGE",
        "lat": 49.76576,
        "lng": 5.87953,
        "site_brand": "AR",
        "country_code": "LU",
        "address": "route d'Ell",
        "city": "Redange-Attert",
        "state": null,
        "postcode": "8509",
        "telephone": "",
        "facilities": [
            "alcohol",
            "toilet",
            "aral_store",
            "shop",
            "accepts_routex_cards",
            "open_saturday"
        ],
        "products": [
            "ad_blue_cannister",
            "diesel_on",
            "ultimate",
            "ultimate_diesel",
            "unleaded_95"
        ],
        "website": null,
        "watchlist_id": null,
        "formatted_address": "route d'Ell\n8509\nRedange-Attert",
        "channel_of_trade": null
    },
    {
        "id": "LU-12516",
        "name": "F&L Fuel S.\u00e0 r.l.",
        "lat": 49.658669,
        "lng": 5.907103,
        "site_brand": "AR",
        "country_code": "LU",
        "address": "route d'Arlon",
        "city": "Steinfort",
        "state": null,
        "postcode": "8410",
        "telephone": "",
        "facilities": [
            "alcohol",
            "lotto",
            "toilet",
            "aral_store",
            "shop",
            "accepts_routex_cards",
            "open_saturday",
            "open_sunday"
        ],
        "products": [
            "ad_blue_cannister",
            "diesel_on",
            "ultimate",
            "ultimate_diesel",
            "unleaded_95"
        ],
        "website": null,
        "watchlist_id": null,
        "formatted_address": "route d'Arlon\n8410\nSteinfort",
        "channel_of_trade": null
    },
    {
        "id": "LU-12517",
        "name": "OBERCORN - LOUMAX NRJ S.\u00e0.r.l",
        "lat": 49.52114,
        "lng": 5.91064,
        "site_brand": "AR",
        "country_code": "LU",
        "address": "rue de Soleuvre",
        "city": "Differdange/Obercorn",
        "state": null,
        "postcode": "4670",
        "telephone": "",
        "facilities": [
            "alcohol",
            "lotto",
            "toilet",
            "aral_store",
            "shop",
            "accepts_routex_cards",
            "open_saturday",
            "open_sunday"
        ],
        "products": [
            "ad_blue_cannister",
            "diesel_on",
            "ultimate",
            "ultimate_diesel",
            "unleaded_95"
        ],
        "website": null,
        "watchlist_id": null,
        "formatted_address": "rue de Soleuvre\n4670\nDifferdange/Obercorn",
        "channel_of_trade": null
    },
    {
        "id": "LU-12518",
        "name": "Aral Luxembourg SA. - Rodange",
        "lat": 49.5415,
        "lng": 5.815925,
        "site_brand": "AR",
        "country_code": "LU",
        "address": "route de Longwy",
        "city": "Rodange I",
        "state": null,
        "postcode": "4832",
        "telephone": "",
        "facilities": [
            "alcohol",
            "lotto",
            "high_speed_pump",
            "truck_suitable_site",
            "toilet",
            "aral_store",
            "shop",
            "accepts_routex_cards",
            "open_saturday",
            "open_sunday"
        ],
        "products": [
            "ad_blue_cannister",
            "ad_blue_pump",
            "diesel_on",
            "ultimate",
            "ultimate_diesel",
            "unleaded_95",
            "ad_blue"
        ],
        "website": null,
        "watchlist_id": null,
        "formatted_address": "route de Longwy\n4832\nRodange I",
        "channel_of_trade": null
    },
    {
        "id": "LU-12519",
        "name": "Aral Luxembourg SA - Esch",
        "lat": 49.507273,
        "lng": 5.989461,
        "site_brand": "AR",
        "country_code": "LU",
        "address": "route de Luxembourg",
        "city": "Esch-Lallange",
        "state": null,
        "postcode": "4222",
        "telephone": "",
        "facilities": [
            "alcohol",
            "lotto",
            "high_speed_pump",
            "truck_suitable_site",
            "toilet",
            "aral_store",
            "shop",
            "accepts_routex_cards",
            "open_saturday",
            "open_sunday"
        ],
        "products": [
            "ad_blue_cannister",
            "ad_blue_pump",
            "diesel_on",
            "electricity",
            "ultimate",
            "ultimate_diesel",
            "ultimate_unleaded",
            "unleaded_95",
            "ad_blue"
        ],
        "website": null,
        "watchlist_id": null,
        "formatted_address": "route de Luxembourg\n4222\nEsch-Lallange",
        "channel_of_trade": null
    },
    {
        "id": "LU-12520",
        "name": "SIGMA S\u00e0rl - GONDERANGE",
        "lat": 49.690267,
        "lng": 6.23864,
        "site_brand": "AR",
        "country_code": "LU",
        "address": "route de Luxembourg",
        "city": "Gonderange",
        "state": null,
        "postcode": "6182",
        "telephone": "",
        "facilities": [
            "alcohol",
            "lotto",
            "high_speed_pump",
            "truck_suitable_site",
            "toilet",
            "aral_store",
            "shop",
            "accepts_routex_cards",
            "open_saturday",
            "open_sunday"
        ],
        "products": [
            "ad_blue_cannister",
            "ad_blue_pump",
            "diesel_on",
            "electricity",
            "ultimate",
            "ultimate_diesel",
            "unleaded_95",
            "ad_blue"
        ],
        "website": null,
        "watchlist_id": null,
        "formatted_address": "route de Luxembourg\n6182\nGonderange",
        "channel_of_trade": null
    },
    {
        "id": "LU-12523",
        "name": "S.Fuel S.\u00e0 r.l. - FOETZ",
        "lat": 49.522897,
        "lng": 6.00844,
        "site_brand": "AR",
        "country_code": "LU",
        "address": "rue du Brill",
        "city": "Foetz",
        "state": null,
        "postcode": "3898",
        "telephone": "",
        "facilities": [
            "alcohol",
            "lotto",
            "high_speed_pump",
            "truck_suitable_site",
            "toilet",
            "aral_store",
            "shop",
            "accepts_routex_cards",
            "open_saturday",
            "open_sunday"
        ],
        "products": [
            "ad_blue_cannister",
            "diesel_on",
            "ultimate",
            "ultimate_diesel",
            "ultimate_unleaded",
            "unleaded_95"
        ],
        "website": null,
        "watchlist_id": null,
        "formatted_address": "rue du Brill\n3898\nFoetz",
        "channel_of_trade": null
    },
    {
        "id": "LU-12524",
        "name": "Aral Garage de l'Est",
        "lat": 49.70689,
        "lng": 6.25322,
        "site_brand": "AR",
        "country_code": "LU",
        "address": "rue Hiehl",
        "city": "Junglinster",
        "state": null,
        "postcode": "6131",
        "telephone": "+352 78 82 22 50",
        "facilities": [
            "alcohol",
            "high_speed_pump",
            "truck_suitable_site",
            "toilet",
            "aral_store",
            "shop",
            "accepts_routex_cards",
            "open_saturday",
            "open_sunday"
        ],
        "products": [
            "ad_blue_cannister",
            "diesel_on",
            "red_diesel",
            "ultimate",
            "ultimate_diesel",
            "unleaded_95"
        ],
        "website": null,
        "watchlist_id": null,
        "formatted_address": "rue Hiehl\n6131\nJunglinster",
        "channel_of_trade": null
    },
    {
        "id": "LU-12526",
        "name": "Dias&Mueller S.A. - LINTGEN",
        "lat": 49.718084,
        "lng": 6.125896,
        "site_brand": "AR",
        "country_code": "LU",
        "address": "route Principale",
        "city": "Lintgen",
        "state": null,
        "postcode": "7450",
        "telephone": "",
        "facilities": [
            "alcohol",
            "lotto",
            "high_speed_pump",
            "truck_suitable_site",
            "toilet",
            "aral_store",
            "shop",
            "accepts_routex_cards",
            "open_saturday",
            "open_sunday"
        ],
        "products": [
            "ad_blue_cannister",
            "diesel_on",
            "electricity",
            "lpg",
            "ultimate",
            "ultimate_diesel",
            "unleaded_95"
        ],
        "website": null,
        "watchlist_id": null,
        "formatted_address": "route Principale\n7450\nLintgen",
        "channel_of_trade": null
    },
    {
        "id": "LU-12527",
        "name": "Aral Cifarelli Concept S.\u00e0 r.l. - Bascharage",
        "lat": 49.56249,
        "lng": 5.90045,
        "site_brand": "AR",
        "country_code": "LU",
        "address": "avenue de Luxembourg",
        "city": "Bascharage",
        "state": null,
        "postcode": "4950",
        "telephone": "+352 23 65 14 48",
        "facilities": [
            "alcohol",
            "high_speed_pump",
            "truck_suitable_site",
            "toilet",
            "aral_store",
            "shop",
            "accepts_routex_cards",
            "open_saturday",
            "open_sunday"
        ],
        "products": [
            "ad_blue_cannister",
            "diesel_on",
            "electricity",
            "ultimate",
            "ultimate_diesel",
            "unleaded_95"
        ],
        "website": null,
        "watchlist_id": null,
        "formatted_address": "avenue de Luxembourg\n4950\nBascharage",
        "channel_of_trade": null
    },
    {
        "id": "LU-12528",
        "name": "STOP&SHOP - Wiltz",
        "lat": 49.962368,
        "lng": 5.921374,
        "site_brand": "AR",
        "country_code": "LU",
        "address": "rue Michel Thilges",
        "city": "Wiltz",
        "state": null,
        "postcode": "9573",
        "telephone": "",
        "facilities": [
            "alcohol",
            "toilet",
            "aral_store",
            "shop",
            "accepts_routex_cards",
            "open_saturday",
            "open_sunday"
        ],
        "products": [
            "ad_blue_cannister",
            "ad_blue_pump",
            "diesel_on",
            "ultimate",
            "ultimate_diesel",
            "unleaded_95",
            "ad_blue"
        ],
        "website": null,
        "watchlist_id": null,
        "formatted_address": "rue Michel Thilges\n9573\nWiltz",
        "channel_of_trade": null
    },
    {
        "id": "LU-12529",
        "name": "ROADSTORE S.\u00e0 r.l. - Vianden",
        "lat": 49.929298,
        "lng": 6.222149,
        "site_brand": "AR",
        "country_code": "LU",
        "address": "rue de Bettel",
        "city": "Vianden",
        "state": null,
        "postcode": "9415",
        "telephone": "+352 26 87 45 39",
        "facilities": [
            "alcohol",
            "tobacco",
            "toilet",
            "aral_store",
            "shop",
            "accepts_routex_cards",
            "open_saturday",
            "open_sunday"
        ],
        "products": [
            "ad_blue_cannister",
            "ad_blue_pump",
            "diesel_on",
            "ultimate",
            "ultimate_diesel",
            "ultimate_unleaded",
            "unleaded_95",
            "ad_blue"
        ],
        "website": null,
        "watchlist_id": null,
        "formatted_address": "rue de Bettel\n9415\nVianden",
        "channel_of_trade": null
    },
    {
        "id": "LU-12531",
        "name": "Aral Tankstellen Services S.\u00e0 r.l. - Findel",
        "lat": 49.62919,
        "lng": 6.20441,
        "site_brand": "AR",
        "country_code": "LU",
        "address": "route de Tr\u00e8ves",
        "city": "Luxembourg-Findel",
        "state": null,
        "postcode": "2632",
        "telephone": "",
        "facilities": [
            "alcohol",
            "lotto",
            "high_speed_pump",
            "truck_suitable_site",
            "toilet",
            "aral_store",
            "shop",
            "accepts_routex_cards",
            "open_saturday",
            "open_sunday"
        ],
        "products": [
            "ad_blue_cannister",
            "diesel_on",
            "electricity",
            "natural_gas",
            "ultimate",
            "ultimate_diesel",
            "unleaded_95"
        ],
        "website": null,
        "watchlist_id": null,
        "formatted_address": "route de Tr\u00e8ves\n2632\nLuxembourg-Findel",
        "channel_of_trade": null
    },
    {
        "id": "LU-12532",
        "name": "F&L Fuel S\u00e0rl - MERL 1",
        "lat": 49.60599,
        "lng": 6.10148,
        "site_brand": "AR",
        "country_code": "LU",
        "address": "route de Longwy",
        "city": "Luxembourg-Merl",
        "state": null,
        "postcode": "1940",
        "telephone": "",
        "facilities": [
            "alcohol",
            "lotto",
            "high_speed_pump",
            "truck_suitable_site",
            "toilet",
            "aral_store",
            "shop",
            "accepts_routex_cards",
            "open_saturday",
            "open_sunday"
        ],
        "products": [
            "ad_blue_cannister",
            "diesel_on",
            "lpg",
            "natural_gas",
            "ultimate",
            "ultimate_diesel",
            "unleaded_95"
        ],
        "website": null,
        "watchlist_id": null,
        "formatted_address": "route de Longwy\n1940\nLuxembourg-Merl",
        "channel_of_trade": null
    },
    {
        "id": "LU-12533",
        "name": "Bonn Fuel S\u00e0rl",
        "lat": 49.84944,
        "lng": 6.10852,
        "site_brand": "AR",
        "country_code": "LU",
        "address": "avenue JF Kennedy",
        "city": "Ettelbruck",
        "state": null,
        "postcode": "9053",
        "telephone": "",
        "facilities": [
            "alcohol",
            "high_speed_pump",
            "truck_suitable_site",
            "toilet",
            "aral_store",
            "shop",
            "accepts_routex_cards",
            "open_saturday",
            "open_sunday"
        ],
        "products": [
            "ad_blue_cannister",
            "diesel_on",
            "ultimate",
            "ultimate_diesel",
            "unleaded_95"
        ],
        "website": null,
        "watchlist_id": null,
        "formatted_address": "avenue JF Kennedy\n9053\nEttelbruck",
        "channel_of_trade": null
    },
    {
        "id": "LU-12534",
        "name": "Roadstore S\u00e0rl - HOSCHEID DICKT",
        "lat": 49.97417,
        "lng": 6.090047,
        "site_brand": "AR",
        "country_code": "LU",
        "address": "route Principale",
        "city": "Hoscheid-Dickt",
        "state": null,
        "postcode": "9835",
        "telephone": "",
        "facilities": [
            "alcohol",
            "lotto",
            "high_speed_pump",
            "truck_suitable_site",
            "toilet",
            "aral_store",
            "shop",
            "accepts_routex_cards",
            "open_saturday",
            "open_sunday"
        ],
        "products": [
            "ad_blue_cannister",
            "ad_blue_pump",
            "diesel_on",
            "electricity",
            "ultimate",
            "ultimate_diesel",
            "unleaded_95",
            "ad_blue"
        ],
        "website": null,
        "watchlist_id": null,
        "formatted_address": "route Principale\n9835\nHoscheid-Dickt",
        "channel_of_trade": null
    },
    {
        "id": "LU-12535",
        "name": "Aral Luxembourg SA - Echternach",
        "lat": 49.80821,
        "lng": 6.42898,
        "site_brand": "AR",
        "country_code": "LU",
        "address": "route de Wasserbillig",
        "city": "Echternach",
        "state": null,
        "postcode": "6490",
        "telephone": "+352 26 72 09 79",
        "facilities": [
            "alcohol",
            "lotto",
            "high_speed_pump",
            "truck_suitable_site",
            "toilet",
            "aral_store",
            "shop",
            "accepts_routex_cards",
            "open_saturday",
            "open_sunday"
        ],
        "products": [
            "ad_blue_cannister",
            "diesel_on",
            "ultimate",
            "ultimate_diesel",
            "unleaded_95"
        ],
        "website": null,
        "watchlist_id": null,
        "formatted_address": "route de Wasserbillig\n6490\nEchternach",
        "channel_of_trade": null
    },
    {
        "id": "LU-12536",
        "name": "PetroVan S.A.",
        "lat": 49.833499,
        "lng": 5.739894,
        "site_brand": "AR",
        "country_code": "LU",
        "address": "route d'Arlon",
        "city": "Rombach-Martelange",
        "state": null,
        "postcode": "8832",
        "telephone": "+352 23 64 04 26",
        "facilities": [
            "alcohol",
            "high_speed_pump",
            "truck_suitable_site",
            "toilet",
            "aral_store",
            "shop",
            "accepts_routex_cards",
            "open_saturday",
            "open_sunday"
        ],
        "products": [
            "ad_blue_pump",
            "diesel_on",
            "ultimate",
            "ultimate_diesel",
            "unleaded_95",
            "ad_blue"
        ],
        "website": null,
        "watchlist_id": null,
        "formatted_address": "route d'Arlon\n8832\nRombach-Martelange",
        "channel_of_trade": null
    },
    {
        "id": "LU-12537",
        "name": "B&B Store S\u00e0rl - FRISANGE",
        "lat": 49.511107,
        "lng": 6.190837,
        "site_brand": "AR",
        "country_code": "LU",
        "address": "rue Robert Schumann",
        "city": "Frisange",
        "state": null,
        "postcode": "5751",
        "telephone": "+352 23 66 88 88",
        "facilities": [
            "alcohol",
            "toilet",
            "aral_store",
            "shop",
            "accepts_routex_cards",
            "open_saturday",
            "open_sunday"
        ],
        "products": [
            "ad_blue_cannister",
            "diesel_on",
            "ultimate",
            "ultimate_diesel",
            "unleaded_95"
        ],
        "website": null,
        "watchlist_id": null,
        "formatted_address": "rue Robert Schumann\n5751\nFrisange",
        "channel_of_trade": null
    },
    {
        "id": "LU-12538",
        "name": "B&B Store S\u00e0rl - Mondorf",
        "lat": 49.504627,
        "lng": 6.269154,
        "site_brand": "AR",
        "country_code": "LU",
        "address": "route de Luxembourg",
        "city": "Mondorf-les-Bains",
        "state": null,
        "postcode": "5634",
        "telephone": "+352 26 67 16 07",
        "facilities": [
            "alcohol",
            "high_speed_pump",
            "truck_suitable_site",
            "toilet",
            "aral_store",
            "shop",
            "accepts_routex_cards",
            "open_saturday",
            "open_sunday"
        ],
        "products": [
            "ad_blue_cannister",
            "diesel_on",
            "ultimate",
            "ultimate_diesel",
            "unleaded_95"
        ],
        "website": null,
        "watchlist_id": null,
        "formatted_address": "route de Luxembourg\n5634\nMondorf-les-Bains",
        "channel_of_trade": null
    },
    {
        "id": "LU-12539",
        "name": "SIGMA S\u00e0rl - WASSERBILLIG",
        "lat": 49.709279,
        "lng": 6.490086,
        "site_brand": "AR",
        "country_code": "LU",
        "address": "route de Luxembourg",
        "city": "Wasserbillig I",
        "state": null,
        "postcode": "6633",
        "telephone": "",
        "facilities": [
            "alcohol",
            "lotto",
            "toilet",
            "aral_store",
            "shop",
            "bakery_bistro",
            "accepts_routex_cards",
            "open_saturday",
            "open_sunday"
        ],
        "products": [
            "ad_blue_cannister",
            "diesel_on",
            "ultimate",
            "ultimate_diesel",
            "unleaded_95"
        ],
        "website": null,
        "watchlist_id": null,
        "formatted_address": "route de Luxembourg\n6633\nWasserbillig I",
        "channel_of_trade": null
    },
    {
        "id": "LU-12541",
        "name": "ener gine S.\u00e0 r.l.",
        "lat": 49.5229,
        "lng": 6.0994,
        "site_brand": "AR",
        "country_code": "LU",
        "address": "route de Luxembourg",
        "city": "Bettembourg",
        "state": null,
        "postcode": "3253",
        "telephone": "",
        "facilities": [
            "alcohol",
            "lotto",
            "tobacco",
            "high_speed_pump",
            "truck_suitable_site",
            "toilet",
            "aral_store",
            "supermarket",
            "shop",
            "bakery_bistro",
            "accepts_routex_cards",
            "open_saturday",
            "open_sunday"
        ],
        "products": [
            "ad_blue_cannister",
            "diesel_on",
            "ultimate",
            "ultimate_diesel",
            "ultimate_unleaded",
            "unleaded_95"
        ],
        "website": null,
        "watchlist_id": null,
        "formatted_address": "route de Luxembourg\n3253\nBettembourg",
        "channel_of_trade": null
    },
    {
        "id": "LU-1273008874",
        "name": "BP CAPELLEN - LKW",
        "lat": 49.63536,
        "lng": 5.97021,
        "site_brand": "BP",
        "country_code": "LU",
        "address": "Aire de Capellen E25",
        "city": "Capellen - LKW 2",
        "state": null,
        "postcode": "8309",
        "telephone": "02610641",
        "facilities": [
            "motorway_site",
            "shop",
            "accepts_routex_cards",
            "open_saturday",
            "open_sunday"
        ],
        "products": [
            "ad_blue_pump",
            "diesel_on",
            "ad_blue"
        ],
        "website": null,
        "watchlist_id": null,
        "formatted_address": "Aire de Capellen E25\n8309\nCapellen - LKW 2",
        "channel_of_trade": null
    },
    {
        "id": "LU-1275108647",
        "name": "SIMON S PLAZA INGELDORF",
        "lat": 49.853003,
        "lng": 6.130771,
        "site_brand": "AR",
        "country_code": "LU",
        "address": "Route de Luxembourg",
        "city": "Ingeldorf",
        "state": null,
        "postcode": "9160",
        "telephone": "+352 26 80 31 76",
        "facilities": [
            "alcohol",
            "tobacco",
            "high_speed_pump",
            "truck_suitable_site",
            "toilet",
            "shop",
            "bakery_bistro",
            "accepts_routex_cards",
            "open_saturday",
            "open_sunday"
        ],
        "products": [
            "diesel_on",
            "truck_diesel",
            "ultimate",
            "ultimate_diesel",
            "ultimate_unleaded",
            "unleaded_95"
        ],
        "website": null,
        "watchlist_id": null,
        "formatted_address": "Route de Luxembourg\n9160\nIngeldorf",
        "channel_of_trade": null
    },
    {
        "id": "LU-1277394622",
        "name": "RMA ENERGY S.A. (BP)",
        "lat": 50.149354,
        "lng": 6.057258,
        "site_brand": "BP",
        "country_code": "LU",
        "address": "op der Haart",
        "city": "Wemperhardt",
        "state": null,
        "postcode": "9999",
        "telephone": "026901141",
        "facilities": [
            "shop",
            "accepts_routex_cards",
            "open_saturday",
            "open_sunday"
        ],
        "products": [
            "diesel_on",
            "ultimate",
            "ultimate_diesel",
            "unleaded_95"
        ],
        "website": null,
        "watchlist_id": null,
        "formatted_address": "op der Haart\n9999\nWemperhardt",
        "channel_of_trade": null
    },
    {
        "id": "LU-130027911",
        "name": "Friedhaff S.A.",
        "lat": 49.88518,
        "lng": 6.13684,
        "site_brand": "AR",
        "country_code": "LU",
        "address": "Rond point Bamerthal",
        "city": "Diekirch",
        "state": null,
        "postcode": "9378",
        "telephone": "+352 26 80 47 55",
        "facilities": [
            "alcohol",
            "high_speed_pump",
            "truck_suitable_site",
            "toilet",
            "aral_store",
            "shop",
            "bakery_bistro",
            "accepts_routex_cards",
            "open_saturday",
            "open_sunday"
        ],
        "products": [
            "ad_blue_cannister",
            "ad_blue_pump",
            "auto_gas",
            "diesel_on",
            "lpg",
            "ultimate",
            "ultimate_diesel",
            "unleaded_95",
            "ad_blue"
        ],
        "website": null,
        "watchlist_id": null,
        "formatted_address": "Rond point Bamerthal\n9378\nDiekirch",
        "channel_of_trade": null
    },
    {
        "id": "LU-1328188906",
        "name": "ARAL LUXEMBOURG SA - 9803 LKW1",
        "lat": 49.636557,
        "lng": 5.971272,
        "site_brand": "AR",
        "country_code": "LU",
        "address": "Aral Aire de Capellen E25/A6 Nord",
        "city": "Aral Capellen - LKW 1",
        "state": null,
        "postcode": "8309",
        "telephone": "",
        "facilities": [
            "motorway_site",
            "shop",
            "accepts_routex_cards"
        ],
        "products": [
            "ad_blue_pump",
            "diesel_on",
            "ad_blue"
        ],
        "website": null,
        "watchlist_id": null,
        "formatted_address": "Aral Aire de Capellen E25/A6 Nord\n8309\nAral Capellen - LKW 1",
        "channel_of_trade": null
    },
    {
        "id": "LU-13378",
        "name": "Aral Luxembourg SA - Remich I",
        "lat": 49.5475,
        "lng": 6.36238,
        "site_brand": "AR",
        "country_code": "LU",
        "address": "route de l'Europe",
        "city": "Remich I",
        "state": null,
        "postcode": "5531",
        "telephone": "+352 23 66 92 45",
        "facilities": [
            "alcohol",
            "lotto",
            "toilet",
            "aral_store",
            "shop",
            "accepts_routex_cards",
            "open_saturday",
            "open_sunday"
        ],
        "products": [
            "ad_blue_cannister",
            "diesel_on",
            "ultimate",
            "ultimate_diesel",
            "unleaded_95"
        ],
        "website": null,
        "watchlist_id": null,
        "formatted_address": "route de l'Europe\n5531\nRemich I",
        "channel_of_trade": null
    },
    {
        "id": "LU-13379",
        "name": "A. Cifarellli Concept S.\u00e0 r.l. - P\u00e9tange",
        "lat": 49.555336,
        "lng": 5.870425,
        "site_brand": "AR",
        "country_code": "LU",
        "address": "route de Longwy",
        "city": "P\u00e9tange",
        "state": null,
        "postcode": "4750",
        "telephone": "",
        "facilities": [
            "alcohol",
            "lotto",
            "tobacco",
            "toilet",
            "aral_store",
            "shop",
            "accepts_routex_cards",
            "open_saturday",
            "open_sunday"
        ],
        "products": [
            "ad_blue_cannister",
            "diesel_on",
            "ultimate",
            "ultimate_diesel",
            "unleaded_95"
        ],
        "website": null,
        "watchlist_id": null,
        "formatted_address": "route de Longwy\n4750\nP\u00e9tange",
        "channel_of_trade": null
    },
    {
        "id": "LU-13380",
        "name": "Aral Luxembourg SA - Dudelange",
        "lat": 49.49004,
        "lng": 6.08322,
        "site_brand": "AR",
        "country_code": "LU",
        "address": "route de Luxembourg",
        "city": "Dudelange",
        "state": null,
        "postcode": "3515",
        "telephone": "",
        "facilities": [
            "alcohol",
            "lotto",
            "toilet",
            "aral_store",
            "shop",
            "accepts_routex_cards",
            "open_saturday",
            "open_sunday"
        ],
        "products": [
            "ad_blue_cannister",
            "diesel_on",
            "ultimate",
            "ultimate_diesel",
            "unleaded_95"
        ],
        "website": null,
        "watchlist_id": null,
        "formatted_address": "route de Luxembourg\n3515\nDudelange",
        "channel_of_trade": null
    },
    {
        "id": "LU-13381",
        "name": "Ener gine S\u00e0rl - Rollingergrund",
        "lat": 49.61764,
        "lng": 6.11132,
        "site_brand": "AR",
        "country_code": "LU",
        "address": "rue du Rollingergrund",
        "city": "Rollingergrund",
        "state": null,
        "postcode": "2440",
        "telephone": "",
        "facilities": [
            "alcohol",
            "lotto",
            "toilet",
            "aral_store",
            "shop",
            "bakery_bistro",
            "accepts_routex_cards",
            "open_saturday",
            "open_sunday"
        ],
        "products": [
            "ad_blue_cannister",
            "diesel_on",
            "ultimate",
            "ultimate_diesel",
            "unleaded_95"
        ],
        "website": null,
        "watchlist_id": null,
        "formatted_address": "rue du Rollingergrund\n2440\nRollingergrund",
        "channel_of_trade": null
    },
    {
        "id": "LU-13382",
        "name": "Petronelli Antonio",
        "lat": 49.585578,
        "lng": 6.144099,
        "site_brand": "AR",
        "country_code": "LU",
        "address": "route de Thionville",
        "city": "Howald",
        "state": null,
        "postcode": "5884",
        "telephone": "",
        "facilities": [
            "alcohol",
            "toilet",
            "aral_store",
            "shop",
            "accepts_routex_cards",
            "open_saturday",
            "open_sunday"
        ],
        "products": [
            "ad_blue_cannister",
            "diesel_on",
            "ultimate",
            "ultimate_diesel",
            "unleaded_95"
        ],
        "website": null,
        "watchlist_id": null,
        "formatted_address": "route de Thionville\n5884\nHowald",
        "channel_of_trade": null
    },
    {
        "id": "LU-13383",
        "name": "Aral Luxembourg SA- Remich II",
        "lat": 49.54688,
        "lng": 6.36419,
        "site_brand": "AR",
        "country_code": "LU",
        "address": "route de l'Europe",
        "city": "Remich II",
        "state": null,
        "postcode": "5531",
        "telephone": "+352 23 69 70 57",
        "facilities": [
            "alcohol",
            "toilet",
            "aral_store",
            "shop",
            "bakery_bistro",
            "accepts_routex_cards",
            "open_saturday",
            "open_sunday"
        ],
        "products": [
            "ad_blue_cannister",
            "diesel_on",
            "ultimate",
            "ultimate_diesel",
            "unleaded_95"
        ],
        "website": null,
        "watchlist_id": null,
        "formatted_address": "route de l'Europe\n5531\nRemich II",
        "channel_of_trade": null
    },
    {
        "id": "LU-13384",
        "name": "Zika-Tank S.\u00e0 r.l.",
        "lat": 49.709435,
        "lng": 6.490375,
        "site_brand": "AR",
        "country_code": "LU",
        "address": "route de Luxembourg",
        "city": "Wasserbillig II",
        "state": null,
        "postcode": "6633",
        "telephone": "",
        "facilities": [
            "alcohol",
            "high_speed_pump",
            "truck_suitable_site",
            "toilet",
            "aral_store",
            "shop",
            "accepts_routex_cards",
            "open_saturday",
            "open_sunday"
        ],
        "products": [
            "ad_blue_cannister",
            "diesel_on",
            "ultimate",
            "ultimate_diesel",
            "unleaded_95"
        ],
        "website": null,
        "watchlist_id": null,
        "formatted_address": "route de Luxembourg\n6633\nWasserbillig II",
        "channel_of_trade": null
    },
    {
        "id": "LU-13385",
        "name": "Aral Luxembourg SA - Schengen",
        "lat": 49.475685,
        "lng": 6.366251,
        "site_brand": "AR",
        "country_code": "LU",
        "address": "route du Vin",
        "city": "Schengen",
        "state": null,
        "postcode": "5445",
        "telephone": "+352 26 66 53 42",
        "facilities": [
            "alcohol",
            "lotto",
            "toilet",
            "aral_store",
            "shop",
            "accepts_routex_cards",
            "open_saturday",
            "open_sunday"
        ],
        "products": [
            "ad_blue_cannister",
            "diesel_on",
            "ultimate",
            "ultimate_diesel",
            "ultimate_unleaded",
            "unleaded_95"
        ],
        "website": null,
        "watchlist_id": null,
        "formatted_address": "route du Vin\n5445\nSchengen",
        "channel_of_trade": null
    },
    {
        "id": "LU-13386",
        "name": "Roadstore S\u00e0rl - DIEKIRCH",
        "lat": 49.86239,
        "lng": 6.14921,
        "site_brand": "AR",
        "country_code": "LU",
        "address": "route d'Ettelbruck",
        "city": "Diekirch",
        "state": null,
        "postcode": "9230",
        "telephone": "",
        "facilities": [
            "alcohol",
            "lotto",
            "toilet",
            "aral_store",
            "shop",
            "accepts_routex_cards",
            "open_saturday",
            "open_sunday"
        ],
        "products": [
            "ad_blue_cannister",
            "diesel_on",
            "ultimate",
            "ultimate_diesel",
            "unleaded_95"
        ],
        "website": null,
        "watchlist_id": null,
        "formatted_address": "route d'Ettelbruck\n9230\nDiekirch",
        "channel_of_trade": null
    },
    {
        "id": "LU-13387",
        "name": "Bour Shopping S.\u00e0 r.l.",
        "lat": 49.70085,
        "lng": 6.01836,
        "site_brand": "AR",
        "country_code": "LU",
        "address": "rue de Luxembourg",
        "city": "Bour",
        "state": null,
        "postcode": "7412",
        "telephone": "",
        "facilities": [
            "alcohol",
            "toilet",
            "aral_store",
            "shop",
            "accepts_routex_cards",
            "open_saturday",
            "open_sunday"
        ],
        "products": [
            "ad_blue_cannister",
            "diesel_on",
            "ultimate",
            "ultimate_diesel",
            "unleaded_95"
        ],
        "website": null,
        "watchlist_id": null,
        "formatted_address": "rue de Luxembourg\n7412\nBour",
        "channel_of_trade": null
    },
    {
        "id": "LU-13388",
        "name": "Kurek Illya",
        "lat": 49.550096,
        "lng": 5.839724,
        "site_brand": "AR",
        "country_code": "LU",
        "address": "route de Longwy",
        "city": "Rodange II",
        "state": null,
        "postcode": "4830",
        "telephone": "",
        "facilities": [
            "alcohol",
            "toilet",
            "aral_store",
            "shop",
            "accepts_routex_cards",
            "open_saturday",
            "open_sunday"
        ],
        "products": [
            "ad_blue_cannister",
            "diesel_on",
            "ultimate",
            "ultimate_diesel",
            "ultimate_unleaded",
            "unleaded_95"
        ],
        "website": null,
        "watchlist_id": null,
        "formatted_address": "route de Longwy\n4830\nRodange II",
        "channel_of_trade": null
    },
    {
        "id": "LU-13389",
        "name": "Jos Petry S.\u00e0 r.l.",
        "lat": 49.484904,
        "lng": 6.357531,
        "site_brand": "AR",
        "country_code": "LU",
        "address": "route du Vin",
        "city": "Remerschen",
        "state": null,
        "postcode": "5440",
        "telephone": "+352 26 66 56 34",
        "facilities": [
            "alcohol",
            "high_speed_pump",
            "truck_suitable_site",
            "aral_store",
            "shop",
            "accepts_routex_cards",
            "open_saturday",
            "open_sunday"
        ],
        "products": [
            "ad_blue_pump",
            "diesel_on",
            "ultimate",
            "ultimate_diesel",
            "unleaded_95",
            "ad_blue"
        ],
        "website": null,
        "watchlist_id": null,
        "formatted_address": "route du Vin\n5440\nRemerschen",
        "channel_of_trade": null
    },
    {
        "id": "LU-13390",
        "name": "Simon Thierry BP S.\u00e0 r.l.",
        "lat": 49.837948,
        "lng": 5.838906,
        "site_brand": "BP",
        "country_code": "LU",
        "address": "rue des Allies",
        "city": "Koetschette",
        "state": null,
        "postcode": "8821",
        "telephone": "",
        "facilities": [
            "alcohol",
            "toilet",
            "shop",
            "accepts_routex_cards",
            "open_saturday"
        ],
        "products": [
            "ad_blue_cannister",
            "ad_blue_pump",
            "diesel_on",
            "ultimate",
            "ultimate_diesel",
            "unleaded_95",
            "ad_blue"
        ],
        "website": null,
        "watchlist_id": null,
        "formatted_address": "rue des Allies\n8821\nKoetschette",
        "channel_of_trade": null
    },
    {
        "id": "LU-13391",
        "name": "Aral Luxembourg SA - Schifflange",
        "lat": 49.50953,
        "lng": 6.01167,
        "site_brand": "AR",
        "country_code": "LU",
        "address": "rue Denis Netgen",
        "city": "Schifflange",
        "state": null,
        "postcode": "3858",
        "telephone": "+352 26 53 06 41",
        "facilities": [
            "alcohol",
            "lotto",
            "high_speed_pump",
            "truck_suitable_site",
            "toilet",
            "aral_store",
            "shop",
            "accepts_routex_cards",
            "open_saturday",
            "open_sunday"
        ],
        "products": [
            "ad_blue_cannister",
            "ad_blue_pump",
            "diesel_on",
            "electricity",
            "ultimate",
            "ultimate_diesel",
            "unleaded_95",
            "ad_blue"
        ],
        "website": null,
        "watchlist_id": null,
        "formatted_address": "rue Denis Netgen\n3858\nSchifflange",
        "channel_of_trade": null
    },
    {
        "id": "LU-13393",
        "name": "Hierheck Shopping S.\u00e0 r.l.",
        "lat": 49.8745,
        "lng": 5.93058,
        "site_brand": "AR",
        "country_code": "LU",
        "address": "Bousserstrooss",
        "city": "Hierheck",
        "state": null,
        "postcode": "9144",
        "telephone": "+352 26 88 96 71",
        "facilities": [
            "alcohol",
            "toilet",
            "aral_store",
            "shop",
            "accepts_routex_cards",
            "open_saturday",
            "open_sunday"
        ],
        "products": [
            "ad_blue_cannister",
            "diesel_on",
            "ultimate",
            "ultimate_diesel",
            "unleaded_95"
        ],
        "website": null,
        "watchlist_id": null,
        "formatted_address": "Bousserstrooss\n9144\nHierheck",
        "channel_of_trade": null
    },
    {
        "id": "LU-1343193280",
        "name": "BP CAPELLEN - LKW",
        "lat": 49.63536,
        "lng": 5.97021,
        "site_brand": "BP",
        "country_code": "LU",
        "address": "Aire de Capellen E25",
        "city": "Capellen - LKW 1",
        "state": null,
        "postcode": "8309",
        "telephone": "02610641",
        "facilities": [
            "motorway_site",
            "shop",
            "accepts_routex_cards",
            "open_saturday",
            "open_sunday"
        ],
        "products": [
            "ad_blue_pump",
            "diesel_on",
            "ad_blue"
        ],
        "website": null,
        "watchlist_id": null,
        "formatted_address": "Aire de Capellen E25\n8309\nCapellen - LKW 1",
        "channel_of_trade": null
    },
    {
        "id": "LU-1358849614",
        "name": "BERCHEM - Aral Luxembourg SA",
        "lat": 49.543,
        "lng": 6.118,
        "site_brand": "AR",
        "country_code": "LU",
        "address": "A 3 / E 25",
        "city": "Berchem Ouest - PKW1",
        "state": null,
        "postcode": "3325",
        "telephone": "",
        "facilities": [
            "alcohol",
            "high_speed_pump",
            "truck_suitable_site",
            "aral_store",
            "motorway_site",
            "shop",
            "bakery_bistro",
            "restaurant",
            "accepts_routex_cards",
            "shop_open_24_hours",
            "open_saturday",
            "open_sunday"
        ],
        "products": [
            "auto_gas",
            "diesel_on",
            "lpg",
            "red_diesel",
            "ultimate",
            "ultimate_diesel",
            "unleaded_95"
        ],
        "website": null,
        "watchlist_id": null,
        "formatted_address": "A 3 / E 25\n3325\nBerchem Ouest - PKW1",
        "channel_of_trade": null
    },
    {
        "id": "LU-13613",
        "name": "Massen S.A. Aral",
        "lat": 50.148579,
        "lng": 6.0582131,
        "site_brand": "AR",
        "country_code": "LU",
        "address": "op der Haart",
        "city": "Wemperhardt",
        "state": null,
        "postcode": "9999",
        "telephone": "+352 26 90 11 45",
        "facilities": [
            "alcohol",
            "high_speed_pump",
            "truck_suitable_site",
            "toilet",
            "aral_store",
            "shop",
            "accepts_routex_cards",
            "open_saturday",
            "open_sunday"
        ],
        "products": [
            "ad_blue_cannister",
            "ad_blue_pump",
            "diesel_on",
            "ultimate",
            "ultimate_diesel",
            "unleaded_95",
            "ad_blue"
        ],
        "website": null,
        "watchlist_id": null,
        "formatted_address": "op der Haart\n9999\nWemperhardt",
        "channel_of_trade": null
    },
    {
        "id": "LU-1391980340",
        "name": "SIMON'S PLAZA POTASCHBIERG 2",
        "lat": 49.679371,
        "lng": 6.394772,
        "site_brand": "AR",
        "country_code": "LU",
        "address": "Zone industrielle Potaschbierg",
        "city": "Grevenmacher PB2",
        "state": null,
        "postcode": "6776",
        "telephone": "+352 26 71 05 50",
        "facilities": [
            "alcohol",
            "tobacco",
            "high_speed_pump",
            "truck_suitable_site",
            "toilet",
            "shop",
            "accepts_routex_cards",
            "open_saturday"
        ],
        "products": [
            "ad_blue_pump",
            "diesel_on",
            "unleaded_95",
            "ad_blue"
        ],
        "website": null,
        "watchlist_id": null,
        "formatted_address": "Zone industrielle Potaschbierg\n6776\nGrevenmacher PB2",
        "channel_of_trade": null
    },
    {
        "id": "LU-1527750143",
        "name": "BP CAPELLEN - SHOP",
        "lat": 49.63536,
        "lng": 5.97021,
        "site_brand": "BP",
        "country_code": "LU",
        "address": "Aire de Capellen E25",
        "city": "Capellen - Shop",
        "state": null,
        "postcode": "8309",
        "telephone": "02610641",
        "facilities": [
            "motorway_site",
            "shop",
            "accepts_routex_cards",
            "open_saturday",
            "open_sunday"
        ],
        "products": [
            "ad_blue_cannister"
        ],
        "website": null,
        "watchlist_id": null,
        "formatted_address": "Aire de Capellen E25\n8309\nCapellen - Shop",
        "channel_of_trade": null
    },
    {
        "id": "LU-153451379",
        "name": "BP CAPELLEN - PKW MP2",
        "lat": 49.63536,
        "lng": 5.97021,
        "site_brand": "BP",
        "country_code": "LU",
        "address": "Aire de Capellen E25",
        "city": "Capellen - PKW MP2",
        "state": null,
        "postcode": "8309",
        "telephone": "",
        "facilities": [
            "alcohol",
            "high_speed_pump",
            "truck_parking",
            "truck_suitable_site",
            "toilet",
            "motorway_site",
            "shop",
            "bakery_bistro",
            "restaurant",
            "accepts_routex_cards",
            "shop_open_24_hours"
        ],
        "products": [
            "ad_blue_pump",
            "auto_gas",
            "diesel_on",
            "lpg",
            "ultimate",
            "ultimate_diesel",
            "unleaded_95",
            "ad_blue"
        ],
        "website": null,
        "watchlist_id": null,
        "formatted_address": "Aire de Capellen E25\n8309\nCapellen - PKW MP2",
        "channel_of_trade": null
    },
    {
        "id": "LU-1836010922",
        "name": "ARAL LUXEMBOURG SA - 9805 SHOP",
        "lat": 49.63729,
        "lng": 5.96956,
        "site_brand": "AR",
        "country_code": "LU",
        "address": "Aral Aire de Capellen E25/A6 Nord",
        "city": "Aral Capellen - Shop",
        "state": null,
        "postcode": "8309",
        "telephone": "",
        "facilities": [
            "motorway_site",
            "shop",
            "accepts_routex_cards"
        ],
        "products": [
            "ad_blue_cannister"
        ],
        "website": null,
        "watchlist_id": null,
        "formatted_address": "Aral Aire de Capellen E25/A6 Nord\n8309\nAral Capellen - Shop",
        "channel_of_trade": null
    },
    {
        "id": "LU-1932340641",
        "name": "BS Services S.\u00e0 r.l. - Niederfeulen",
        "lat": 49.852652,
        "lng": 6.046953,
        "site_brand": "AR",
        "country_code": "LU",
        "address": "route de Bastogne",
        "city": "Niederfeulen",
        "state": null,
        "postcode": "9177",
        "telephone": "",
        "facilities": [
            "alcohol",
            "lotto",
            "high_speed_pump",
            "truck_suitable_site",
            "toilet",
            "aral_store",
            "shop",
            "accepts_routex_cards",
            "open_saturday",
            "open_sunday"
        ],
        "products": [
            "ad_blue_cannister",
            "diesel_on",
            "ultimate",
            "ultimate_diesel",
            "unleaded_95"
        ],
        "website": null,
        "watchlist_id": null,
        "formatted_address": "route de Bastogne\n9177\nNiederfeulen",
        "channel_of_trade": null
    },
    {
        "id": "LU-2029951241",
        "name": "GOEDERT FRISANGE",
        "lat": 49.50763,
        "lng": 6.192015,
        "site_brand": "AR",
        "country_code": "LU",
        "address": "42, Rue Robert Schuman",
        "city": "Frisange",
        "state": null,
        "postcode": "5751",
        "telephone": "+352 48 87 66 962",
        "facilities": [
            "shop",
            "accepts_routex_cards",
            "open_saturday"
        ],
        "products": [],
        "website": null,
        "watchlist_id": null,
        "formatted_address": "42, Rue Robert Schuman\n5751\nFrisange",
        "channel_of_trade": null
    },
    {
        "id": "LU-2098105464",
        "name": "BERCHEM - Aral Luxembourg SA",
        "lat": 49.543,
        "lng": 6.118,
        "site_brand": "AR",
        "country_code": "LU",
        "address": "A 3 / E 25",
        "city": "Berchem Ouest - LKW2",
        "state": null,
        "postcode": "3325",
        "telephone": "",
        "facilities": [
            "alcohol",
            "high_speed_pump",
            "truck_suitable_site",
            "aral_store",
            "motorway_site",
            "shop",
            "bakery_bistro",
            "restaurant",
            "accepts_routex_cards",
            "shop_open_24_hours",
            "open_saturday",
            "open_sunday"
        ],
        "products": [
            "ad_blue_pump",
            "diesel_on",
            "lpg",
            "red_diesel",
            "unleaded_95",
            "ad_blue"
        ],
        "website": null,
        "watchlist_id": null,
        "formatted_address": "A 3 / E 25\n3325\nBerchem Ouest - LKW2",
        "channel_of_trade": null
    },
    {
        "id": "LU-2117443833",
        "name": "ARAL LUXEMBOURG SA - 9802 PKW2",
        "lat": 49.637069,
        "lng": 5.97173,
        "site_brand": "AR",
        "country_code": "LU",
        "address": "Aral Aire de Capellen E25/A6 Nord",
        "city": "Aral Capellen - PKW 2",
        "state": null,
        "postcode": "8309",
        "telephone": "",
        "facilities": [
            "motorway_site",
            "shop",
            "accepts_routex_cards"
        ],
        "products": [
            "diesel_on",
            "ultimate",
            "ultimate_diesel",
            "unleaded_95"
        ],
        "website": null,
        "watchlist_id": null,
        "formatted_address": "Aral Aire de Capellen E25/A6 Nord\n8309\nAral Capellen - PKW 2",
        "channel_of_trade": null
    },
    {
        "id": "LU-231313730",
        "name": "F&L Fuel S\u00e0rl - Merl 2",
        "lat": 49.605522,
        "lng": 6.101336,
        "site_brand": "AR",
        "country_code": "LU",
        "address": "route de Longwy",
        "city": "Luxembourg-Merl 2",
        "state": null,
        "postcode": "1941",
        "telephone": "+352 26 25 96 57",
        "facilities": [
            "alcohol",
            "toilet",
            "aral_store",
            "shop",
            "accepts_routex_cards",
            "open_saturday",
            "open_sunday"
        ],
        "products": [
            "ad_blue_cannister",
            "diesel_on",
            "ultimate",
            "ultimate_diesel",
            "unleaded_95"
        ],
        "website": null,
        "watchlist_id": null,
        "formatted_address": "route de Longwy\n1941\nLuxembourg-Merl 2",
        "channel_of_trade": null
    },
    {
        "id": "LU-336844874",
        "name": "SIMON THIERRY   BP",
        "lat": 49.837948,
        "lng": 5.838906,
        "site_brand": "BP",
        "country_code": "LU",
        "address": "rue des Allies",
        "city": "Koetschette",
        "state": null,
        "postcode": "8821",
        "telephone": "02364211",
        "facilities": [
            "shop",
            "accepts_routex_cards",
            "open_saturday"
        ],
        "products": [
            "ad_blue_pump",
            "diesel_on",
            "ultimate",
            "ultimate_diesel",
            "unleaded_95",
            "ad_blue"
        ],
        "website": null,
        "watchlist_id": null,
        "formatted_address": "rue des Allies\n8821\nKoetschette",
        "channel_of_trade": null
    },
    {
        "id": "LU-422317814",
        "name": "Aral Luxembourg SA - Rodange 3",
        "lat": 49.541557,
        "lng": 5.815404,
        "site_brand": "AR",
        "country_code": "LU",
        "address": "route de Longwy",
        "city": "Rodange III",
        "state": null,
        "postcode": "4832",
        "telephone": "+352 26 65 08 60",
        "facilities": [
            "alcohol",
            "high_speed_pump",
            "truck_suitable_site",
            "toilet",
            "aral_store",
            "shop",
            "accepts_routex_cards",
            "open_saturday",
            "open_sunday"
        ],
        "products": [
            "ad_blue_cannister",
            "ad_blue_pump",
            "diesel_on",
            "ultimate",
            "ultimate_diesel",
            "ultimate_unleaded",
            "unleaded_95",
            "ad_blue"
        ],
        "website": null,
        "watchlist_id": null,
        "formatted_address": "route de Longwy\n4832\nRodange III",
        "channel_of_trade": null
    },
    {
        "id": "LU-435697984",
        "name": "SIMON S PLAZA POTASCHBERG 1",
        "lat": 49.679691,
        "lng": 6.394944,
        "site_brand": "AR",
        "country_code": "LU",
        "address": "Zone Industrielle Potaschberg",
        "city": "Grevenmacher PB1",
        "state": null,
        "postcode": "6776",
        "telephone": "",
        "facilities": [
            "alcohol",
            "tobacco",
            "high_speed_pump",
            "truck_suitable_site",
            "toilet",
            "shop",
            "bakery_bistro",
            "accepts_routex_cards",
            "open_saturday",
            "open_sunday"
        ],
        "products": [
            "ad_blue_pump",
            "auto_gas",
            "diesel_on",
            "lpg",
            "ultimate",
            "ultimate_diesel",
            "unleaded_95",
            "ad_blue"
        ],
        "website": null,
        "watchlist_id": null,
        "formatted_address": "Zone Industrielle Potaschberg\n6776\nGrevenmacher PB1",
        "channel_of_trade": null
    },
    {
        "id": "LU-472441557",
        "name": "R. Goedert S.A. - Bereldange",
        "lat": 49.6518,
        "lng": 6.1279,
        "site_brand": "AR",
        "country_code": "LU",
        "address": "rte de Luxembourg",
        "city": "Bereldange",
        "state": null,
        "postcode": "7241",
        "telephone": "+352 48 87 66 662",
        "facilities": [
            "toilet",
            "shop",
            "accepts_routex_cards",
            "open_saturday",
            "open_sunday"
        ],
        "products": [
            "ad_blue_cannister",
            "diesel_on",
            "ultimate",
            "ultimate_diesel",
            "unleaded_95"
        ],
        "website": null,
        "watchlist_id": null,
        "formatted_address": "rte de Luxembourg\n7241\nBereldange",
        "channel_of_trade": null
    },
    {
        "id": "LU-508620399",
        "name": "SIMON S PLAZA KUMMERT",
        "lat": 49.677809,
        "lng": 6.439427,
        "site_brand": "AR",
        "country_code": "LU",
        "address": "rue Kummert",
        "city": "Grevenmacher KU",
        "state": null,
        "postcode": "6743",
        "telephone": "",
        "facilities": [
            "alcohol",
            "tobacco",
            "truck_suitable_site",
            "toilet",
            "shop",
            "bakery_bistro",
            "accepts_routex_cards",
            "open_saturday",
            "open_sunday"
        ],
        "products": [
            "diesel_on",
            "truck_diesel",
            "ultimate",
            "ultimate_diesel",
            "unleaded_95"
        ],
        "website": null,
        "watchlist_id": null,
        "formatted_address": "rue Kummert\n6743\nGrevenmacher KU",
        "channel_of_trade": null
    },
    {
        "id": "LU-511662274",
        "name": "ARAL LUXEMBOURG SA - 9801 PKW1",
        "lat": 49.637069,
        "lng": 5.97173,
        "site_brand": "AR",
        "country_code": "LU",
        "address": "Aral Aire de Capellen E25/A6 Nord",
        "city": "Aral Capellen - PKW 1",
        "state": null,
        "postcode": "8309",
        "telephone": "",
        "facilities": [
            "motorway_site",
            "shop",
            "accepts_routex_cards"
        ],
        "products": [
            "ad_blue_pump",
            "auto_gas",
            "diesel_on",
            "ultimate",
            "ultimate_diesel",
            "unleaded_95",
            "ad_blue"
        ],
        "website": null,
        "watchlist_id": null,
        "formatted_address": "Aral Aire de Capellen E25/A6 Nord\n8309\nAral Capellen - PKW 1",
        "channel_of_trade": null
    },
    {
        "id": "LU-516893114",
        "name": "BP CAPELLEN - LKW MP1",
        "lat": 49.63536,
        "lng": 5.97021,
        "site_brand": "BP",
        "country_code": "LU",
        "address": "Aire de Capellen E25",
        "city": "Capellen - LKW MP1",
        "state": null,
        "postcode": "8309",
        "telephone": "",
        "facilities": [
            "alcohol",
            "high_speed_pump",
            "truck_parking",
            "truck_suitable_site",
            "toilet",
            "motorway_site",
            "shop",
            "bakery_bistro",
            "restaurant",
            "accepts_routex_cards",
            "shop_open_24_hours"
        ],
        "products": [
            "ad_blue_pump",
            "diesel_on",
            "lpg",
            "unleaded_95",
            "ad_blue"
        ],
        "website": null,
        "watchlist_id": null,
        "formatted_address": "Aire de Capellen E25\n8309\nCapellen - LKW MP1",
        "channel_of_trade": null
    },
    {
        "id": "LU-52309377",
        "name": "TRUCK STOP MARTELANGE",
        "lat": 49.828047,
        "lng": 5.746034,
        "site_brand": "BP",
        "country_code": "LU",
        "address": "route d'Arlon",
        "city": "Martelange",
        "state": null,
        "postcode": "8832",
        "telephone": "023640675",
        "facilities": [
            "shop",
            "accepts_routex_cards",
            "open_saturday",
            "open_sunday"
        ],
        "products": [
            "ad_blue_pump",
            "diesel_on",
            "ultimate",
            "ultimate_diesel",
            "ultimate_unleaded",
            "unleaded_95",
            "ad_blue"
        ],
        "website": null,
        "watchlist_id": "52309377",
        "formatted_address": "route d'Arlon\n8832\nMartelange",
        "channel_of_trade": null
    },
    {
        "id": "LU-549537305",
        "name": "ARAL LUXEMBOURG SA - 9806 REST",
        "lat": 49.63729,
        "lng": 5.96956,
        "site_brand": "AR",
        "country_code": "LU",
        "address": "Aral Aire de Capellen E25/A6 Nord",
        "city": "Aral Capellen - RESTO",
        "state": null,
        "postcode": "8309",
        "telephone": "",
        "facilities": [
            "motorway_site",
            "shop",
            "accepts_routex_cards"
        ],
        "products": [],
        "website": null,
        "watchlist_id": null,
        "formatted_address": "Aral Aire de Capellen E25/A6 Nord\n8309\nAral Capellen - RESTO",
        "channel_of_trade": null
    },
    {
        "id": "LU-550055842",
        "name": "R. Goedert S.A. Hollerich",
        "lat": 49.597704,
        "lng": 6.117353,
        "site_brand": "AR",
        "country_code": "LU",
        "address": "rte d'Esch",
        "city": "Luxembourg",
        "state": null,
        "postcode": "1471",
        "telephone": "+352 48 87 66 262",
        "facilities": [
            "toilet",
            "shop",
            "accepts_routex_cards",
            "open_saturday",
            "open_sunday"
        ],
        "products": [
            "ad_blue_cannister",
            "diesel_on",
            "ultimate",
            "ultimate_diesel",
            "unleaded_95"
        ],
        "website": null,
        "watchlist_id": null,
        "formatted_address": "rte d'Esch\n1471\nLuxembourg",
        "channel_of_trade": null
    },
    {
        "id": "LU-568731414",
        "name": "SIMON S PLAZA  ROND-POINT",
        "lat": 49.682539,
        "lng": 6.448152,
        "site_brand": "AR",
        "country_code": "LU",
        "address": "route de Tr\u00e8ves",
        "city": "Grevenmacher  RP",
        "state": null,
        "postcode": "6793",
        "telephone": "+352 75 93 28 23",
        "facilities": [
            "alcohol",
            "tobacco",
            "high_speed_pump",
            "truck_suitable_site",
            "toilet",
            "shop",
            "bakery_bistro",
            "restaurant",
            "accepts_routex_cards",
            "open_saturday",
            "open_sunday"
        ],
        "products": [
            "diesel_on",
            "ultimate",
            "ultimate_unleaded",
            "unleaded_95"
        ],
        "website": null,
        "watchlist_id": null,
        "formatted_address": "route de Tr\u00e8ves\n6793\nGrevenmacher  RP",
        "channel_of_trade": null
    },
    {
        "id": "LU-57924972",
        "name": "Ener gine S\u00e0rl - NIEDERKORN 2",
        "lat": 49.546091,
        "lng": 5.897823,
        "site_brand": "AR",
        "country_code": "LU",
        "address": "route de Bascharage",
        "city": "Niederkorn",
        "state": null,
        "postcode": "4513",
        "telephone": "+352 24 55 88 26",
        "facilities": [
            "aral_store",
            "shop",
            "accepts_routex_cards",
            "open_saturday",
            "open_sunday"
        ],
        "products": [
            "ad_blue_cannister",
            "ad_blue_pump",
            "diesel_on",
            "ultimate",
            "ultimate_diesel",
            "unleaded_95",
            "ad_blue"
        ],
        "website": null,
        "watchlist_id": "57924972",
        "formatted_address": "route de Bascharage\n4513\nNiederkorn",
        "channel_of_trade": null
    },
    {
        "id": "LU-602058049",
        "name": "ARAL LUXEMBOURG SA - 9804 LKW2",
        "lat": 49.636557,
        "lng": 5.971272,
        "site_brand": "AR",
        "country_code": "LU",
        "address": "Aral Aire de Capellen E25/A6 Nord",
        "city": "Aral Capellen - LKW 2",
        "state": null,
        "postcode": "8309",
        "telephone": "",
        "facilities": [
            "motorway_site",
            "shop",
            "accepts_routex_cards"
        ],
        "products": [
            "ad_blue_pump",
            "diesel_on",
            "ad_blue"
        ],
        "website": null,
        "watchlist_id": null,
        "formatted_address": "Aral Aire de Capellen E25/A6 Nord\n8309\nAral Capellen - LKW 2",
        "channel_of_trade": null
    },
    {
        "id": "LU-73375827",
        "name": "GOEDERT FOETZ",
        "lat": 49.521688,
        "lng": 6.010421,
        "site_brand": "BP",
        "country_code": "LU",
        "address": "rue du Brill",
        "city": "Foetz",
        "state": null,
        "postcode": "3898",
        "telephone": "0488766401",
        "facilities": [
            "shop",
            "accepts_routex_cards",
            "open_saturday",
            "open_sunday"
        ],
        "products": [
            "diesel_on",
            "ultimate",
            "ultimate_diesel",
            "unleaded_95"
        ],
        "website": null,
        "watchlist_id": "73375827",
        "formatted_address": "rue du Brill\n3898\nFoetz",
        "channel_of_trade": null
    },
    {
        "id": "LU-853774494",
        "name": "R. Goedert S.A. - Bertrange / Belle Etoile",
        "lat": 49.622069,
        "lng": 6.04883,
        "site_brand": "AR",
        "country_code": "LU",
        "address": "Shopping Center La Belle Etoile",
        "city": "Bertrange",
        "state": null,
        "postcode": "8050",
        "telephone": "+352 48 87 66 391",
        "facilities": [
            "toilet",
            "shop",
            "accepts_routex_cards",
            "open_saturday",
            "open_sunday"
        ],
        "products": [
            "diesel_on",
            "ultimate",
            "ultimate_diesel",
            "unleaded_95"
        ],
        "website": null,
        "watchlist_id": null,
        "formatted_address": "Shopping Center La Belle Etoile\n8050\nBertrange",
        "channel_of_trade": null
    },
    {
        "id": "LU-919312023",
        "name": "GOEDERT REMICH3",
        "lat": 49.547517,
        "lng": 6.359931,
        "site_brand": "AR",
        "country_code": "LU",
        "address": "21, Rte de l'Europe",
        "city": "Remich",
        "state": null,
        "postcode": "5531",
        "telephone": "+352 48 87 66 762",
        "facilities": [
            "shop",
            "accepts_routex_cards",
            "open_saturday"
        ],
        "products": [],
        "website": null,
        "watchlist_id": null,
        "formatted_address": "21, Rte de l'Europe\n5531\nRemich",
        "channel_of_trade": null
    }
]