[{"id": "NZ-0DJ01", "name": "BP Connect Riverside", "lat": -35.729031, "lng": 174.33867, "site_brand": "BP", "country_code": "NZ", "address": "121 Riverside Drive", "city": "Whangarei", "state": "Parahaki", "postcode": null, "telephone": "+64 9 459 6681", "facilities": ["open_24_hours", "open_saturday", "open_sunday", "car_wash", "tires_pump_up", "vacuum_cleaner", "cash_point", "disabled_facilities", "recycling", "toilet", "wifi", "wild_bean_cafe", "mobile_enabled", "everyday_rewards", "swappa_bottle"], "products": ["aa_smart_fuel", "ultimate_diesel", "unleaded_91", "unleaded_95"], "website": null, "watchlist_id": null, "formatted_address": "121 Riverside Drive\nWhangarei", "channel_of_trade": null}, {"id": "NZ-0DJ02", "name": "BP Connect Wylies", "lat": -35.731049, "lng": 174.311866, "site_brand": "BP", "country_code": "NZ", "address": "49 Maunu Road", "city": "Whangarei", "state": "Woodhill", "postcode": null, "telephone": "+64 9 430 7742", "facilities": ["open_24_hours", "open_saturday", "open_sunday", "car_wash", "tires_pump_up", "vacuum_cleaner", "cash_point", "disabled_facilities", "recycling", "toilet", "wifi", "wild_bean_cafe", "mobile_enabled", "everyday_rewards", "swappa_bottle"], "products": ["aa_smart_fuel", "electricity", "ultimate_diesel", "unleaded_91", "unleaded_95"], "website": null, "watchlist_id": null, "formatted_address": "49 Maunu Road\nWhangarei", "channel_of_trade": null}, {"id": "NZ-0DJ03", "name": "BP Connect Orewa", "lat": -36.590092, "lng": 174.697729, "site_brand": "BP", "country_code": "NZ", "address": "270-272 Hibiscus Coast Hwy", "city": "Auckland", "state": "Orewa", "postcode": null, "telephone": "+64 9 426 1750", "facilities": ["open_saturday", "open_sunday", "car_wash", "tires_pump_up", "vacuum_cleaner", "disabled_facilities", "recycling", "toilet", "wifi", "wild_bean_cafe", "good_mood_food", "mobile_enabled", "everyday_rewards", "swappa_bottle"], "products": ["aa_smart_fuel", "electricity", "ultimate_98", "ultimate_diesel", "unleaded_91", "unleaded_95"], "website": null, "watchlist_id": null, "formatted_address": "270-272 Hibiscus Coast Hwy\nAuckland", "channel_of_trade": null}, {"id": "NZ-0DJ04", "name": "BP Connect Whangaparaoa", "lat": -36.635386, "lng": 174.745673, "site_brand": "BP", "country_code": "NZ", "address": "701 Whangaparaoa Road", "city": "Auckland", "state": "Stanmore Bay", "postcode": null, "telephone": "+64 9 424 7681", "facilities": ["open_saturday", "open_sunday", "car_wash", "tires_pump_up", "vacuum_cleaner", "disabled_facilities", "recycling", "toilet", "wifi", "wild_bean_cafe", "good_mood_food", "mobile_enabled", "everyday_rewards", "swappa_bottle"], "products": ["aa_smart_fuel", "ultimate_98", "ultimate_diesel", "unleaded_91", "unleaded_95"], "website": null, "watchlist_id": null, "formatted_address": "701 Whangaparaoa Road\nAuckland", "channel_of_trade": null}, {"id": "NZ-0DJ05", "name": "BP Connect Silverdale", "lat": -36.616619, "lng": 174.68037, "site_brand": "BP", "country_code": "NZ", "address": "23 Hibiscus Coast Highway", "city": "Auckland", "state": "Silverdale", "postcode": null, "telephone": "+64 9 426 2530", "facilities": ["open_24_hours", "open_saturday", "open_sunday", "tires_pump_up", "cash_point", "disabled_facilities", "recycling", "toilet", "wifi", "wild_bean_cafe", "good_mood_food", "mobile_enabled", "everyday_rewards", "swappa_bottle"], "products": ["aa_smart_fuel", "ultimate_98", "ultimate_diesel", "unleaded_91", "unleaded_95"], "website": null, "watchlist_id": null, "formatted_address": "23 Hibiscus Coast Highway\nAuckland", "channel_of_trade": null}, {"id": "NZ-0DJ06", "name": "BP Connect Dairy Flat", "lat": -36.660139, "lng": 174.666481, "site_brand": "BP", "country_code": "NZ", "address": " Auckland-Waiwera Motorway, State Highway 1", "city": "Auckland", "state": "Dairy Flat", "postcode": null, "telephone": "+64 9 448 5175", "facilities": ["open_24_hours", "open_saturday", "open_sunday", "tires_pump_up", "cash_point", "disabled_facilities", "recycling", "toilet", "wild_bean_cafe", "good_mood_food", "mobile_enabled", "everyday_rewards", "swappa_bottle"], "products": ["aa_smart_fuel", "electricity", "truck_diesel", "ultimate_98", "ultimate_diesel", "unleaded_91"], "website": null, "watchlist_id": null, "formatted_address": " Auckland-Waiwera Motorway, State Highway 1\nAuckland", "channel_of_trade": null}, {"id": "NZ-0DJ07", "name": "BP Connect Coventry", "lat": -36.772799, "lng": 174.741749, "site_brand": "BP", "country_code": "NZ", "address": "127 Wairau Road", "city": "Auckland", "state": "Takapuna", "postcode": null, "telephone": "+64 9 441 2820", "facilities": ["open_24_hours", "open_saturday", "open_sunday", "car_wash", "tires_pump_up", "vacuum_cleaner", "cash_point", "disabled_facilities", "recycling", "toilet", "wifi", "wild_bean_cafe", "good_mood_food", "ubereats", "mobile_enabled", "everyday_rewards", "swappa_bottle"], "products": ["aa_smart_fuel", "electricity", "truck_diesel", "ultimate_98", "ultimate_diesel", "unleaded_91", "unleaded_95"], "website": null, "watchlist_id": null, "formatted_address": "127 Wairau Road\nAuckland", "channel_of_trade": null}, {"id": "NZ-0DJ08", "name": "BP Connect Clifton", "lat": -36.798111, "lng": 174.783468, "site_brand": "BP", "country_code": "NZ", "address": "297 Lake Road", "city": "Auckland", "state": "Hauraki", "postcode": null, "telephone": "+64 9 488 2850", "facilities": ["open_24_hours", "open_saturday", "open_sunday", "car_wash", "tires_pump_up", "vacuum_cleaner", "cash_point", "disabled_facilities", "recycling", "toilet", "wifi", "wild_bean_cafe", "good_mood_food", "ubereats", "mobile_enabled", "everyday_rewards", "swappa_bottle"], "products": ["aa_smart_fuel", "ultimate_98", "ultimate_diesel", "unleaded_91", "unleaded_95"], "website": null, "watchlist_id": null, "formatted_address": "297 Lake Road\nAuckland", "channel_of_trade": null}, {"id": "NZ-0DJ09", "name": "BP Connect Birkenhead", "lat": -36.810895, "lng": 174.712435, "site_brand": "BP", "country_code": "NZ", "address": "172-178 Mokoia Road", "city": "Auckland", "state": "Birkenhead", "postcode": null, "telephone": "+64 9 480 3560", "facilities": ["open_24_hours", "open_saturday", "open_sunday", "car_wash", "tires_pump_up", "vacuum_cleaner", "cash_point", "disabled_facilities", "recycling", "toilet", "wifi", "wild_bean_cafe", "good_mood_food", "ubereats", "mobile_enabled", "everyday_rewards", "swappa_bottle"], "products": ["aa_smart_fuel", "electricity", "ultimate_diesel", "unleaded_91", "unleaded_95"], "website": null, "watchlist_id": null, "formatted_address": "172-178 Mokoia Road\nAuckland", "channel_of_trade": null}, {"id": "NZ-0DJ10", "name": "BP 2go Onewa Road", "lat": -36.810878, "lng": 174.744, "site_brand": "BP", "country_code": "NZ", "address": "67 Onewa Road", "city": "Auckland", "state": "Northcote", "postcode": null, "telephone": "+64 9 480 4940", "facilities": ["open_saturday", "open_sunday", "tires_pump_up", "trailers", "high_speed_pump", "truck_parking", "cash_point", "disabled_facilities", "recycling", "toilet", "motorway_site", "wild_bean_cafe", "mobile_enabled", "everyday_rewards", "swappa_bottle"], "products": ["aa_smart_fuel", "truck_diesel", "ultimate_98", "ultimate_diesel", "unleaded_91"], "website": null, "watchlist_id": null, "formatted_address": "67 Onewa Road\nAuckland", "channel_of_trade": null}, {"id": "NZ-0DJ11", "name": "BP Connect Herne Bay", "lat": -36.845314, "lng": 174.737935, "site_brand": "BP", "country_code": "NZ", "address": "136 Jervois Road", "city": "Auckland", "state": "Herne Bay", "postcode": null, "telephone": "+64 9 360 7790", "facilities": ["open_24_hours", "open_saturday", "open_sunday", "car_wash", "tires_pump_up", "cash_point", "disabled_facilities", "recycling", "toilet", "wifi", "wild_bean_cafe", "good_mood_food", "ubereats", "mobile_enabled", "everyday_rewards", "swappa_bottle"], "products": ["aa_smart_fuel", "electricity", "ultimate_98", "ultimate_diesel", "unleaded_91", "unleaded_95"], "website": null, "watchlist_id": null, "formatted_address": "136 Jervois Road\nAuckland", "channel_of_trade": null}, {"id": "NZ-0DJ12", "name": "BP Connect Fanshawe Street", "lat": -36.846111, "lng": 174.758787, "site_brand": "BP", "country_code": "NZ", "address": "104-108 Fanshawe Street", "city": "Auckland", "state": "Auckland Central", "postcode": null, "telephone": "+64 9 373 0910", "facilities": ["open_saturday", "open_sunday", "tires_pump_up", "disabled_facilities", "recycling", "toilet", "wifi", "wild_bean_cafe", "good_mood_food", "ubereats", "mobile_enabled", "everyday_rewards", "swappa_bottle"], "products": ["aa_smart_fuel", "ultimate_98", "ultimate_diesel", "unleaded_91", "unleaded_95"], "website": null, "watchlist_id": null, "formatted_address": "104-108 Fanshawe Street\nAuckland", "channel_of_trade": null}, {"id": "NZ-0DJ13", "name": "BP Connect Newmarket", "lat": -36.867157, "lng": 174.774944, "site_brand": "BP", "country_code": "NZ", "address": "433 Khyber Pass Road", "city": "Auckland", "state": "Newmarket", "postcode": null, "telephone": "+64 9 523 0830", "facilities": ["open_24_hours", "open_saturday", "open_sunday", "car_wash", "tires_pump_up", "vacuum_cleaner", "cash_point", "disabled_facilities", "recycling", "toilet", "wifi", "wild_bean_cafe", "good_mood_food", "ubereats", "mobile_enabled", "everyday_rewards", "swappa_bottle"], "products": ["aa_smart_fuel", "electricity", "ultimate_98", "ultimate_diesel", "unleaded_91"], "website": null, "watchlist_id": null, "formatted_address": "433 Khyber Pass Road\nAuckland", "channel_of_trade": null}, {"id": "NZ-0DJ15", "name": "BP Connect Lincoln Road", "lat": -36.863793, "lng": 174.628878, "site_brand": "BP", "country_code": "NZ", "address": "136 Lincoln Road", "city": "Auckland", "state": "Henderson", "postcode": null, "telephone": "+64 9 953 3890", "facilities": ["open_24_hours", "open_saturday", "open_sunday", "car_wash", "tires_pump_up", "vacuum_cleaner", "cash_point", "disabled_facilities", "recycling", "toilet", "wifi", "wild_bean_cafe", "good_mood_food", "ubereats", "mobile_enabled", "everyday_rewards", "swappa_bottle"], "products": ["aa_smart_fuel", "electricity", "ultimate_98", "ultimate_diesel", "unleaded_91", "unleaded_95"], "website": null, "watchlist_id": null, "formatted_address": "136 Lincoln Road\nAuckland", "channel_of_trade": null}, {"id": "NZ-0DJ16", "name": "BP Connect Larnoch", "lat": -36.863694, "lng": 174.614985, "site_brand": "BP", "country_code": "NZ", "address": "223 Swanson Road", "city": "Auckland", "state": "Henderson", "postcode": null, "telephone": "+64 9 835 0880", "facilities": ["open_24_hours", "open_saturday", "open_sunday", "tires_pump_up", "cash_point", "disabled_facilities", "recycling", "toilet", "wifi", "wild_bean_cafe", "good_mood_food", "ubereats", "mobile_enabled", "everyday_rewards", "swappa_bottle"], "products": ["aa_smart_fuel", "electricity", "ultimate_diesel", "unleaded_91", "unleaded_95"], "website": null, "watchlist_id": null, "formatted_address": "223 Swanson Road\nAuckland", "channel_of_trade": null}, {"id": "NZ-0DJ17", "name": "BP Connect Glendene", "lat": -36.885521, "lng": 174.644439, "site_brand": "BP", "country_code": "NZ", "address": " Cnr Norcross Road & Te Atatu Road", "city": "Auckland", "state": "Glendene", "postcode": null, "telephone": "+64 9 836 7730", "facilities": ["open_24_hours", "open_saturday", "open_sunday", "car_wash", "tires_pump_up", "vacuum_cleaner", "cash_point", "disabled_facilities", "recycling", "toilet", "wifi", "wild_bean_cafe", "good_mood_food", "ubereats", "mobile_enabled", "everyday_rewards", "swappa_bottle"], "products": ["aa_smart_fuel", "electricity", "ultimate_diesel", "unleaded_91", "unleaded_95"], "website": null, "watchlist_id": null, "formatted_address": " Cnr Norcross Road & Te Atatu Road\nAuckland", "channel_of_trade": null}, {"id": "NZ-0DJ18", "name": "BP Connect Junction", "lat": -36.91011, "lng": 174.689879, "site_brand": "BP", "country_code": "NZ", "address": " Cnr Portage Road & Clark Street", "city": "Auckland", "state": "New Lynn", "postcode": null, "telephone": "+64 9 826 2250", "facilities": ["open_24_hours", "open_saturday", "open_sunday", "car_wash", "tires_pump_up", "vacuum_cleaner", "cash_point", "disabled_facilities", "recycling", "toilet", "wifi", "wild_bean_cafe", "good_mood_food", "ubereats", "mobile_enabled", "everyday_rewards", "swappa_bottle"], "products": ["aa_smart_fuel", "ultimate_98", "ultimate_diesel", "unleaded_91", "unleaded_95"], "website": null, "watchlist_id": null, "formatted_address": " Cnr Portage Road & Clark Street\nAuckland", "channel_of_trade": null}, {"id": "NZ-0DJ19", "name": "BP Connect Mercury", "lat": -36.888449, "lng": 174.710721, "site_brand": "BP", "country_code": "NZ", "address": "975 New North Road", "city": "Auckland", "state": "Mt Albert", "postcode": null, "telephone": "+64 9 815 4540", "facilities": ["open_24_hours", "open_saturday", "open_sunday", "car_wash", "tires_pump_up", "vacuum_cleaner", "disabled_facilities", "recycling", "toilet", "wifi", "wild_bean_cafe", "good_mood_food", "ubereats", "mobile_enabled", "everyday_rewards", "swappa_bottle"], "products": ["aa_smart_fuel", "ultimate_98", "ultimate_diesel", "unleaded_91", "unleaded_95"], "website": null, "watchlist_id": null, "formatted_address": "975 New North Road\nAuckland", "channel_of_trade": null}, {"id": "NZ-0DJ20", "name": "BP Connect Waterview", "lat": -36.876737, "lng": 174.703799, "site_brand": "BP", "country_code": "NZ", "address": "1356 Gt North Road", "city": "Auckland", "state": "Waterview", "postcode": null, "telephone": "+64 9 820 7560", "facilities": ["open_24_hours", "open_saturday", "open_sunday", "car_wash", "tires_pump_up", "vacuum_cleaner", "cash_point", "disabled_facilities", "recycling", "toilet", "wifi", "wild_bean_cafe", "good_mood_food", "ubereats", "mobile_enabled", "everyday_rewards", "swappa_bottle"], "products": ["aa_smart_fuel", "ultimate_diesel", "unleaded_91", "unleaded_95"], "website": null, "watchlist_id": null, "formatted_address": "1356 Gt North Road\nAuckland", "channel_of_trade": null}, {"id": "NZ-0DJ21", "name": "BP Connect Boulevard", "lat": -36.89231, "lng": 174.797043, "site_brand": "BP", "country_code": "NZ", "address": "468-476 Great South Road", "city": "Auckland", "state": "Greenlane", "postcode": null, "telephone": "+64 9 529 2970", "facilities": ["open_saturday", "open_sunday", "car_wash", "tires_pump_up", "vacuum_cleaner", "cash_point", "disabled_facilities", "recycling", "toilet", "wifi", "wild_bean_cafe", "good_mood_food", "ubereats", "mobile_enabled", "everyday_rewards", "swappa_bottle"], "products": ["aa_smart_fuel", "ultimate_98", "ultimate_diesel", "unleaded_91"], "website": null, "watchlist_id": null, "formatted_address": "468-476 Great South Road\nAuckland", "channel_of_trade": null}, {"id": "NZ-0DJ22", "name": "BP Connect Howick", "lat": -36.895983, "lng": 174.922299, "site_brand": "BP", "country_code": "NZ", "address": "136 Ridge Road", "city": "Auckland", "state": "Howick", "postcode": null, "telephone": "+64 9 533 7790", "facilities": ["open_saturday", "open_sunday", "car_wash", "tires_pump_up", "vacuum_cleaner", "disabled_facilities", "recycling", "toilet", "wild_bean_cafe", "good_mood_food", "ubereats", "mobile_enabled", "everyday_rewards", "swappa_bottle"], "products": ["aa_smart_fuel", "ultimate_98", "ultimate_diesel", "unleaded_91"], "website": null, "watchlist_id": null, "formatted_address": "136 Ridge Road\nAuckland", "channel_of_trade": null}, {"id": "NZ-0DJ23", "name": "BP Connect East Tamaki", "lat": -36.928585, "lng": 174.916659, "site_brand": "BP", "country_code": "NZ", "address": "500 Chapel Road", "city": "Auckland", "state": "North Park", "postcode": null, "telephone": "+64 9 273 5830", "facilities": ["open_saturday", "open_sunday", "car_wash", "tires_pump_up", "disabled_facilities", "recycling", "toilet", "wifi", "wild_bean_cafe", "good_mood_food", "ubereats", "mobile_enabled", "everyday_rewards", "swappa_bottle"], "products": ["aa_smart_fuel", "electricity", "ultimate_98", "ultimate_diesel", "unleaded_91", "unleaded_95"], "website": null, "watchlist_id": null, "formatted_address": "500 Chapel Road\nAuckland", "channel_of_trade": null}, {"id": "NZ-0DJ24", "name": "BP Connect Mangere", "lat": -36.953732, "lng": 174.790911, "site_brand": "BP", "country_code": "NZ", "address": "154 Coronation Road", "city": "Auckland", "state": "Mangere", "postcode": null, "telephone": "+64 9 622 4310", "facilities": ["open_24_hours", "open_saturday", "open_sunday", "car_wash", "tires_pump_up", "vacuum_cleaner", "cash_point", "disabled_facilities", "recycling", "toilet", "wifi", "wild_bean_cafe", "good_mood_food", "ubereats", "mobile_enabled", "everyday_rewards", "swappa_bottle"], "products": ["aa_smart_fuel", "electricity", "ultimate_98", "ultimate_diesel", "unleaded_91"], "website": null, "watchlist_id": null, "formatted_address": "154 Coronation Road\nAuckland", "channel_of_trade": null}, {"id": "NZ-0DJ25", "name": "BP Connect Massey Road", "lat": -36.960348, "lng": 174.832057, "site_brand": "BP", "country_code": "NZ", "address": "264 Massey Road", "city": "Auckland", "state": "Mangere", "postcode": null, "telephone": "+64 9 270 7860", "facilities": ["open_24_hours", "open_saturday", "open_sunday", "tires_pump_up", "disabled_facilities", "recycling", "toilet", "wild_bean_cafe", "good_mood_food", "ubereats", "mobile_enabled", "everyday_rewards", "swappa_bottle"], "products": ["aa_smart_fuel", "electricity", "ultimate_diesel", "unleaded_91", "unleaded_95"], "website": null, "watchlist_id": null, "formatted_address": "264 Massey Road\nAuckland", "channel_of_trade": null}, {"id": "NZ-0DJ26", "name": "BP 2go Station Road", "lat": -36.974003, "lng": 174.842295, "site_brand": "BP", "country_code": "NZ", "address": "96 Station Road", "city": "Auckland", "state": "Papatoetoe", "postcode": null, "telephone": "+64 9 250 1104", "facilities": ["open_saturday", "open_sunday", "tires_pump_up", "vacuum_cleaner", "disabled_facilities", "toilet", "hungry_as", "mobile_enabled", "everyday_rewards", "swappa_bottle"], "products": ["aa_smart_fuel", "auto_gas", "lpg", "ultimate_diesel", "unleaded_91", "unleaded_95"], "website": null, "watchlist_id": null, "formatted_address": "96 Station Road\nAuckland", "channel_of_trade": null}, {"id": "NZ-0DJ27", "name": "BP Connect Flat Bush", "lat": -36.963114, "lng": 174.901815, "site_brand": "BP", "country_code": "NZ", "address": "300 Te Irirangi Drive", "city": "Auckland", "state": "East Tamaki", "postcode": null, "telephone": "+64 9 271 0710", "facilities": ["open_24_hours", "open_saturday", "open_sunday", "car_wash", "tires_pump_up", "vacuum_cleaner", "cash_point", "disabled_facilities", "recycling", "toilet", "wild_bean_cafe", "good_mood_food", "ubereats", "mobile_enabled", "everyday_rewards", "swappa_bottle"], "products": ["aa_smart_fuel", "electricity", "ultimate_98", "ultimate_diesel", "unleaded_91"], "website": null, "watchlist_id": null, "formatted_address": "300 Te Irirangi Drive\nAuckland", "channel_of_trade": null}, {"id": "NZ-0DJ28", "name": "BP Connect Pacific", "lat": -37.001225, "lng": 174.888635, "site_brand": "BP", "country_code": "NZ", "address": " Cnr Great South Road & Kerrs Road", "city": "Auckland", "state": "Manukau", "postcode": null, "telephone": "+64 9 263 7810", "facilities": ["open_24_hours", "open_saturday", "open_sunday", "car_wash", "tires_pump_up", "vacuum_cleaner", "high_speed_pump", "cash_point", "disabled_facilities", "recycling", "toilet", "wifi", "wild_bean_cafe", "good_mood_food", "ubereats", "mobile_enabled", "everyday_rewards", "swappa_bottle"], "products": ["aa_smart_fuel", "electricity", "ultimate_diesel", "unleaded_91", "unleaded_95"], "website": null, "watchlist_id": null, "formatted_address": " Cnr Great South Road & Kerrs Road\nAuckland", "channel_of_trade": null}, {"id": "NZ-0DJ29", "name": "BP Connect Weymouth", "lat": -37.030747, "lng": 174.877598, "site_brand": "BP", "country_code": "NZ", "address": "199 Weymouth Road", "city": "Auckland", "state": "Manurewa", "postcode": null, "telephone": "+64 9 268 4750", "facilities": ["open_24_hours", "open_saturday", "open_sunday", "car_wash", "tires_pump_up", "vacuum_cleaner", "cash_point", "disabled_facilities", "recycling", "toilet", "wild_bean_cafe", "good_mood_food", "ubereats", "mobile_enabled", "everyday_rewards", "swappa_bottle"], "products": ["aa_smart_fuel", "electricity", "ultimate_diesel", "unleaded_91", "unleaded_95"], "website": null, "watchlist_id": null, "formatted_address": "199 Weymouth Road\nAuckland", "channel_of_trade": null}, {"id": "NZ-0DJ2A", "name": "BP Connect Ravenswood", "lat": -43.308365, "lng": 172.67248, "site_brand": "BP", "country_code": "NZ", "address": " Crn Bob Robertson Drive & Kesteven Place", "city": "North Canterbury", "state": "Ravenswood", "postcode": null, "telephone": "+64 3 741 5741", "facilities": ["open_24_hours", "open_saturday", "open_sunday", "car_wash", "tires_pump_up", "vacuum_cleaner", "cash_point", "disabled_facilities", "recycling", "toilet", "wifi", "wild_bean_cafe", "good_mood_food", "mobile_enabled", "everyday_rewards", "swappa_bottle"], "products": ["aa_smart_fuel", "electricity", "ultimate_98", "ultimate_diesel", "unleaded_91", "unleaded_95"], "website": null, "watchlist_id": null, "formatted_address": " Crn Bob Robertson Drive & Kesteven Place\nNorth Canterbury", "channel_of_trade": null}, {"id": "NZ-0DJ2B", "name": "BP Connect Lynmore Junction", "lat": -38.14394, "lng": 176.28265, "site_brand": "BP", "country_code": "NZ", "address": "346-352 Te Ngae Road", "city": "Rotorua", "state": "", "postcode": null, "telephone": "+64 7 345 6831", "facilities": ["open_24_hours", "open_saturday", "open_sunday", "car_wash", "tires_pump_up", "vacuum_cleaner", "disabled_facilities", "recycling", "toilet", "wifi", "wild_bean_cafe", "good_mood_food", "mobile_enabled", "everyday_rewards", "swappa_bottle"], "products": ["aa_smart_fuel", "ultimate_98", "ultimate_diesel", "unleaded_91", "unleaded_95"], "website": null, "watchlist_id": null, "formatted_address": "346-352 Te Ngae Road\nRotorua", "channel_of_trade": null}, {"id": "NZ-0DJ2C", "name": "BP Connect Rangiora", "lat": -43.326811, "lng": 172.599742, "site_brand": "BP", "country_code": "NZ", "address": "647 Lineside Road", "city": "Rangiora", "state": "Waimakariri", "postcode": null, "telephone": "+64 3 310 7825", "facilities": ["open_24_hours", "open_saturday", "open_sunday", "car_wash", "tires_pump_up", "vacuum_cleaner", "high_speed_pump", "cash_point", "disabled_facilities", "recycling", "toilet", "wifi", "wild_bean_cafe", "good_mood_food", "mobile_enabled", "everyday_rewards", "swappa_bottle"], "products": ["aa_smart_fuel", "electricity", "truck_diesel", "ultimate_98", "ultimate_diesel", "unleaded_91", "unleaded_95"], "website": null, "watchlist_id": null, "formatted_address": "647 Lineside Road\nRangiora", "channel_of_trade": null}, {"id": "NZ-0DJ2D", "name": "BP Connect Mosgiel", "lat": -45.878796, "lng": 170.35034, "site_brand": "BP", "country_code": "NZ", "address": "70 - 76 Gordon Road", "city": "Dunedin", "state": "Mosgiel", "postcode": null, "telephone": "+64 3 484 7068", "facilities": ["open_saturday", "open_sunday", "car_wash", "tires_pump_up", "vacuum_cleaner", "cash_point", "disabled_facilities", "recycling", "toilet", "wifi", "wild_bean_cafe", "mobile_enabled", "everyday_rewards", "swappa_bottle"], "products": ["aa_smart_fuel", "ultimate_98", "ultimate_diesel", "unleaded_91", "unleaded_95"], "website": null, "watchlist_id": null, "formatted_address": "70 - 76 Gordon Road\nDunedin", "channel_of_trade": null}, {"id": "NZ-0DJ2E", "name": "BP Connect Moorhouse Avenue", "lat": -43.540132, "lng": 172.6274987, "site_brand": "BP", "country_code": "NZ", "address": "144 Moorhouse Avenue", "city": "Christchurch", "state": "Christchurch Central", "postcode": null, "telephone": "+64 3 741 6265", "facilities": ["open_24_hours", "open_saturday", "open_sunday", "car_wash", "tires_pump_up", "vacuum_cleaner", "cash_point", "disabled_facilities", "recycling", "toilet", "wifi", "wild_bean_cafe", "good_mood_food", "ubereats", "mobile_enabled", "everyday_rewards", "swappa_bottle"], "products": ["aa_smart_fuel", "ultimate_98", "ultimate_diesel", "unleaded_91", "unleaded_95"], "website": null, "watchlist_id": null, "formatted_address": "144 Moorhouse Avenue\nChristchurch", "channel_of_trade": null}, {"id": "NZ-0DJ2F", "name": "BP Connect Wanaka", "lat": -44.694905, "lng": 169.156003, "site_brand": "BP", "country_code": "NZ", "address": " Sir Tim Wallis Drive", "city": "Wanaka", "state": "", "postcode": null, "telephone": "+64 3 746 8337", "facilities": ["open_saturday", "open_sunday", "car_wash", "jet_wash", "tires_pump_up", "vacuum_cleaner", "cash_point", "disabled_facilities", "recycling", "toilet", "wifi", "wild_bean_cafe", "mobile_enabled", "everyday_rewards", "swappa_bottle"], "products": ["aa_smart_fuel", "electricity", "regular_diesel", "unleaded_91", "unleaded_95"], "website": null, "watchlist_id": null, "formatted_address": " Sir Tim Wallis Drive\nWanaka", "channel_of_trade": null}, {"id": "NZ-0DJ2G", "name": "BP Connect Smales Farm", "lat": -36.7858759, "lng": 174.7564636, "site_brand": "BP", "country_code": "NZ", "address": "64-66 Taharoto Road", "city": "Auckland", "state": "Northcote", "postcode": null, "telephone": "+64 9 953 8693", "facilities": ["open_saturday", "open_sunday", "tires_pump_up", "cash_point", "disabled_facilities", "recycling", "toilet", "wifi", "wild_bean_cafe", "good_mood_food", "ubereats", "mobile_enabled", "everyday_rewards", "swappa_bottle"], "products": ["aa_smart_fuel", "electricity", "ultimate_98", "ultimate_diesel", "unleaded_91", "unleaded_95"], "website": null, "watchlist_id": null, "formatted_address": "64-66 Taharoto Road\nAuckland", "channel_of_trade": null}, {"id": "NZ-0DJ2H", "name": "BP Connect Taupiri", "lat": -37.622406, "lng": 175.203986, "site_brand": "BP", "country_code": "NZ", "address": "2189 Gordonton Road", "city": "Taupiri", "state": "", "postcode": null, "telephone": "+64 7 981 2784", "facilities": ["open_24_hours", "open_saturday", "open_sunday", "tires_pump_up", "truck_parking", "cash_point", "disabled_facilities", "recycling", "toilet", "wifi", "motorway_site", "wild_bean_cafe", "good_mood_food", "mobile_enabled", "everyday_rewards", "swappa_bottle"], "products": ["aa_smart_fuel", "electricity", "truck_diesel", "ultimate_98", "ultimate_diesel", "unleaded_91", "unleaded_95"], "website": null, "watchlist_id": null, "formatted_address": "2189 Gordonton Road\nTaupiri", "channel_of_trade": null}, {"id": "NZ-0DJ2I", "name": "BP Connect Ashburton", "lat": -43.89709, "lng": 171.757902, "site_brand": "BP", "country_code": "NZ", "address": "358 West Street", "city": "Ashburton", "state": "", "postcode": null, "telephone": "+64 3 745 4140", "facilities": ["open_saturday", "open_sunday", "car_wash", "jet_wash", "tires_pump_up", "vacuum_cleaner", "cash_point", "disabled_facilities", "recycling", "toilet", "wifi", "wild_bean_cafe", "good_mood_food", "mobile_enabled", "everyday_rewards", "swappa_bottle"], "products": ["aa_smart_fuel", "electricity", "truck_diesel", "ultimate_98", "ultimate_diesel", "unleaded_91"], "website": null, "watchlist_id": null, "formatted_address": "358 West Street\nAshburton", "channel_of_trade": null}, {"id": "NZ-0DJ2K", "name": "BP Connect Whenuapai", "lat": -36.792817, "lng": 174.6151439, "site_brand": "BP", "country_code": "NZ", "address": "50-52 Brigham Creek Road", "city": "Auckland", "state": "Whenuapai", "postcode": null, "telephone": "+64 9 953 3671", "facilities": ["open_24_hours", "open_saturday", "open_sunday", "tires_pump_up", "cash_point", "disabled_facilities", "recycling", "toilet", "wifi", "wild_bean_cafe", "good_mood_food", "ubereats", "mobile_enabled", "everyday_rewards", "swappa_bottle"], "products": ["aa_smart_fuel", "ultimate_98", "ultimate_diesel", "unleaded_91", "unleaded_95"], "website": null, "watchlist_id": null, "formatted_address": "50-52 Brigham Creek Road\nAuckland", "channel_of_trade": null}, {"id": "NZ-0DJ2L", "name": "BP Connect Kumeu", "lat": -36.787174, "lng": 174.577026, "site_brand": "BP", "country_code": "NZ", "address": "538 State Highway 16", "city": "Auckland", "state": "Kumeu", "postcode": null, "telephone": "+64 9 951 4827", "facilities": ["open_24_hours", "open_saturday", "open_sunday", "tires_pump_up", "vacuum_cleaner", "cash_point", "disabled_facilities", "recycling", "toilet", "wifi", "wild_bean_cafe", "good_mood_food", "ubereats", "mobile_enabled", "everyday_rewards", "swappa_bottle"], "products": ["aa_smart_fuel", "ultimate_98", "ultimate_diesel", "unleaded_91", "unleaded_95"], "website": null, "watchlist_id": null, "formatted_address": "538 State Highway 16\nAuckland", "channel_of_trade": null}, {"id": "NZ-0DJ2M", "name": "BP Connect Albany Highway", "lat": -36.7448709, "lng": 174.6934875, "site_brand": "BP", "country_code": "NZ", "address": "343 Albany Highway", "city": "Auckland", "state": "Rosedale", "postcode": null, "telephone": "+64 9 953 6883", "facilities": ["open_24_hours", "open_saturday", "open_sunday", "car_wash", "tires_pump_up", "vacuum_cleaner", "cash_point", "disabled_facilities", "recycling", "toilet", "wifi", "wild_bean_cafe", "good_mood_food", "ubereats", "mobile_enabled", "everyday_rewards", "swappa_bottle"], "products": ["aa_smart_fuel", "ultimate_98", "ultimate_diesel", "unleaded_91", "unleaded_95"], "website": null, "watchlist_id": null, "formatted_address": "343 Albany Highway\nAuckland", "channel_of_trade": null}, {"id": "NZ-0DJ2P", "name": "BP Connect Hobsonville", "lat": -36.8009098, "lng": 174.6412257, "site_brand": "BP", "country_code": "NZ", "address": "116 Hobsonville Road", "city": "Auckland", "state": "Hobsonville", "postcode": null, "telephone": "+64 9 954 4206", "facilities": ["open_24_hours", "open_saturday", "open_sunday", "car_wash", "tires_pump_up", "vacuum_cleaner", "disabled_facilities", "recycling", "toilet", "wifi", "wild_bean_cafe", "good_mood_food", "ubereats", "mobile_enabled", "everyday_rewards", "swappa_bottle"], "products": ["aa_smart_fuel", "electricity", "ultimate_98", "ultimate_diesel", "unleaded_91", "unleaded_95"], "website": null, "watchlist_id": null, "formatted_address": "116 Hobsonville Road\nAuckland", "channel_of_trade": null}, {"id": "NZ-0DJ2Q", "name": "BP 2go Bruce Mclaren", "lat": -36.89355, "lng": 174.6288765, "site_brand": "BP", "country_code": "NZ", "address": "39-41 Bruce McLaren Road", "city": "Auckland", "state": "Henderson", "postcode": null, "telephone": "+64 9 212 9962", "facilities": ["open_saturday", "open_sunday", "trailers", "disabled_facilities", "toilet", "hungry_as", "mobile_enabled", "everyday_rewards", "swappa_bottle"], "products": ["aa_smart_fuel", "ultimate_diesel", "unleaded_91", "unleaded_95"], "website": null, "watchlist_id": null, "formatted_address": "39-41 Bruce McLaren Road\nAuckland", "channel_of_trade": null}, {"id": "NZ-0DJ2Y", "name": "BP 2go Railway Avenue", "lat": -41.2125503, "lng": 174.893659, "site_brand": "BP", "country_code": "NZ", "address": "32 Railway Avenue", "city": "Wellington", "state": "Alicetown", "postcode": null, "telephone": "+64 4 570 2544", "facilities": ["open_saturday", "open_sunday", "car_wash", "tires_pump_up", "vacuum_cleaner", "trailers", "cash_point", "disabled_facilities", "toilet", "hungry_as", "everyday_rewards", "swappa_bottle"], "products": ["aa_smart_fuel", "truck_diesel", "ultimate_diesel", "unleaded_91", "unleaded_95"], "website": null, "watchlist_id": null, "formatted_address": "32 Railway Avenue\nWellington", "channel_of_trade": null}, {"id": "NZ-0DJ2Z", "name": "BP 2go Kaitaia", "lat": -35.1116378, "lng": 173.2615391, "site_brand": "BP", "country_code": "NZ", "address": "172-178 Commerce Street", "city": "Kaitaia", "state": "", "postcode": null, "telephone": "+64 9 408 1551", "facilities": ["open_saturday", "open_sunday", "car_wash", "tires_pump_up", "vacuum_cleaner", "high_speed_pump", "cash_point", "disabled_facilities", "toilet", "wifi", "hungry_as", "mobile_enabled", "everyday_rewards", "swappa_bottle"], "products": ["aa_smart_fuel", "auto_gas", "lpg", "truck_diesel", "ultimate_diesel", "unleaded_91", "unleaded_95"], "website": null, "watchlist_id": null, "formatted_address": "172-178 Commerce Street\nKaitaia", "channel_of_trade": null}, {"id": "NZ-0DJ31", "name": "BP Connect Takanini", "lat": -37.038733, "lng": 174.913735, "site_brand": "BP", "country_code": "NZ", "address": "102 Great South Road", "city": "Auckland", "state": "Takanini", "postcode": null, "telephone": "+64 9 296 4890", "facilities": ["open_24_hours", "open_saturday", "open_sunday", "car_wash", "tires_pump_up", "vacuum_cleaner", "high_speed_pump", "cash_point", "disabled_facilities", "recycling", "toilet", "wifi", "wild_bean_cafe", "good_mood_food", "ubereats", "mobile_enabled", "everyday_rewards", "swappa_bottle"], "products": ["aa_smart_fuel", "electricity", "truck_diesel", "ultimate_98", "ultimate_diesel", "unleaded_91", "unleaded_95"], "website": null, "watchlist_id": null, "formatted_address": "102 Great South Road\nAuckland", "channel_of_trade": null}, {"id": "NZ-0DJ32", "name": "BP Connect Papakura", "lat": -37.088197, "lng": 174.939541, "site_brand": "BP", "country_code": "NZ", "address": " Southern Motorway", "city": "Auckland", "state": "Papakura", "postcode": null, "telephone": "+64 9 296 4530", "facilities": ["open_24_hours", "open_saturday", "open_sunday", "tires_pump_up", "cash_point", "disabled_facilities", "recycling", "toilet", "wifi", "wild_bean_cafe", "good_mood_food", "mobile_enabled", "everyday_rewards", "swappa_bottle"], "products": ["aa_smart_fuel", "truck_diesel", "ultimate_98", "ultimate_diesel", "unleaded_91"], "website": null, "watchlist_id": null, "formatted_address": " Southern Motorway\nAuckland", "channel_of_trade": null}, {"id": "NZ-0DJ33", "name": "BP Connect Bombay", "lat": -37.193043, "lng": 174.98159, "site_brand": "BP", "country_code": "NZ", "address": "203 Mill Road", "city": "Auckland", "state": "Bombay", "postcode": null, "telephone": "+64 9 236 1080", "facilities": ["open_24_hours", "open_saturday", "open_sunday", "car_wash", "tires_pump_up", "vacuum_cleaner", "cash_point", "disabled_facilities", "recycling", "toilet", "wifi", "wild_bean_cafe", "good_mood_food", "mobile_enabled", "everyday_rewards", "swappa_bottle"], "products": ["aa_smart_fuel", "electricity", "truck_diesel", "ultimate_98", "ultimate_diesel", "unleaded_91"], "website": null, "watchlist_id": null, "formatted_address": "203 Mill Road\nAuckland", "channel_of_trade": null}, {"id": "NZ-0DJ34", "name": "BP Connect Counties", "lat": -37.19926, "lng": 174.903476, "site_brand": "BP", "country_code": "NZ", "address": "76 Edinburgh Street", "city": "Auckland", "state": "Pukekohe", "postcode": null, "telephone": "+64 9 239 1065", "facilities": ["open_24_hours", "open_saturday", "open_sunday", "tires_pump_up", "cash_point", "disabled_facilities", "recycling", "toilet", "wifi", "wild_bean_cafe", "good_mood_food", "mobile_enabled", "everyday_rewards", "swappa_bottle"], "products": ["aa_smart_fuel", "ultimate_98", "ultimate_diesel", "unleaded_91"], "website": null, "watchlist_id": null, "formatted_address": "76 Edinburgh Street\nAuckland", "channel_of_trade": null}, {"id": "NZ-0DJ35", "name": "BP Connect Ngaruawahia", "lat": -37.671375, "lng": 175.151481, "site_brand": "BP", "country_code": "NZ", "address": " Great South Road", "city": "Ngarauwahia", "state": "", "postcode": null, "telephone": "+64 7 824 5450", "facilities": ["open_24_hours", "open_saturday", "open_sunday", "tires_pump_up", "cash_point", "disabled_facilities", "recycling", "toilet", "wifi", "wild_bean_cafe", "good_mood_food", "mobile_enabled", "everyday_rewards", "swappa_bottle"], "products": ["aa_smart_fuel", "electricity", "truck_diesel", "ultimate_98", "ultimate_diesel", "unleaded_91"], "website": null, "watchlist_id": null, "formatted_address": " Great South Road\nNgarauwahia", "channel_of_trade": null}, {"id": "NZ-0DJ36", "name": "BP Connect Cambridge", "lat": -37.890568, "lng": 175.467477, "site_brand": "BP", "country_code": "NZ", "address": "98 Upper Victoria Street", "city": "Cambridge", "state": "Leamington", "postcode": null, "telephone": "+64 7 823 0580", "facilities": ["open_saturday", "open_sunday", "car_wash", "tires_pump_up", "vacuum_cleaner", "high_speed_pump", "disabled_facilities", "recycling", "toilet", "wifi", "wild_bean_cafe", "good_mood_food", "mobile_enabled", "everyday_rewards", "swappa_bottle"], "products": ["aa_smart_fuel", "electricity", "ultimate_98", "ultimate_diesel", "unleaded_91"], "website": null, "watchlist_id": null, "formatted_address": "98 Upper Victoria Street\nCambridge", "channel_of_trade": null}, {"id": "NZ-0DJ37", "name": "BP Connect Tokoroa", "lat": -38.2158547, "lng": 175.8720348, "site_brand": "BP", "country_code": "NZ", "address": "32-34 State Highway 1", "city": "Tokoroa", "state": "", "postcode": null, "telephone": "+64 7 886 7870", "facilities": ["open_24_hours", "open_saturday", "open_sunday", "car_wash", "tires_pump_up", "vacuum_cleaner", "high_speed_pump", "cash_point", "disabled_facilities", "toilet", "wifi", "wild_bean_cafe", "good_mood_food", "mobile_enabled", "everyday_rewards", "swappa_bottle"], "products": ["aa_smart_fuel", "truck_diesel", "ultimate_98", "ultimate_diesel", "unleaded_91"], "website": null, "watchlist_id": null, "formatted_address": "32-34 State Highway 1\nTokoroa", "channel_of_trade": null}, {"id": "NZ-0DJ38", "name": "BP Connect Tristram Street", "lat": -37.791188, "lng": 175.280087, "site_brand": "BP", "country_code": "NZ", "address": "100 Tristram Street", "city": "Hamilton", "state": "Hamilton Central", "postcode": null, "telephone": "+64 7 834 7780", "facilities": ["open_24_hours", "open_saturday", "open_sunday", "car_wash", "tires_pump_up", "vacuum_cleaner", "cash_point", "disabled_facilities", "recycling", "toilet", "wifi", "wild_bean_cafe", "good_mood_food", "ubereats", "mobile_enabled", "everyday_rewards", "swappa_bottle"], "products": ["aa_smart_fuel", "electricity", "ultimate_98", "ultimate_diesel", "unleaded_91", "unleaded_95"], "website": null, "watchlist_id": null, "formatted_address": "100 Tristram Street\nHamilton", "channel_of_trade": null}, {"id": "NZ-0DJ39", "name": "BP Connect Whitiora", "lat": -37.77878, "lng": 175.274946, "site_brand": "BP", "country_code": "NZ", "address": " Crn Victoria Street & Ulster Street", "city": "Hamilton", "state": "Hamilton Central", "postcode": null, "telephone": "+64 7 958 7760", "facilities": ["open_24_hours", "open_saturday", "open_sunday", "car_wash", "tires_pump_up", "vacuum_cleaner", "disabled_facilities", "recycling", "toilet", "wifi", "wild_bean_cafe", "good_mood_food", "ubereats", "mobile_enabled", "everyday_rewards", "swappa_bottle"], "products": ["aa_smart_fuel", "electricity", "ultimate_98", "ultimate_diesel", "unleaded_91", "unleaded_95"], "website": null, "watchlist_id": null, "formatted_address": " Crn Victoria Street & Ulster Street\nHamilton", "channel_of_trade": null}, {"id": "NZ-0DJ3C", "name": "BP Connect Waipapa", "lat": -35.206089, "lng": 173.917533, "site_brand": "BP", "country_code": "NZ", "address": " State Highway 10", "city": "Waipapa", "state": "", "postcode": null, "telephone": "+64 9 407 8929", "facilities": ["open_saturday", "open_sunday", "tires_pump_up", "high_speed_pump", "disabled_facilities", "recycling", "toilet", "wifi", "wild_bean_cafe", "mobile_enabled", "everyday_rewards", "swappa_bottle"], "products": ["aa_smart_fuel", "electricity", "truck_diesel", "ultimate_diesel", "unleaded_91", "unleaded_95"], "website": null, "watchlist_id": null, "formatted_address": " State Highway 10\nWaipapa", "channel_of_trade": null}, {"id": "NZ-0DJ3V", "name": "BP Connect Karaka", "lat": -37.1373, "lng": 174.8845, "site_brand": "BP", "country_code": "NZ", "address": "679-681 Karaka Road", "city": "Auckland", "state": "Karaka", "postcode": null, "telephone": "+64 9 957 1060", "facilities": ["open_24_hours", "open_saturday", "open_sunday", "tires_pump_up", "high_speed_pump", "disabled_facilities", "recycling", "toilet", "wild_bean_cafe", "mobile_enabled", "everyday_rewards", "swappa_bottle"], "products": ["aa_smart_fuel", "ultimate_98", "ultimate_diesel", "unleaded_91", "unleaded_95"], "website": null, "watchlist_id": null, "formatted_address": "679-681 Karaka Road\nAuckland", "channel_of_trade": null}, {"id": "NZ-0DJ40", "name": "BP Connect Frankton", "lat": -37.789057, "lng": 175.259145, "site_brand": "BP", "country_code": "NZ", "address": " Cnr Massey Street & Lincoln Road", "city": "Hamilton", "state": "Frankton", "postcode": null, "telephone": "+64 7 846 9780", "facilities": ["open_24_hours", "open_saturday", "open_sunday", "car_wash", "tires_pump_up", "vacuum_cleaner", "cash_point", "disabled_facilities", "recycling", "toilet", "wifi", "wild_bean_cafe", "good_mood_food", "ubereats", "mobile_enabled", "everyday_rewards", "swappa_bottle"], "products": ["aa_smart_fuel", "electricity", "ultimate_98", "ultimate_diesel", "unleaded_91", "unleaded_95"], "website": null, "watchlist_id": null, "formatted_address": " Cnr Massey Street & Lincoln Road\nHamilton", "channel_of_trade": null}, {"id": "NZ-0DJ41", "name": "BP Connect Geyser", "lat": -38.15996, "lng": 176.254172, "site_brand": "BP", "country_code": "NZ", "address": "420 Cnr Froude Street & Fenton Street", "city": "Rotorua", "state": "Whakarewarewa", "postcode": null, "telephone": "+64 7 349 7710", "facilities": ["open_24_hours", "open_saturday", "open_sunday", "tires_pump_up", "disabled_facilities", "recycling", "toilet", "wifi", "wild_bean_cafe", "good_mood_food", "ubereats", "mobile_enabled", "everyday_rewards", "swappa_bottle"], "products": ["aa_smart_fuel", "ultimate_98", "ultimate_diesel", "unleaded_91"], "website": null, "watchlist_id": null, "formatted_address": "420 Cnr Froude Street & Fenton Street\nRotorua", "channel_of_trade": null}, {"id": "NZ-0DJ42", "name": "BP Connect Fairy Springs", "lat": -38.117859, "lng": 176.227143, "site_brand": "BP", "country_code": "NZ", "address": "80 Fairy Springs Road", "city": "Rotorua", "state": "Fairy Springs", "postcode": null, "telephone": "+64 7 343 7963", "facilities": ["open_24_hours", "open_saturday", "open_sunday", "car_wash", "tires_pump_up", "vacuum_cleaner", "disabled_facilities", "recycling", "toilet", "wifi", "wild_bean_cafe", "good_mood_food", "ubereats", "mobile_enabled", "everyday_rewards", "swappa_bottle"], "products": ["aa_smart_fuel", "ultimate_diesel", "unleaded_91", "unleaded_95"], "website": null, "watchlist_id": null, "formatted_address": "80 Fairy Springs Road\nRotorua", "channel_of_trade": null}, {"id": "NZ-0DJ43", "name": "BP Connect Mt Maunganui", "lat": -37.665437, "lng": 176.209133, "site_brand": "BP", "country_code": "NZ", "address": "570 Maunganui Road", "city": "Tauranga", "state": "Mt Maunganui", "postcode": null, "telephone": "+64 7 574 7680", "facilities": ["open_24_hours", "open_saturday", "open_sunday", "car_wash", "tires_pump_up", "vacuum_cleaner", "disabled_facilities", "recycling", "toilet", "wifi", "wild_bean_cafe", "good_mood_food", "ubereats", "mobile_enabled", "everyday_rewards", "swappa_bottle"], "products": ["aa_smart_fuel", "ultimate_98", "ultimate_diesel", "unleaded_91", "unleaded_95"], "website": null, "watchlist_id": null, "formatted_address": "570 Maunganui Road\nTauranga", "channel_of_trade": null}, {"id": "NZ-0DJ45", "name": "BP Connect Tauranga", "lat": -37.714774, "lng": 176.141055, "site_brand": "BP", "country_code": "NZ", "address": "1058 Cameron Road", "city": "Tauranga", "state": "Gate Pa", "postcode": null, "telephone": "+64 7 578 9761", "facilities": ["open_24_hours", "open_saturday", "open_sunday", "car_wash", "tires_pump_up", "vacuum_cleaner", "cash_point", "disabled_facilities", "recycling", "toilet", "wifi", "wild_bean_cafe", "good_mood_food", "ubereats", "mobile_enabled", "everyday_rewards", "swappa_bottle"], "products": ["aa_smart_fuel", "ultimate_98", "ultimate_diesel", "unleaded_91"], "website": null, "watchlist_id": null, "formatted_address": "1058 Cameron Road\nTauranga", "channel_of_trade": null}, {"id": "NZ-0DJ46", "name": "BP Connect Te Puna", "lat": -37.695737, "lng": 176.072125, "site_brand": "BP", "country_code": "NZ", "address": "620 State Highway 2", "city": "Te Puna", "state": "", "postcode": null, "telephone": "+64 7 552 6800", "facilities": ["open_saturday", "open_sunday", "tires_pump_up", "cash_point", "disabled_facilities", "toilet", "wild_bean_cafe", "mobile_enabled", "everyday_rewards", "swappa_bottle"], "products": ["aa_smart_fuel", "truck_diesel", "ultimate_98", "ultimate_diesel", "unleaded_91"], "website": null, "watchlist_id": null, "formatted_address": "620 State Highway 2\nTe Puna", "channel_of_trade": null}, {"id": "NZ-0DJ47", "name": "BP Connect Wairakei", "lat": -38.626283, "lng": 176.089106, "site_brand": "BP", "country_code": "NZ", "address": "655 Thermal Explorer Highway", "city": "Wairakei", "state": "", "postcode": null, "telephone": "+64 7 374 8720", "facilities": ["open_24_hours", "open_saturday", "open_sunday", "tires_pump_up", "disabled_facilities", "recycling", "toilet", "wifi", "wild_bean_cafe", "good_mood_food", "mobile_enabled", "everyday_rewards", "swappa_bottle"], "products": ["aa_smart_fuel", "electricity", "truck_diesel", "ultimate_98", "ultimate_diesel", "unleaded_91"], "website": null, "watchlist_id": null, "formatted_address": "655 Thermal Explorer Highway\nWairakei", "channel_of_trade": null}, {"id": "NZ-0DJ48", "name": "BP Connect Taupo", "lat": -38.687994, "lng": 176.072305, "site_brand": "BP", "country_code": "NZ", "address": "48-50 Heuheu Street", "city": "Taupo", "state": "", "postcode": null, "telephone": "+64 7 374 8730", "facilities": ["open_24_hours", "open_saturday", "open_sunday", "car_wash", "tires_pump_up", "vacuum_cleaner", "cash_point", "disabled_facilities", "recycling", "toilet", "wifi", "wild_bean_cafe", "good_mood_food", "mobile_enabled", "everyday_rewards", "swappa_bottle"], "products": ["aa_smart_fuel", "electricity", "ultimate_98", "ultimate_diesel", "unleaded_91"], "website": null, "watchlist_id": null, "formatted_address": "48-50 Heuheu Street\nTaupo", "channel_of_trade": null}, {"id": "NZ-0DJ49", "name": "BP Connect Taihape", "lat": -39.67902, "lng": 175.800101, "site_brand": "BP", "country_code": "NZ", "address": "80-88 Hautapu Street", "city": "Taihape", "state": "", "postcode": null, "telephone": "+64 6 388 0819", "facilities": ["open_24_hours", "open_saturday", "open_sunday", "tires_pump_up", "high_speed_pump", "cash_point", "disabled_facilities", "toilet", "wifi", "wild_bean_cafe", "mobile_enabled", "everyday_rewards", "swappa_bottle"], "products": ["aa_smart_fuel", "electricity", "truck_diesel", "ultimate_98", "ultimate_diesel", "unleaded_91"], "website": null, "watchlist_id": null, "formatted_address": "80-88 Hautapu Street\nTaihape", "channel_of_trade": null}, {"id": "NZ-0DJ50", "name": "BP Connect Bay View", "lat": -39.425378, "lng": 176.86974, "site_brand": "BP", "country_code": "NZ", "address": "569 Main North Road", "city": "Napier", "state": "Bay View", "postcode": null, "telephone": "+64 6 836 7810", "facilities": ["open_24_hours", "open_saturday", "open_sunday", "tires_pump_up", "vacuum_cleaner", "cash_point", "disabled_facilities", "recycling", "toilet", "wifi", "wild_bean_cafe", "good_mood_food", "mobile_enabled", "everyday_rewards", "swappa_bottle"], "products": ["aa_smart_fuel", "electricity", "truck_diesel", "ultimate_98", "ultimate_diesel", "unleaded_91"], "website": null, "watchlist_id": null, "formatted_address": "569 Main North Road\nNapier", "channel_of_trade": null}, {"id": "NZ-0DJ51", "name": "BP Connect Stortford Lodge", "lat": -39.630694, "lng": 176.830573, "site_brand": "BP", "country_code": "NZ", "address": " Cnr Maraekakaho Road & Heretaunga Street", "city": "Hastings", "state": "St Leonards", "postcode": null, "telephone": "+64 6 873 4630", "facilities": ["open_24_hours", "open_saturday", "open_sunday", "car_wash", "tires_pump_up", "vacuum_cleaner", "cash_point", "disabled_facilities", "recycling", "toilet", "wifi", "wild_bean_cafe", "good_mood_food", "ubereats", "mobile_enabled", "everyday_rewards", "swappa_bottle"], "products": ["aa_smart_fuel", "electricity", "truck_diesel", "ultimate_98", "ultimate_diesel", "unleaded_91"], "website": null, "watchlist_id": null, "formatted_address": " Cnr Maraekakaho Road & Heretaunga Street\nHastings", "channel_of_trade": null}, {"id": "NZ-0DJ52", "name": "BP Connect Dannevirke", "lat": -40.209929, "lng": 176.094934, "site_brand": "BP", "country_code": "NZ", "address": "5 High Street", "city": "Dannevirke", "state": "", "postcode": null, "telephone": "+64 6 374 5770", "facilities": ["open_saturday", "open_sunday", "tires_pump_up", "cash_point", "disabled_facilities", "toilet", "wifi", "wild_bean_cafe", "good_mood_food", "mobile_enabled", "everyday_rewards", "swappa_bottle"], "products": ["aa_smart_fuel", "electricity", "truck_diesel", "ultimate_98", "ultimate_diesel", "unleaded_91"], "website": null, "watchlist_id": null, "formatted_address": "5 High Street\nDannevirke", "channel_of_trade": null}, {"id": "NZ-0DJ53", "name": "BP Connect Feilding", "lat": -40.224853, "lng": 175.566754, "site_brand": "BP", "country_code": "NZ", "address": "134 Kimbolton Road", "city": "Feilding", "state": "", "postcode": null, "telephone": "+64 6 323 7885", "facilities": ["open_24_hours", "open_saturday", "open_sunday", "tires_pump_up", "cash_point", "disabled_facilities", "recycling", "toilet", "wifi", "wild_bean_cafe", "good_mood_food", "mobile_enabled", "everyday_rewards", "swappa_bottle"], "products": ["aa_smart_fuel", "ultimate_98", "ultimate_diesel", "unleaded_91"], "website": null, "watchlist_id": null, "formatted_address": "134 Kimbolton Road\nFeilding", "channel_of_trade": null}, {"id": "NZ-0DJ54", "name": "BP Connect Palmerston North", "lat": -40.346848, "lng": 175.603677, "site_brand": "BP", "country_code": "NZ", "address": "339 Rangitikei Street", "city": "Palmerston North", "state": "", "postcode": null, "telephone": "+64 6 953 7620", "facilities": ["open_24_hours", "open_saturday", "open_sunday", "car_wash", "tires_pump_up", "vacuum_cleaner", "high_speed_pump", "cash_point", "disabled_facilities", "recycling", "toilet", "wifi", "wild_bean_cafe", "good_mood_food", "ubereats", "mobile_enabled", "everyday_rewards", "swappa_bottle"], "products": ["aa_smart_fuel", "truck_diesel", "ultimate_98", "ultimate_diesel", "unleaded_91"], "website": null, "watchlist_id": null, "formatted_address": "339 Rangitikei Street\nPalmerston North", "channel_of_trade": null}, {"id": "NZ-0DJ56", "name": "BP Connect Otaki", "lat": -40.760798, "lng": 175.157505, "site_brand": "BP", "country_code": "NZ", "address": "250 Main Road", "city": "Otaki", "state": "Otaki", "postcode": null, "telephone": "+64 6 364 0800", "facilities": ["open_saturday", "open_sunday", "tires_pump_up", "vacuum_cleaner", "cash_point", "disabled_facilities", "recycling", "toilet", "wifi", "wild_bean_cafe", "good_mood_food", "mobile_enabled", "everyday_rewards", "swappa_bottle"], "products": ["aa_smart_fuel", "truck_diesel", "ultimate_98", "ultimate_diesel", "unleaded_91"], "website": null, "watchlist_id": null, "formatted_address": "250 Main Road\nOtaki", "channel_of_trade": null}, {"id": "NZ-0DJ58", "name": "BP Connect Paraparaumu", "lat": -40.915717, "lng": 175.006811, "site_brand": "BP", "country_code": "NZ", "address": "15 Amohia Street", "city": "Paraparaumu", "state": "", "postcode": null, "telephone": "+64 4 902 7450", "facilities": ["open_saturday", "open_sunday", "car_wash", "tires_pump_up", "vacuum_cleaner", "disabled_facilities", "recycling", "toilet", "wifi", "wild_bean_cafe", "mobile_enabled", "everyday_rewards", "swappa_bottle"], "products": ["aa_smart_fuel", "ultimate_98", "ultimate_diesel", "unleaded_91"], "website": null, "watchlist_id": null, "formatted_address": "15 Amohia Street\nParaparaumu", "channel_of_trade": null}, {"id": "NZ-0DJ59", "name": "BP Connect Mana", "lat": -41.096034, "lng": 174.869058, "site_brand": "BP", "country_code": "NZ", "address": "71 Mana Esplanade", "city": "Porirua", "state": "Mana", "postcode": null, "telephone": "+64 4 233 2581", "facilities": ["open_saturday", "open_sunday", "car_wash", "tires_pump_up", "vacuum_cleaner", "cash_point", "disabled_facilities", "recycling", "toilet", "wifi", "wild_bean_cafe", "good_mood_food", "mobile_enabled", "everyday_rewards", "swappa_bottle"], "products": ["aa_smart_fuel", "electricity", "ultimate_98", "ultimate_diesel", "unleaded_91"], "website": null, "watchlist_id": null, "formatted_address": "71 Mana Esplanade\nPorirua", "channel_of_trade": null}, {"id": "NZ-0DJ60", "name": "BP Connect Tawa", "lat": -41.175762, "lng": 174.825512, "site_brand": "BP", "country_code": "NZ", "address": "98-100 Main Road", "city": "Wellington", "state": "Tawa", "postcode": null, "telephone": "+64 4 232 0870", "facilities": ["open_saturday", "open_sunday", "tires_pump_up", "vacuum_cleaner", "cash_point", "disabled_facilities", "recycling", "toilet", "wifi", "wild_bean_cafe", "good_mood_food", "mobile_enabled", "everyday_rewards", "swappa_bottle"], "products": ["aa_smart_fuel", "electricity", "ultimate_98", "ultimate_diesel", "unleaded_91"], "website": null, "watchlist_id": null, "formatted_address": "98-100 Main Road\nWellington", "channel_of_trade": null}, {"id": "NZ-0DJ61", "name": "BP Connect Whitby", "lat": -41.113723, "lng": 174.882257, "site_brand": "BP", "country_code": "NZ", "address": "81 Omapere Street", "city": "Wellington", "state": "Porirua", "postcode": null, "telephone": "+64 4 235 0440", "facilities": ["open_saturday", "open_sunday", "tires_pump_up", "cash_point", "disabled_facilities", "recycling", "toilet", "wild_bean_cafe", "mobile_enabled", "everyday_rewards", "swappa_bottle"], "products": ["aa_smart_fuel", "ultimate_diesel", "unleaded_91", "unleaded_95"], "website": null, "watchlist_id": null, "formatted_address": "81 Omapere Street\nWellington", "channel_of_trade": null}, {"id": "NZ-0DJ62", "name": "BP Connect Porirua", "lat": -41.137881, "lng": 174.841294, "site_brand": "BP", "country_code": "NZ", "address": " Cnr Walton Leigh Road & Titahi Bay Road", "city": "Porirua", "state": "", "postcode": null, "telephone": "+64 4 237 2560", "facilities": ["open_saturday", "open_sunday", "car_wash", "tires_pump_up", "vacuum_cleaner", "disabled_facilities", "recycling", "toilet", "wifi", "wild_bean_cafe", "good_mood_food", "mobile_enabled", "everyday_rewards", "swappa_bottle"], "products": ["aa_smart_fuel", "ultimate_98", "ultimate_diesel", "unleaded_91"], "website": null, "watchlist_id": null, "formatted_address": " Cnr Walton Leigh Road & Titahi Bay Road\nPorirua", "channel_of_trade": null}, {"id": "NZ-0DJ63", "name": "BP Connect Johnsonville", "lat": -41.225676, "lng": 174.807352, "site_brand": "BP", "country_code": "NZ", "address": "117 Johnsonville Road", "city": "Wellington", "state": "Johnsonville", "postcode": null, "telephone": "+64 4 477 5480", "facilities": ["open_saturday", "open_sunday", "car_wash", "tires_pump_up", "vacuum_cleaner", "disabled_facilities", "recycling", "toilet", "wifi", "wild_bean_cafe", "good_mood_food", "ubereats", "mobile_enabled", "everyday_rewards", "swappa_bottle"], "products": ["aa_smart_fuel", "ultimate_98", "ultimate_diesel", "unleaded_91"], "website": null, "watchlist_id": null, "formatted_address": "117 Johnsonville Road\nWellington", "channel_of_trade": null}, {"id": "NZ-0DJ64", "name": "BP Connect Upper Hutt", "lat": -41.123539, "lng": 175.075746, "site_brand": "BP", "country_code": "NZ", "address": "963-967 Fergusson Drive", "city": "Upper Hutt", "state": "", "postcode": null, "telephone": "+64 4 527 1550", "facilities": ["open_24_hours", "open_saturday", "open_sunday", "car_wash", "tires_pump_up", "vacuum_cleaner", "cash_point", "disabled_facilities", "recycling", "toilet", "wifi", "wild_bean_cafe", "good_mood_food", "mobile_enabled", "everyday_rewards", "swappa_bottle"], "products": ["aa_smart_fuel", "ultimate_98", "ultimate_diesel", "unleaded_91"], "website": null, "watchlist_id": null, "formatted_address": "963-967 Fergusson Drive\nUpper Hutt", "channel_of_trade": null}, {"id": "NZ-0DJ65", "name": "BP Connect Melling", "lat": -41.204539, "lng": 174.911522, "site_brand": "BP", "country_code": "NZ", "address": "17 Melling Road", "city": "Wellington", "state": "Lower Hutt", "postcode": null, "telephone": "+64 4 920 7500", "facilities": ["open_24_hours", "open_saturday", "open_sunday", "car_wash", "tires_pump_up", "vacuum_cleaner", "cash_point", "disabled_facilities", "recycling", "toilet", "wild_bean_cafe", "ubereats", "mobile_enabled", "everyday_rewards", "swappa_bottle"], "products": ["aa_smart_fuel", "electricity", "ultimate_98", "ultimate_diesel", "unleaded_91"], "website": null, "watchlist_id": null, "formatted_address": "17 Melling Road\nWellington", "channel_of_trade": null}, {"id": "NZ-0DJ66", "name": "BP Connect Wainuiomata", "lat": -41.262599, "lng": 174.946211, "site_brand": "BP", "country_code": "NZ", "address": "1-3 Wainuiomata Road", "city": "Wainuiomata", "state": "", "postcode": null, "telephone": "+64 4 939 8634", "facilities": ["open_24_hours", "open_saturday", "open_sunday", "car_wash", "tires_pump_up", "vacuum_cleaner", "cash_point", "disabled_facilities", "recycling", "toilet", "wifi", "wild_bean_cafe", "good_mood_food", "mobile_enabled", "everyday_rewards", "swappa_bottle"], "products": ["aa_smart_fuel", "ultimate_diesel", "unleaded_91", "unleaded_95"], "website": null, "watchlist_id": null, "formatted_address": "1-3 Wainuiomata Road\nWainuiomata", "channel_of_trade": null}, {"id": "NZ-0DJ67", "name": "BP Connect Waiwhetu", "lat": -41.222898, "lng": 174.911962, "site_brand": "BP", "country_code": "NZ", "address": "72-74 Whites Line", "city": "Wellington", "state": "Waiwhetu", "postcode": null, "telephone": "+64 4 570 3520", "facilities": ["open_saturday", "open_sunday", "car_wash", "tires_pump_up", "vacuum_cleaner", "cash_point", "disabled_facilities", "recycling", "toilet", "wifi", "wild_bean_cafe", "good_mood_food", "ubereats", "mobile_enabled", "everyday_rewards", "swappa_bottle"], "products": ["aa_smart_fuel", "ultimate_diesel", "unleaded_91", "unleaded_95"], "website": null, "watchlist_id": null, "formatted_address": "72-74 Whites Line\nWellington", "channel_of_trade": null}, {"id": "NZ-0DJ69", "name": "BP Connect Roadmaster", "lat": -41.290826, "lng": 174.780188, "site_brand": "BP", "country_code": "NZ", "address": " Cnr Taranaki Street & Wakefield Street", "city": "Wellington", "state": "Te Aro", "postcode": null, "telephone": "+64 4 381 6400", "facilities": ["open_24_hours", "open_saturday", "open_sunday", "car_wash", "tires_pump_up", "vacuum_cleaner", "cash_point", "disabled_facilities", "recycling", "toilet", "wifi", "wild_bean_cafe", "good_mood_food", "ubereats", "mobile_enabled", "everyday_rewards", "swappa_bottle"], "products": ["aa_smart_fuel", "ultimate_98", "ultimate_diesel", "unleaded_91"], "website": null, "watchlist_id": null, "formatted_address": " Cnr Taranaki Street & Wakefield Street\nWellington", "channel_of_trade": null}, {"id": "NZ-0DJ70", "name": "BP Connect Adelaide Road", "lat": -41.303031, "lng": 174.779503, "site_brand": "BP", "country_code": "NZ", "address": "45-55 Adelaide Road", "city": "Wellington", "state": "Newtown", "postcode": null, "telephone": "+64 4 381 6420", "facilities": ["open_saturday", "open_sunday", "car_wash", "tires_pump_up", "vacuum_cleaner", "disabled_facilities", "recycling", "toilet", "wifi", "wild_bean_cafe", "ubereats", "mobile_enabled", "everyday_rewards", "swappa_bottle"], "products": ["aa_smart_fuel", "ultimate_diesel", "unleaded_91", "unleaded_95"], "website": null, "watchlist_id": null, "formatted_address": "45-55 Adelaide Road\nWellington", "channel_of_trade": null}, {"id": "NZ-0DJ71", "name": "BP Connect Bush Inn", "lat": -43.531349, "lng": 172.576126, "site_brand": "BP", "country_code": "NZ", "address": "330 Riccarton Road", "city": "Christchurch", "state": "Upper Riccarton", "postcode": null, "telephone": "+64 3 982 7330", "facilities": ["open_saturday", "open_sunday", "car_wash", "tires_pump_up", "vacuum_cleaner", "cash_point", "disabled_facilities", "recycling", "toilet", "wild_bean_cafe", "good_mood_food", "mobile_enabled", "everyday_rewards", "swappa_bottle"], "products": ["aa_smart_fuel", "ultimate_diesel", "unleaded_91", "unleaded_95"], "website": null, "watchlist_id": null, "formatted_address": "330 Riccarton Road\nChristchurch", "channel_of_trade": null}, {"id": "NZ-0DJ72", "name": "BP Connect Dallington", "lat": -43.525318, "lng": 172.673307, "site_brand": "BP", "country_code": "NZ", "address": "712 Gloucester Street", "city": "Christchurch", "state": "Linwood", "postcode": null, "telephone": "+64 3 982 7280", "facilities": ["open_24_hours", "open_saturday", "open_sunday", "car_wash", "tires_pump_up", "vacuum_cleaner", "cash_point", "disabled_facilities", "recycling", "toilet", "wifi", "wild_bean_cafe", "good_mood_food", "ubereats", "mobile_enabled", "everyday_rewards", "swappa_bottle"], "products": ["aa_smart_fuel", "electricity", "ultimate_98", "ultimate_diesel", "unleaded_91"], "website": null, "watchlist_id": null, "formatted_address": "712 Gloucester Street\nChristchurch", "channel_of_trade": null}, {"id": "NZ-0DJ73", "name": "BP Connect Edgeware", "lat": -43.513477, "lng": 172.637784, "site_brand": "BP", "country_code": "NZ", "address": " Cnr Edgeware Road & Cranford Street", "city": "Christchurch", "state": "St Albans", "postcode": null, "telephone": "+64 3 982 7380", "facilities": ["open_24_hours", "open_saturday", "open_sunday", "car_wash", "tires_pump_up", "vacuum_cleaner", "cash_point", "disabled_facilities", "recycling", "toilet", "wifi", "wild_bean_cafe", "good_mood_food", "ubereats", "mobile_enabled", "everyday_rewards", "swappa_bottle"], "products": ["aa_smart_fuel", "electricity", "ultimate_98", "ultimate_diesel", "unleaded_91", "unleaded_95"], "website": null, "watchlist_id": null, "formatted_address": " Cnr Edgeware Road & Cranford Street\nChristchurch", "channel_of_trade": null}, {"id": "NZ-0DJ74", "name": "BP Connect Fendalton", "lat": -43.518659, "lng": 172.589947, "site_brand": "BP", "country_code": "NZ", "address": "1 Memorial Avenue", "city": "Christchurch", "state": "Ilam", "postcode": null, "telephone": "+64 3 351 4760", "facilities": ["open_24_hours", "open_saturday", "open_sunday", "car_wash", "tires_pump_up", "vacuum_cleaner", "cash_point", "disabled_facilities", "recycling", "toilet", "wifi", "wild_bean_cafe", "good_mood_food", "ubereats", "mobile_enabled", "everyday_rewards", "swappa_bottle"], "products": ["aa_smart_fuel", "electricity", "ultimate_98", "ultimate_diesel", "unleaded_91", "unleaded_95"], "website": null, "watchlist_id": null, "formatted_address": "1 Memorial Avenue\nChristchurch", "channel_of_trade": null}, {"id": "NZ-0DJ75", "name": "BP Connect QE II", "lat": -43.495181, "lng": 172.710419, "site_brand": "BP", "country_code": "NZ", "address": "308 Travis Road", "city": "Christchurch", "state": "New Brighton", "postcode": null, "telephone": "+64 3 982 9390", "facilities": ["open_24_hours", "open_saturday", "open_sunday", "car_wash", "tires_pump_up", "vacuum_cleaner", "cash_point", "disabled_facilities", "recycling", "toilet", "wifi", "wild_bean_cafe", "good_mood_food", "ubereats", "mobile_enabled", "everyday_rewards", "swappa_bottle"], "products": ["aa_smart_fuel", "electricity", "ultimate_diesel", "unleaded_91", "unleaded_95"], "website": null, "watchlist_id": null, "formatted_address": "308 Travis Road\nChristchurch", "channel_of_trade": null}, {"id": "NZ-0DJ76", "name": "BP Connect Rolleston", "lat": -43.590616, "lng": 172.380097, "site_brand": "BP", "country_code": "NZ", "address": "1705 Main South Road", "city": "Christchurch", "state": "Rolleston", "postcode": null, "telephone": "+64 3 347 7790", "facilities": ["open_24_hours", "open_saturday", "open_sunday", "car_wash", "tires_pump_up", "vacuum_cleaner", "cash_point", "disabled_facilities", "recycling", "toilet", "wifi", "wild_bean_cafe", "good_mood_food", "mobile_enabled", "everyday_rewards", "swappa_bottle"], "products": ["aa_smart_fuel", "electricity", "truck_diesel", "ultimate_98", "ultimate_diesel", "unleaded_91"], "website": null, "watchlist_id": null, "formatted_address": "1705 Main South Road\nChristchurch", "channel_of_trade": null}, {"id": "NZ-0DJ77", "name": "BP Connect Hoon Hay", "lat": -43.564281, "lng": 172.608352, "site_brand": "BP", "country_code": "NZ", "address": " Cnr Hoon Hay Road & Sparks Road", "city": "Christchurch", "state": "Hoon Hay", "postcode": null, "telephone": "+64 3 982 7300", "facilities": ["open_24_hours", "open_saturday", "open_sunday", "car_wash", "tires_pump_up", "vacuum_cleaner", "cash_point", "disabled_facilities", "recycling", "toilet", "wifi", "wild_bean_cafe", "good_mood_food", "ubereats", "mobile_enabled", "everyday_rewards", "swappa_bottle"], "products": ["aa_smart_fuel", "ultimate_98", "ultimate_diesel", "unleaded_91"], "website": null, "watchlist_id": null, "formatted_address": " Cnr Hoon Hay Road & Sparks Road\nChristchurch", "channel_of_trade": null}, {"id": "NZ-0DJ78", "name": "BP Connect Queenstown", "lat": -45.015329, "lng": 168.731646, "site_brand": "BP", "country_code": "NZ", "address": "1094 Frankton Road", "city": "Queenstown", "state": "Frankton", "postcode": null, "telephone": "+64 3 441 4850", "facilities": ["open_saturday", "open_sunday", "tires_pump_up", "cash_point", "disabled_facilities", "recycling", "toilet", "wifi", "wild_bean_cafe", "mobile_enabled", "everyday_rewards", "swappa_bottle"], "products": ["aa_smart_fuel", "regular_diesel", "unleaded_91", "unleaded_95"], "website": null, "watchlist_id": null, "formatted_address": "1094 Frankton Road\nQueenstown", "channel_of_trade": null}, {"id": "NZ-0DJ79", "name": "BP Connect Bays Junction", "lat": -45.897376, "lng": 170.510069, "site_brand": "BP", "country_code": "NZ", "address": "574 Andersons Bay Road", "city": "Dunedin", "state": "Musselburgh", "postcode": null, "telephone": "+64 3 456 1740", "facilities": ["open_saturday", "open_sunday", "tires_pump_up", "cash_point", "disabled_facilities", "recycling", "toilet", "wifi", "wild_bean_cafe", "good_mood_food", "mobile_enabled", "everyday_rewards", "swappa_bottle"], "products": ["aa_smart_fuel", "electricity", "ultimate_98", "ultimate_diesel", "unleaded_91"], "website": null, "watchlist_id": null, "formatted_address": "574 Andersons Bay Road\nDunedin", "channel_of_trade": null}, {"id": "NZ-0DJ80", "name": "BP Connect Southern", "lat": -45.884607, "lng": 170.501434, "site_brand": "BP", "country_code": "NZ", "address": "52 Cumberland Street South", "city": "Dunedin", "state": "Dunedin Central", "postcode": null, "telephone": "+64 3 474 8260", "facilities": ["open_24_hours", "open_saturday", "open_sunday", "car_wash", "tires_pump_up", "vacuum_cleaner", "cash_point", "disabled_facilities", "recycling", "toilet", "wifi", "wild_bean_cafe", "good_mood_food", "ubereats", "mobile_enabled", "everyday_rewards", "swappa_bottle"], "products": ["aa_smart_fuel", "truck_diesel", "ultimate_98", "ultimate_diesel", "unleaded_91"], "website": null, "watchlist_id": null, "formatted_address": "52 Cumberland Street South\nDunedin", "channel_of_trade": null}, {"id": "NZ-0DJ81", "name": "BP Connect Timaru", "lat": -44.374268, "lng": 171.242019, "site_brand": "BP", "country_code": "NZ", "address": "193 Evans Street", "city": "Timaru", "state": "Waimataitai", "postcode": null, "telephone": "+64 3 686 6565", "facilities": ["open_24_hours", "open_saturday", "open_sunday", "car_wash", "tires_pump_up", "vacuum_cleaner", "cash_point", "disabled_facilities", "recycling", "toilet", "wifi", "wild_bean_cafe", "good_mood_food", "mobile_enabled", "everyday_rewards", "swappa_bottle"], "products": ["aa_smart_fuel", "electricity", "ultimate_98", "ultimate_diesel", "unleaded_91"], "website": null, "watchlist_id": null, "formatted_address": "193 Evans Street\nTimaru", "channel_of_trade": null}, {"id": "NZ-0DJ83", "name": "BP Connect Glenview", "lat": -37.821968, "lng": 175.286616, "site_brand": "BP", "country_code": "NZ", "address": "216 Ohaupo Road", "city": "Hamilton", "state": "Glenview", "postcode": null, "telephone": "+64 7 843 4491", "facilities": ["open_24_hours", "open_saturday", "open_sunday", "tires_pump_up", "disabled_facilities", "recycling", "toilet", "wifi", "wild_bean_cafe", "good_mood_food", "ubereats", "mobile_enabled", "everyday_rewards", "swappa_bottle"], "products": ["aa_smart_fuel", "electricity", "ultimate_diesel", "unleaded_91", "unleaded_95"], "website": null, "watchlist_id": null, "formatted_address": "216 Ohaupo Road\nHamilton", "channel_of_trade": null}, {"id": "NZ-0DJ84", "name": "BP Connect Lunn Avenue", "lat": -36.888488, "lng": 174.831547, "site_brand": "BP", "country_code": "NZ", "address": "110 Lunn Avenue", "city": "Auckland", "state": "Mt Wellington", "postcode": null, "telephone": "+64 9 570 1693", "facilities": ["open_24_hours", "open_saturday", "open_sunday", "car_wash", "jet_wash", "tires_pump_up", "vacuum_cleaner", "cash_point", "disabled_facilities", "recycling", "toilet", "wifi", "wild_bean_cafe", "good_mood_food", "ubereats", "mobile_enabled", "everyday_rewards", "swappa_bottle"], "products": ["aa_smart_fuel", "electricity", "ultimate_98", "ultimate_diesel", "unleaded_91"], "website": null, "watchlist_id": null, "formatted_address": "110 Lunn Avenue\nAuckland", "channel_of_trade": null}, {"id": "NZ-0DJ87", "name": "BP Connect Bulls", "lat": -40.177013, "lng": 175.38549, "site_brand": "BP", "country_code": "NZ", "address": "92-94 Bridge Street", "city": "Bulls", "state": "Bulls", "postcode": null, "telephone": "+64 6 322 1858", "facilities": ["open_saturday", "open_sunday", "tires_pump_up", "cash_point", "disabled_facilities", "recycling", "toilet", "wifi", "wild_bean_cafe", "good_mood_food", "mobile_enabled", "everyday_rewards", "swappa_bottle"], "products": ["aa_smart_fuel", "truck_diesel", "ultimate_98", "ultimate_diesel", "unleaded_91", "unleaded_95"], "website": null, "watchlist_id": null, "formatted_address": "92-94 Bridge Street\nBulls", "channel_of_trade": null}, {"id": "NZ-0DJ88", "name": "BP Connect Pakuranga", "lat": -36.902267, "lng": 174.896293, "site_brand": "BP", "country_code": "NZ", "address": "322-330 Pakuranga Road", "city": "Auckland", "state": "Pakuranga", "postcode": null, "telephone": "+64 9 576 3763", "facilities": ["open_24_hours", "open_saturday", "open_sunday", "car_wash", "jet_wash", "tires_pump_up", "vacuum_cleaner", "cash_point", "disabled_facilities", "recycling", "toilet", "wifi", "wild_bean_cafe", "good_mood_food", "ubereats", "mobile_enabled", "everyday_rewards", "swappa_bottle"], "products": ["aa_smart_fuel", "ultimate_98", "ultimate_diesel", "unleaded_91", "unleaded_95"], "website": null, "watchlist_id": null, "formatted_address": "322-330 Pakuranga Road\nAuckland", "channel_of_trade": null}, {"id": "NZ-0DJ89", "name": "BP Connect Warkworth", "lat": -36.408726, "lng": 174.659304, "site_brand": "BP", "country_code": "NZ", "address": "67 Auckland Road", "city": "Warkworth", "state": "College Estate", "postcode": null, "telephone": "+64 9 422 2016", "facilities": ["open_saturday", "open_sunday", "car_wash", "tires_pump_up", "vacuum_cleaner", "high_speed_pump", "disabled_facilities", "recycling", "toilet", "wifi", "wild_bean_cafe", "good_mood_food", "mobile_enabled", "everyday_rewards", "swappa_bottle"], "products": ["aa_smart_fuel", "electricity", "ultimate_98", "ultimate_diesel", "unleaded_91", "unleaded_95"], "website": null, "watchlist_id": null, "formatted_address": "67 Auckland Road\nWarkworth", "channel_of_trade": null}, {"id": "NZ-0DJ90", "name": "BP Connect Ormiston Road", "lat": -36.966469, "lng": 174.915996, "site_brand": "BP", "country_code": "NZ", "address": "255 Ormiston Road", "city": "Auckland", "state": "Flat Bush", "postcode": null, "telephone": "+64 9 273 4658", "facilities": ["open_24_hours", "open_saturday", "open_sunday", "car_wash", "tires_pump_up", "vacuum_cleaner", "disabled_facilities", "recycling", "toilet", "wifi", "wild_bean_cafe", "good_mood_food", "ubereats", "mobile_enabled", "everyday_rewards", "swappa_bottle"], "products": ["aa_smart_fuel", "ultimate_98", "ultimate_diesel", "unleaded_91", "unleaded_95"], "website": null, "watchlist_id": null, "formatted_address": "255 Ormiston Road\nAuckland", "channel_of_trade": null}, {"id": "NZ-0DJ91", "name": "BP Connect Russley Road", "lat": -43.47938, "lng": 172.55522, "site_brand": "BP", "country_code": "NZ", "address": "661 Russley Road", "city": "Christchurch", "state": "Harewood", "postcode": null, "telephone": "+64 3 741 3019", "facilities": ["open_24_hours", "open_saturday", "open_sunday", "car_wash", "tires_pump_up", "vacuum_cleaner", "high_speed_pump", "cash_point", "disabled_facilities", "recycling", "toilet", "wifi", "motorway_site", "wild_bean_cafe", "good_mood_food", "ubereats", "mobile_enabled", "everyday_rewards", "swappa_bottle"], "products": ["aa_smart_fuel", "electricity", "truck_diesel", "ultimate_98", "ultimate_diesel", "unleaded_91", "unleaded_95"], "website": null, "watchlist_id": null, "formatted_address": "661 Russley Road\nChristchurch", "channel_of_trade": null}, {"id": "NZ-0DJ92", "name": "BP Connect Tauriko", "lat": -37.738723, "lng": 176.106168, "site_brand": "BP", "country_code": "NZ", "address": "1 Taurikura Drive", "city": "Tauranga", "state": "Tauriko", "postcode": null, "telephone": "+64 7 543 9134", "facilities": ["open_24_hours", "open_saturday", "open_sunday", "car_wash", "tires_pump_up", "vacuum_cleaner", "disabled_facilities", "recycling", "toilet", "wifi", "wild_bean_cafe", "good_mood_food", "ubereats", "mobile_enabled", "everyday_rewards", "swappa_bottle"], "products": ["aa_smart_fuel", "truck_diesel", "ultimate_98", "ultimate_diesel", "unleaded_91", "unleaded_95"], "website": null, "watchlist_id": null, "formatted_address": "1 Taurikura Drive\nTauranga", "channel_of_trade": null}, {"id": "NZ-0DJ93", "name": "BP Connect Kapiti Road", "lat": -40.907481, "lng": 174.999193, "site_brand": "BP", "country_code": "NZ", "address": "108 Kapiti Road", "city": "Paraparaumu", "state": "", "postcode": null, "telephone": "+64 4 296 1083", "facilities": ["open_24_hours", "open_saturday", "open_sunday", "car_wash", "tires_pump_up", "vacuum_cleaner", "cash_point", "disabled_facilities", "recycling", "toilet", "wifi", "wild_bean_cafe", "good_mood_food", "mobile_enabled", "everyday_rewards", "swappa_bottle"], "products": ["aa_smart_fuel", "electricity", "ultimate_98", "ultimate_diesel", "unleaded_91", "unleaded_95"], "website": null, "watchlist_id": null, "formatted_address": "108 Kapiti Road\nParaparaumu", "channel_of_trade": null}, {"id": "NZ-0DJ94", "name": "BP Connect Greenlane", "lat": -36.887824, "lng": 174.798473, "site_brand": "BP", "country_code": "NZ", "address": "93 Greenlane East", "city": "Auckland", "state": "Greenlane", "postcode": null, "telephone": "+64 9 520 3975", "facilities": ["open_24_hours", "open_saturday", "open_sunday", "car_wash", "tires_pump_up", "vacuum_cleaner", "cash_point", "disabled_facilities", "recycling", "toilet", "wifi", "wild_bean_cafe", "good_mood_food", "ubereats", "mobile_enabled", "everyday_rewards", "swappa_bottle"], "products": ["aa_smart_fuel", "electricity", "ultimate_98", "ultimate_diesel", "unleaded_91", "unleaded_95"], "website": null, "watchlist_id": null, "formatted_address": "93 Greenlane East\nAuckland", "channel_of_trade": null}, {"id": "NZ-0DJ95", "name": "BP Connect Whanganui", "lat": -39.930161, "lng": 175.031932, "site_brand": "BP", "country_code": "NZ", "address": "185 London Street", "city": "Whanganui", "state": "Springvale", "postcode": null, "telephone": "+64 6 345 0242", "facilities": ["open_24_hours", "open_saturday", "open_sunday", "car_wash", "tires_pump_up", "vacuum_cleaner", "cash_point", "disabled_facilities", "recycling", "toilet", "wifi", "wild_bean_cafe", "mobile_enabled", "everyday_rewards", "swappa_bottle"], "products": ["aa_smart_fuel", "electricity", "truck_diesel", "ultimate_98", "ultimate_diesel", "unleaded_91", "unleaded_95"], "website": null, "watchlist_id": null, "formatted_address": "185 London Street\nWhanganui", "channel_of_trade": null}, {"id": "NZ-0DK02", "name": "BP 2go Fairlie", "lat": -44.097067, "lng": 170.827856, "site_brand": "BP", "country_code": "NZ", "address": "5 Mount Cook Road", "city": "Fairlie", "state": "", "postcode": null, "telephone": "+64 3 685 8106", "facilities": ["open_saturday", "open_sunday", "tires_pump_up", "high_speed_pump", "truck_parking", "disabled_facilities", "toilet", "mobile_enabled", "everyday_rewards", "swappa_bottle"], "products": ["aa_smart_fuel", "truck_diesel", "ultimate_diesel", "unleaded_91", "unleaded_95"], "website": null, "watchlist_id": null, "formatted_address": "5 Mount Cook Road\nFairlie", "channel_of_trade": null}, {"id": "NZ-0DK06", "name": "BP 2go Autoworld", "lat": -45.102176, "lng": 170.954164, "site_brand": "BP", "country_code": "NZ", "address": "74 Wansbeck Street", "city": "Oamaru", "state": "", "postcode": null, "telephone": "+64 3 434 7521", "facilities": ["open_saturday", "open_sunday", "tires_pump_up", "trailers", "workshop", "disabled_facilities", "recycling", "toilet", "motorway_site", "hungry_as", "mobile_enabled", "everyday_rewards", "swappa_bottle"], "products": ["aa_smart_fuel", "auto_gas", "lpg", "ultimate_98", "ultimate_diesel", "unleaded_91"], "website": null, "watchlist_id": null, "formatted_address": "74 Wansbeck Street\nOamaru", "channel_of_trade": null}, {"id": "NZ-0DK09", "name": "BP 2go Balclutha", "lat": -46.2428791, "lng": 169.724171, "site_brand": "BP", "country_code": "NZ", "address": "80 Clyde Street", "city": "Balclutha", "state": "", "postcode": null, "telephone": "+64 3 418 0058", "facilities": ["open_saturday", "open_sunday", "car_wash", "tires_pump_up", "vacuum_cleaner", "trailers", "workshop", "disabled_facilities", "toilet", "hungry_as", "mobile_enabled", "everyday_rewards", "swappa_bottle"], "products": ["aa_smart_fuel", "ultimate_98", "ultimate_diesel", "unleaded_91", "unleaded_95"], "website": null, "watchlist_id": null, "formatted_address": "80 Clyde Street\nBalclutha", "channel_of_trade": null}, {"id": "NZ-0DK11", "name": "BP 2go Berhampore", "lat": -41.319706, "lng": 174.775534, "site_brand": "BP", "country_code": "NZ", "address": "36 Luxford Street", "city": "Wellington", "state": "Berhampore", "postcode": null, "telephone": "+64 4 389 8657", "facilities": ["open_saturday", "open_sunday", "tires_pump_up", "trailers", "workshop", "high_speed_pump", "cash_point", "disabled_facilities", "toilet", "hungry_as", "mobile_enabled", "everyday_rewards", "swappa_bottle"], "products": ["aa_smart_fuel", "ultimate_diesel", "unleaded_91", "unleaded_95"], "website": null, "watchlist_id": null, "formatted_address": "36 Luxford Street\nWellington", "channel_of_trade": null}, {"id": "NZ-0DK12", "name": "BP Connect Blenheim", "lat": -41.513812, "lng": 173.958933, "site_brand": "BP", "country_code": "NZ", "address": "14 Main Street", "city": "Blenheim", "state": "", "postcode": null, "telephone": "+64 3 578 8714", "facilities": ["open_saturday", "open_sunday", "car_wash", "tires_pump_up", "vacuum_cleaner", "cash_point", "disabled_facilities", "recycling", "toilet", "wifi", "wild_bean_cafe", "mobile_enabled", "everyday_rewards", "swappa_bottle"], "products": ["aa_smart_fuel", "electricity", "truck_diesel", "ultimate_98", "ultimate_diesel", "unleaded_91"], "website": null, "watchlist_id": null, "formatted_address": "14 Main Street\nBlenheim", "channel_of_trade": null}, {"id": "NZ-0DK15", "name": "BP 2go Carlyle", "lat": -39.492502, "lng": 176.90991, "site_brand": "BP", "country_code": "NZ", "address": "60 Carlyle Street", "city": "Napier", "state": "", "postcode": null, "telephone": "+64 6 835 0715", "facilities": ["open_saturday", "open_sunday", "car_wash", "tires_pump_up", "vacuum_cleaner", "trailers", "disabled_facilities", "toilet", "wifi", "hungry_as", "mobile_enabled", "everyday_rewards", "swappa_bottle"], "products": ["aa_smart_fuel", "ultimate_diesel", "unleaded_91", "unleaded_95"], "website": null, "watchlist_id": null, "formatted_address": "60 Carlyle Street\nNapier", "channel_of_trade": null}, {"id": "NZ-0DK16", "name": "BP Connect Cavendish", "lat": -36.990484, "lng": 174.867708, "site_brand": "BP", "country_code": "NZ", "address": "116 Cavendish Drive", "city": "Auckland", "state": "Manukau", "postcode": null, "telephone": "+64 9 263 4390", "facilities": ["open_24_hours", "open_saturday", "open_sunday", "tires_pump_up", "cash_point", "disabled_facilities", "recycling", "toilet", "wifi", "wild_bean_cafe", "good_mood_food", "ubereats", "mobile_enabled", "everyday_rewards", "swappa_bottle"], "products": ["aa_smart_fuel", "electricity", "ultimate_98", "ultimate_diesel", "unleaded_91"], "website": null, "watchlist_id": null, "formatted_address": "116 Cavendish Drive\nAuckland", "channel_of_trade": null}, {"id": "NZ-0DK17", "name": "BP 2go Clive", "lat": -39.583892, "lng": 176.914687, "site_brand": "BP", "country_code": "NZ", "address": "174 Main Road", "city": "Clive", "state": "", "postcode": null, "telephone": "+64 6 870 0595", "facilities": ["open_saturday", "open_sunday", "car_wash", "tires_pump_up", "vacuum_cleaner", "trailers", "workshop", "high_speed_pump", "cash_point", "disabled_facilities", "toilet", "wifi", "hungry_as", "mobile_enabled", "everyday_rewards", "swappa_bottle"], "products": ["aa_smart_fuel", "truck_diesel", "ultimate_98", "ultimate_diesel", "unleaded_91"], "website": null, "watchlist_id": null, "formatted_address": "174 Main Road\nClive", "channel_of_trade": null}, {"id": "NZ-0DK18", "name": "BP 2go Cromwell", "lat": -45.036131, "lng": 169.194008, "site_brand": "BP", "country_code": "NZ", "address": " Cnr Iles Drive & Sargood Drive", "city": "Cromwell", "state": "", "postcode": null, "telephone": "+64 3 445 4441", "facilities": ["open_saturday", "open_sunday", "car_wash", "jet_wash", "tires_pump_up", "vacuum_cleaner", "trailers", "high_speed_pump", "truck_parking", "disabled_facilities", "recycling", "toilet", "mobile_enabled", "outdoor_payment_terminal", "everyday_rewards", "swappa_bottle"], "products": ["aa_smart_fuel", "ad_blue", "auto_gas", "lpg", "regular_diesel", "truck_diesel", "ultimate_98", "ultimate_diesel", "unleaded_91", "unleaded_95"], "website": null, "watchlist_id": null, "formatted_address": " Cnr Iles Drive & Sargood Drive\nCromwell", "channel_of_trade": null}, {"id": "NZ-0DK19", "name": "BP 2go Otumoetai", "lat": -37.665495, "lng": 176.141876, "site_brand": "BP", "country_code": "NZ", "address": "269 Ngatai Road", "city": "Tauranga", "state": "Otumoetai", "postcode": null, "telephone": "+64 7 576 6205", "facilities": ["open_saturday", "open_sunday", "tires_pump_up", "vacuum_cleaner", "trailers", "workshop", "disabled_facilities", "toilet", "mobile_enabled", "everyday_rewards"], "products": ["aa_smart_fuel", "ultimate_98", "ultimate_diesel", "unleaded_91"], "website": null, "watchlist_id": null, "formatted_address": "269 Ngatai Road\nTauranga", "channel_of_trade": null}, {"id": "NZ-0DK21", "name": "BP 2go Ellerslie", "lat": -36.8994, "lng": 174.813007, "site_brand": "BP", "country_code": "NZ", "address": "171 Main Highway", "city": "Auckland", "state": "Ellerslie", "postcode": null, "telephone": "+64 9 218 6902", "facilities": ["open_saturday", "open_sunday", "tires_pump_up", "high_speed_pump", "disabled_facilities", "toilet", "wifi", "wild_bean_cafe", "mobile_enabled", "everyday_rewards", "swappa_bottle"], "products": ["aa_smart_fuel", "truck_diesel", "ultimate_diesel", "unleaded_91", "unleaded_95"], "website": null, "watchlist_id": null, "formatted_address": "171 Main Highway\nAuckland", "channel_of_trade": null}, {"id": "NZ-0DK22", "name": "BP 2go Eltham", "lat": -39.432601, "lng": 174.299711, "site_brand": "BP", "country_code": "NZ", "address": "104 High Street", "city": "Taranaki", "state": "Eltham", "postcode": null, "telephone": "+64 6 764 8606", "facilities": ["open_saturday", "open_sunday", "tires_pump_up", "trailers", "disabled_facilities", "toilet", "everyday_rewards", "swappa_bottle"], "products": ["aa_smart_fuel", "truck_diesel", "ultimate_diesel", "unleaded_91", "unleaded_95"], "website": null, "watchlist_id": null, "formatted_address": "104 High Street\nTaranaki", "channel_of_trade": null}, {"id": "NZ-0DK23", "name": "BP 2go Epsom", "lat": -36.897115, "lng": 174.773579, "site_brand": "BP", "country_code": "NZ", "address": "529 Manukau Road", "city": "Auckland", "state": "Epsom", "postcode": null, "telephone": "+64 9 630 3587", "facilities": ["open_saturday", "open_sunday", "tires_pump_up", "vacuum_cleaner", "trailers", "workshop", "disabled_facilities", "toilet", "everyday_rewards", "swappa_bottle"], "products": ["aa_smart_fuel", "ultimate_diesel", "unleaded_91", "unleaded_95"], "website": null, "watchlist_id": null, "formatted_address": "529 Manukau Road\nAuckland", "channel_of_trade": null}, {"id": "NZ-0DK24", "name": "BP 2go On Princes", "lat": -45.886706, "lng": 170.49629, "site_brand": "BP", "country_code": "NZ", "address": "808 - 828 Princes Street", "city": "Dunedin", "state": "", "postcode": null, "telephone": "+64 3 477 5566", "facilities": ["open_saturday", "open_sunday", "tires_pump_up", "disabled_facilities", "toilet", "hungry_as", "mobile_enabled", "everyday_rewards", "swappa_bottle"], "products": ["aa_smart_fuel", "ultimate_diesel", "unleaded_91", "unleaded_95"], "website": null, "watchlist_id": null, "formatted_address": "808 - 828 Princes Street\nDunedin", "channel_of_trade": null}, {"id": "NZ-0DK26", "name": "BP 2go Ormond Road", "lat": -38.650782, "lng": 178.020592, "site_brand": "BP", "country_code": "NZ", "address": "192 Ormond Road", "city": "Gisborne", "state": "", "postcode": null, "telephone": "+64 6 868 7675", "facilities": ["open_saturday", "open_sunday", "tires_pump_up", "vacuum_cleaner", "high_speed_pump", "cash_point", "disabled_facilities", "toilet", "hungry_as", "mobile_enabled", "everyday_rewards", "swappa_bottle"], "products": ["aa_smart_fuel", "lpg", "truck_diesel", "ultimate_diesel", "unleaded_91", "unleaded_95"], "website": null, "watchlist_id": null, "formatted_address": "192 Ormond Road\nGisborne", "channel_of_trade": null}, {"id": "NZ-0DK27", "name": "BP 2go Raglan", "lat": -37.802986, "lng": 174.873521, "site_brand": "BP", "country_code": "NZ", "address": "2 Main Road", "city": "Raglan", "state": "", "postcode": null, "telephone": "+64 7 825 8393", "facilities": ["open_saturday", "open_sunday", "tires_pump_up", "trailers", "cash_point", "disabled_facilities", "toilet", "wifi", "hungry_as", "mobile_enabled", "everyday_rewards", "swappa_bottle"], "products": ["aa_smart_fuel", "ad_blue", "truck_diesel", "ultimate_diesel", "unleaded_91", "unleaded_95"], "website": null, "watchlist_id": null, "formatted_address": "2 Main Road\nRaglan", "channel_of_trade": null}, {"id": "NZ-0DK28", "name": "BP 2go Gore", "lat": -46.097251, "lng": 168.95428, "site_brand": "BP", "country_code": "NZ", "address": "8 Railway Esplanade", "city": "Gore", "state": "", "postcode": null, "telephone": "+64 3 208 5658", "facilities": ["open_saturday", "open_sunday", "tires_pump_up", "disabled_facilities", "toilet", "hungry_as", "mobile_enabled", "everyday_rewards", "swappa_bottle"], "products": ["aa_smart_fuel", "regular_diesel", "unleaded_91", "unleaded_95"], "website": null, "watchlist_id": null, "formatted_address": "8 Railway Esplanade\nGore", "channel_of_trade": null}, {"id": "NZ-0DK29", "name": "BP 2go Greenmeadows", "lat": -39.525834, "lng": 176.862218, "site_brand": "BP", "country_code": "NZ", "address": "22 Gloucester Street", "city": "Napier", "state": "Greenmeadows", "postcode": null, "telephone": "+64 6 844 7900", "facilities": ["open_saturday", "open_sunday", "car_wash", "jet_wash", "tires_pump_up", "vacuum_cleaner", "trailers", "disabled_facilities", "toilet", "wifi", "hungry_as", "mobile_enabled", "everyday_rewards", "swappa_bottle"], "products": ["aa_smart_fuel", "ultimate_98", "ultimate_diesel", "unleaded_91", "unleaded_95"], "website": null, "watchlist_id": null, "formatted_address": "22 Gloucester Street\nNapier", "channel_of_trade": null}, {"id": "NZ-0DK30", "name": "BP 2go Greymouth", "lat": -42.455296, "lng": 171.207824, "site_brand": "BP", "country_code": "NZ", "address": "157-169 Tainui Street", "city": "Greymouth", "state": "", "postcode": null, "telephone": "+64 3 768 0144", "facilities": ["open_24_hours", "open_saturday", "open_sunday", "car_wash", "tires_pump_up", "vacuum_cleaner", "trailers", "high_speed_pump", "disabled_facilities", "toilet", "wifi", "hungry_as", "mobile_enabled", "everyday_rewards"], "products": ["aa_smart_fuel", "lpg", "truck_diesel", "ultimate_98", "ultimate_diesel", "unleaded_91"], "website": null, "watchlist_id": null, "formatted_address": "157-169 Tainui Street\nGreymouth", "channel_of_trade": null}, {"id": "NZ-0DK31", "name": "BP 2go Halswell", "lat": -43.571882, "lng": 172.571005, "site_brand": "BP", "country_code": "NZ", "address": "246 Halswell Road", "city": "Christchurch", "state": "Halswell", "postcode": null, "telephone": "+64 3 322 7134", "facilities": ["open_24_hours", "open_saturday", "open_sunday", "tires_pump_up", "trailers", "cash_point", "disabled_facilities", "toilet", "wifi", "wild_bean_cafe", "hungry_as", "mobile_enabled", "everyday_rewards", "swappa_bottle"], "products": ["aa_smart_fuel", "truck_diesel", "ultimate_98", "ultimate_diesel", "unleaded_91"], "website": null, "watchlist_id": null, "formatted_address": "246 Halswell Road\nChristchurch", "channel_of_trade": null}, {"id": "NZ-0DK32", "name": "BP Connect Haven Road", "lat": -41.2666916, "lng": 173.2759329, "site_brand": "BP", "country_code": "NZ", "address": "161 Haven Road", "city": "Nelson", "state": "Port Nelson", "postcode": null, "telephone": "+64 3 546 6310", "facilities": ["open_saturday", "open_sunday", "car_wash", "tires_pump_up", "vacuum_cleaner", "high_speed_pump", "cash_point", "disabled_facilities", "recycling", "toilet", "wifi", "wild_bean_cafe", "mobile_enabled", "everyday_rewards", "swappa_bottle"], "products": ["aa_smart_fuel", "electricity", "ultimate_98", "ultimate_diesel", "unleaded_91", "unleaded_95"], "website": null, "watchlist_id": null, "formatted_address": "161 Haven Road\nNelson", "channel_of_trade": null}, {"id": "NZ-0DK33", "name": "BP 2go Highfield", "lat": -44.389619, "lng": 171.218067, "site_brand": "BP", "country_code": "NZ", "address": "199 Wai Iti Road", "city": "Timaru", "state": "Highfield", "postcode": null, "telephone": "+64 3 688 9340", "facilities": ["open_saturday", "open_sunday", "tires_pump_up", "trailers", "workshop", "disabled_facilities", "wifi", "hungry_as", "mobile_enabled", "everyday_rewards", "swappa_bottle"], "products": ["aa_smart_fuel", "ultimate_diesel", "unleaded_91", "unleaded_95"], "website": null, "watchlist_id": null, "formatted_address": "199 Wai Iti Road\nTimaru", "channel_of_trade": null}, {"id": "NZ-0DK35", "name": "BP 2go Hillside", "lat": -36.926079, "lng": 174.749646, "site_brand": "BP", "country_code": "NZ", "address": "719 Richardson Road", "city": "Auckland", "state": "Hillsborough", "postcode": null, "telephone": "+64 9 625 6375", "facilities": ["open_24_hours", "open_saturday", "open_sunday", "tires_pump_up", "vacuum_cleaner", "trailers", "workshop", "cash_point", "disabled_facilities", "toilet", "hungry_as", "mobile_enabled", "everyday_rewards", "swappa_bottle"], "products": ["aa_smart_fuel", "ultimate_diesel", "unleaded_91"], "website": null, "watchlist_id": null, "formatted_address": "719 Richardson Road\nAuckland", "channel_of_trade": null}, {"id": "NZ-0DK36", "name": "BP Connect Horsham Downs", "lat": -37.730179, "lng": 175.273706, "site_brand": "BP", "country_code": "NZ", "address": "36 Cnr Horsham Downs Road & Thomas Road", "city": "Hamilton", "state": "Rototuna", "postcode": null, "telephone": "+64 7 853 9684", "facilities": ["open_24_hours", "open_saturday", "open_sunday", "car_wash", "tires_pump_up", "vacuum_cleaner", "high_speed_pump", "cash_point", "disabled_facilities", "recycling", "toilet", "wifi", "wild_bean_cafe", "good_mood_food", "ubereats", "mobile_enabled", "everyday_rewards", "swappa_bottle"], "products": ["aa_smart_fuel", "electricity", "truck_diesel", "ultimate_98", "ultimate_diesel", "unleaded_91"], "website": null, "watchlist_id": null, "formatted_address": "36 Cnr Horsham Downs Road & Thomas Road\nHamilton", "channel_of_trade": null}, {"id": "NZ-0DK37", "name": "BP 2go Jervois Road", "lat": -36.845728, "lng": 174.742162, "site_brand": "BP", "country_code": "NZ", "address": "47-55 Jervois Road", "city": "Auckland", "state": "Ponsonby", "postcode": null, "telephone": "+64 9 378 4417", "facilities": ["open_saturday", "open_sunday", "tires_pump_up", "trailers", "cash_point", "disabled_facilities", "toilet", "mobile_enabled", "everyday_rewards", "swappa_bottle"], "products": ["aa_smart_fuel", "ultimate_98", "ultimate_diesel", "unleaded_91"], "website": null, "watchlist_id": null, "formatted_address": "47-55 Jervois Road\nAuckland", "channel_of_trade": null}, {"id": "NZ-0DK38", "name": "BP 2go Kaikoura", "lat": -42.392225, "lng": 173.679444, "site_brand": "BP", "country_code": "NZ", "address": "84 Beach Road", "city": "Kaikoura", "state": "", "postcode": null, "telephone": "+64 3 319 5036", "facilities": ["open_saturday", "open_sunday", "car_wash", "tires_pump_up", "vacuum_cleaner", "workshop", "disabled_facilities", "toilet", "hungry_as", "mobile_enabled", "everyday_rewards", "swappa_bottle"], "products": ["aa_smart_fuel", "truck_diesel", "ultimate_98", "ultimate_diesel", "unleaded_91"], "website": null, "watchlist_id": null, "formatted_address": "84 Beach Road\nKaikoura", "channel_of_trade": null}, {"id": "NZ-0DK39", "name": "BP 2go Kaiti", "lat": -38.671102, "lng": 178.036489, "site_brand": "BP", "country_code": "NZ", "address": "146 Wainui Road", "city": "Gisborne", "state": "Kaiti", "postcode": null, "telephone": "+64 6 867 5868", "facilities": ["open_saturday", "open_sunday", "car_wash", "tires_pump_up", "vacuum_cleaner", "high_speed_pump", "cash_point", "disabled_facilities", "recycling", "toilet", "hungry_as", "mobile_enabled", "everyday_rewards", "swappa_bottle"], "products": ["aa_smart_fuel", "auto_gas", "lpg", "truck_diesel", "ultimate_98", "ultimate_diesel", "unleaded_91"], "website": null, "watchlist_id": null, "formatted_address": "146 Wainui Road\nGisborne", "channel_of_trade": null}, {"id": "NZ-0DK42", "name": "BP 2go Landscape", "lat": -36.898938, "lng": 174.756735, "site_brand": "BP", "country_code": "NZ", "address": "925 Mt Eden Road", "city": "Auckland", "state": "Three Kings", "postcode": null, "telephone": "+64 9 638 8226", "facilities": ["open_saturday", "open_sunday", "trailers", "workshop", "disabled_facilities", "hungry_as", "mobile_enabled", "everyday_rewards", "swappa_bottle"], "products": ["aa_smart_fuel", "ad_blue", "ultimate_diesel", "unleaded_91", "unleaded_95"], "website": null, "watchlist_id": null, "formatted_address": "925 Mt Eden Road\nAuckland", "channel_of_trade": null}, {"id": "NZ-0DK43", "name": "BP 2go Leamington", "lat": -37.90721, "lng": 175.474762, "site_brand": "BP", "country_code": "NZ", "address": "189 Shakespeare Street", "city": "Cambridge", "state": "Leamington", "postcode": null, "telephone": "+64 7 827 7025", "facilities": ["open_saturday", "open_sunday", "tires_pump_up", "trailers", "high_speed_pump", "disabled_facilities", "toilet", "hungry_as", "mobile_enabled", "everyday_rewards", "swappa_bottle"], "products": ["aa_smart_fuel", "truck_diesel", "ultimate_diesel", "unleaded_91", "unleaded_95"], "website": null, "watchlist_id": null, "formatted_address": "189 Shakespeare Street\nCambridge", "channel_of_trade": null}, {"id": "NZ-0DK44", "name": "BP 2go Linwood", "lat": -43.541875, "lng": 172.687518, "site_brand": "BP", "country_code": "NZ", "address": "457 Linwood Avenue", "city": "Christchurch", "state": "Bromley", "postcode": null, "telephone": "+64 3 389 5919", "facilities": ["open_saturday", "open_sunday", "tires_pump_up", "trailers", "high_speed_pump", "truck_parking", "cash_point", "disabled_facilities", "toilet", "wild_bean_cafe", "mobile_enabled", "outdoor_payment_terminal", "everyday_rewards", "swappa_bottle"], "products": ["aa_smart_fuel", "truck_diesel", "ultimate_diesel", "unleaded_91", "unleaded_95"], "website": null, "watchlist_id": null, "formatted_address": "457 Linwood Avenue\nChristchurch", "channel_of_trade": null}, {"id": "NZ-0DK45", "name": "BP 2go Main Street", "lat": -40.351524, "lng": 175.622284, "site_brand": "BP", "country_code": "NZ", "address": "646 Main Street", "city": "Palmerston North", "state": "Palmerston North Central", "postcode": null, "telephone": "+64 6 355 4460", "facilities": ["open_saturday", "open_sunday", "tires_pump_up", "trailers", "workshop", "disabled_facilities", "recycling", "toilet", "wifi", "hungry_as", "mobile_enabled", "everyday_rewards", "swappa_bottle"], "products": ["aa_smart_fuel", "auto_gas", "lpg", "truck_diesel", "ultimate_diesel", "unleaded_91", "unleaded_95"], "website": null, "watchlist_id": null, "formatted_address": "646 Main Street\nPalmerston North", "channel_of_trade": null}, {"id": "NZ-0DK46", "name": "BP 2go Mairehau", "lat": -43.497615, "lng": 172.642435, "site_brand": "BP", "country_code": "NZ", "address": "435 Innes Road", "city": "Christchurch", "state": "Mairehau", "postcode": null, "telephone": "+64 3 385 3477", "facilities": ["open_saturday", "open_sunday", "tires_pump_up", "trailers", "workshop", "high_speed_pump", "cash_point", "disabled_facilities", "toilet", "hungry_as", "mobile_enabled", "outdoor_payment_terminal", "everyday_rewards", "swappa_bottle"], "products": ["aa_smart_fuel", "ultimate_98", "ultimate_diesel", "unleaded_91"], "website": null, "watchlist_id": null, "formatted_address": "435 Innes Road\nChristchurch", "channel_of_trade": null}, {"id": "NZ-0DK47", "name": "BP 2go Maungatapu", "lat": -37.720782, "lng": 176.175181, "site_brand": "BP", "country_code": "NZ", "address": "195 Maungatapu Road", "city": "Tauranga", "state": "Maungatapu", "postcode": null, "telephone": "+64 7 544 0778", "facilities": ["open_saturday", "open_sunday", "tires_pump_up", "trailers", "workshop", "disabled_facilities", "toilet", "hungry_as", "mobile_enabled", "everyday_rewards", "swappa_bottle"], "products": ["aa_smart_fuel", "auto_gas", "lpg", "truck_diesel", "ultimate_98", "ultimate_diesel", "unleaded_91"], "website": null, "watchlist_id": null, "formatted_address": "195 Maungatapu Road\nTauranga", "channel_of_trade": null}, {"id": "NZ-0DK48", "name": "BP 2go Meadowbank", "lat": -36.876533, "lng": 174.825378, "site_brand": "BP", "country_code": "NZ", "address": "2 Meadowbank Road", "city": "Auckland", "state": "Remuera", "postcode": null, "telephone": "+64 9 524 4305", "facilities": ["open_saturday", "open_sunday", "tires_pump_up", "vacuum_cleaner", "trailers", "high_speed_pump", "disabled_facilities", "hungry_as", "mobile_enabled", "everyday_rewards", "swappa_bottle"], "products": ["aa_smart_fuel", "ultimate_98", "ultimate_diesel", "unleaded_91"], "website": null, "watchlist_id": null, "formatted_address": "2 Meadowbank Road\nAuckland", "channel_of_trade": null}, {"id": "NZ-0DK50", "name": "BP 2go Millward Motors", "lat": -39.66612, "lng": 176.877791, "site_brand": "BP", "country_code": "NZ", "address": "9 Karanema Drive", "city": "Havelock North", "state": "", "postcode": null, "telephone": "+64 6 877 7469", "facilities": ["open_saturday", "open_sunday", "tires_pump_up", "vacuum_cleaner", "trailers", "workshop", "disabled_facilities", "recycling", "toilet", "hungry_as", "mobile_enabled", "everyday_rewards", "swappa_bottle"], "products": ["aa_smart_fuel", "ad_blue", "lpg", "ultimate_diesel", "unleaded_91", "unleaded_95"], "website": null, "watchlist_id": null, "formatted_address": "9 Karanema Drive\nHavelock North", "channel_of_trade": null}, {"id": "NZ-0DK52", "name": "BP 2go Mornington", "lat": -45.881315, "lng": 170.480028, "site_brand": "BP", "country_code": "NZ", "address": "29-37 Mailer Street", "city": "Dunedin", "state": "Mornington", "postcode": null, "telephone": "+64 3 453 6039", "facilities": ["open_saturday", "open_sunday", "trailers", "workshop", "toilet", "hungry_as", "mobile_enabled", "everyday_rewards", "swappa_bottle"], "products": ["aa_smart_fuel", "auto_gas", "lpg", "ultimate_diesel", "unleaded_91", "unleaded_95"], "website": null, "watchlist_id": null, "formatted_address": "29-37 Mailer Street\nDunedin", "channel_of_trade": null}, {"id": "NZ-0DK53", "name": "BP 2go Morrinsville", "lat": -37.655821, "lng": 175.532153, "site_brand": "BP", "country_code": "NZ", "address": "283 Thames Street", "city": "Morrinsville", "state": "", "postcode": null, "telephone": "+64 7 889 6643", "facilities": ["open_saturday", "open_sunday", "tires_pump_up", "vacuum_cleaner", "trailers", "high_speed_pump", "truck_parking", "disabled_facilities", "toilet", "hungry_as", "mobile_enabled", "everyday_rewards", "swappa_bottle"], "products": ["aa_smart_fuel", "truck_diesel", "ultimate_diesel", "unleaded_91", "unleaded_95"], "website": null, "watchlist_id": null, "formatted_address": "283 Thames Street\nMorrinsville", "channel_of_trade": null}, {"id": "NZ-0DK54", "name": "BP 2go Moturoa", "lat": -39.063132, "lng": 174.04437, "site_brand": "BP", "country_code": "NZ", "address": "7-9 Breakwater Road", "city": "New Plymouth", "state": "Moturoa", "postcode": null, "telephone": "+64 6 751 0047", "facilities": ["open_saturday", "open_sunday", "tires_pump_up", "vacuum_cleaner", "trailers", "high_speed_pump", "disabled_facilities", "toilet", "wifi", "hungry_as", "mobile_enabled", "outdoor_payment_terminal", "everyday_rewards", "swappa_bottle"], "products": ["aa_smart_fuel", "ultimate_diesel", "unleaded_91", "unleaded_95"], "website": null, "watchlist_id": null, "formatted_address": "7-9 Breakwater Road\nNew Plymouth", "channel_of_trade": null}, {"id": "NZ-0DK55", "name": "BP 2go Mt Smart", "lat": -36.914716, "lng": 174.804301, "site_brand": "BP", "country_code": "NZ", "address": "267 Mt Smart Road", "city": "Auckland", "state": "Onehunga", "postcode": null, "telephone": "+64 9 579 4514", "facilities": ["open_saturday", "open_sunday", "tires_pump_up", "trailers", "high_speed_pump", "truck_parking", "disabled_facilities", "toilet", "wifi", "wild_bean_cafe", "mobile_enabled", "outdoor_payment_terminal", "everyday_rewards", "swappa_bottle"], "products": ["aa_smart_fuel", "ad_blue", "truck_diesel", "ultimate_diesel", "unleaded_91", "unleaded_95"], "website": null, "watchlist_id": null, "formatted_address": "267 Mt Smart Road\nAuckland", "channel_of_trade": null}, {"id": "NZ-0DK57", "name": "BP 2go New Lynn", "lat": -36.905161, "lng": 174.686761, "site_brand": "BP", "country_code": "NZ", "address": "3044-8 Great North Road", "city": "Auckland", "state": "New Lynn", "postcode": null, "telephone": "+64 9 827 2781", "facilities": ["open_24_hours", "open_saturday", "open_sunday", "tires_pump_up", "high_speed_pump", "truck_parking", "disabled_facilities", "toilet", "hungry_as", "mobile_enabled", "everyday_rewards", "swappa_bottle"], "products": ["aa_smart_fuel", "truck_diesel", "ultimate_98", "ultimate_diesel", "unleaded_91", "unleaded_95"], "website": null, "watchlist_id": null, "formatted_address": "3044-8 Great North Road\nAuckland", "channel_of_trade": null}, {"id": "NZ-0DK58", "name": "BP 2go Newlands", "lat": -41.229787, "lng": 174.817334, "site_brand": "BP", "country_code": "NZ", "address": "101 Newlands Road", "city": "Wellington", "state": "Newlands", "postcode": null, "telephone": "+64 4 461 6410", "facilities": ["open_saturday", "open_sunday", "tires_pump_up", "trailers", "disabled_facilities", "toilet", "hungry_as", "mobile_enabled", "everyday_rewards", "swappa_bottle"], "products": ["aa_smart_fuel", "ultimate_diesel", "unleaded_91", "unleaded_95"], "website": null, "watchlist_id": null, "formatted_address": "101 Newlands Road\nWellington", "channel_of_trade": null}, {"id": "NZ-0DK60", "name": "BP 2go Ninety Mile Motors", "lat": -35.047693, "lng": 173.256009, "site_brand": "BP", "country_code": "NZ", "address": "64 Main Road", "city": "Kaitaia", "state": "Awanui", "postcode": null, "telephone": "+64 9 406 7317", "facilities": ["open_saturday", "open_sunday", "tires_pump_up", "workshop", "high_speed_pump", "truck_parking", "disabled_facilities", "toilet", "hungry_as", "mobile_enabled", "everyday_rewards", "swappa_bottle"], "products": ["aa_smart_fuel", "truck_diesel", "ultimate_diesel", "unleaded_91", "unleaded_95"], "website": null, "watchlist_id": null, "formatted_address": "64 Main Road\nKaitaia", "channel_of_trade": null}, {"id": "NZ-0DK61", "name": "BP 2go North End", "lat": -40.216937, "lng": 175.583574, "site_brand": "BP", "country_code": "NZ", "address": "300 Kimbolton Road", "city": "Feilding", "state": "", "postcode": null, "telephone": "+64 6 323 6551", "facilities": ["open_saturday", "open_sunday", "tires_pump_up", "trailers", "disabled_facilities", "toilet", "wifi", "hungry_as", "mobile_enabled", "everyday_rewards"], "products": ["aa_smart_fuel", "auto_gas", "lpg", "ultimate_diesel", "unleaded_91", "unleaded_95"], "website": null, "watchlist_id": null, "formatted_address": "300 Kimbolton Road\nFeilding", "channel_of_trade": null}, {"id": "NZ-0DK62", "name": "BP 2go Waiheke", "lat": -36.784093, "lng": 175.010947, "site_brand": "BP", "country_code": "NZ", "address": "2-4 Tui Street", "city": "Waiheke Island", "state": "Oneroa", "postcode": null, "telephone": "+64 9 372 8876", "facilities": ["open_saturday", "open_sunday", "tires_pump_up", "trailers", "high_speed_pump", "disabled_facilities", "toilet", "mobile_enabled", "everyday_rewards"], "products": ["aa_smart_fuel", "lpg", "regular_diesel", "truck_diesel", "unleaded_91", "unleaded_95"], "website": null, "watchlist_id": null, "formatted_address": "2-4 Tui Street\nWaiheke Island", "channel_of_trade": null}, {"id": "NZ-0DK63", "name": "BP Pahiatua", "lat": -40.459346, "lng": 175.834886, "site_brand": "BP", "country_code": "NZ", "address": " Cnr Hall Street & Main Street", "city": "Pahiatua", "state": "", "postcode": null, "telephone": "+64 6 376 7488", "facilities": ["open_saturday", "open_sunday", "car_wash", "tires_pump_up", "vacuum_cleaner", "disabled_facilities", "toilet", "hungry_as", "mobile_enabled", "everyday_rewards"], "products": ["aa_smart_fuel", "ultimate_diesel", "unleaded_91", "unleaded_95"], "website": null, "watchlist_id": null, "formatted_address": " Cnr Hall Street & Main Street\nPahiatua", "channel_of_trade": null}, {"id": "NZ-0DK64", "name": "BP 2go Whakatane", "lat": -37.953701, "lng": 176.990688, "site_brand": "BP", "country_code": "NZ", "address": " Corner of Peace Street & McAlister Street", "city": "Whakatane", "state": "", "postcode": null, "telephone": "+64 7 308 6735", "facilities": ["open_saturday", "open_sunday", "tires_pump_up", "high_speed_pump", "cash_point", "disabled_facilities", "toilet", "hungry_as", "mobile_enabled", "everyday_rewards", "swappa_bottle"], "products": ["aa_smart_fuel", "truck_diesel", "ultimate_98", "ultimate_diesel", "unleaded_91"], "website": null, "watchlist_id": null, "formatted_address": " Corner of Peace Street & McAlister Street\nWhakatane", "channel_of_trade": null}, {"id": "NZ-0DK66", "name": "BP 2go Pioneer", "lat": -40.363072, "lng": 175.59529, "site_brand": "BP", "country_code": "NZ", "address": "705 Pioneer Highway", "city": "Palmerston North", "state": "Takaro", "postcode": null, "telephone": "+64 6 355 0355", "facilities": ["open_saturday", "open_sunday", "car_wash", "tires_pump_up", "vacuum_cleaner", "trailers", "high_speed_pump", "truck_parking", "disabled_facilities", "toilet", "motorway_site", "hungry_as", "mobile_enabled", "everyday_rewards", "swappa_bottle"], "products": ["aa_smart_fuel", "truck_diesel", "ultimate_98", "ultimate_diesel", "unleaded_91", "unleaded_95"], "website": null, "watchlist_id": null, "formatted_address": "705 Pioneer Highway\nPalmerston North", "channel_of_trade": null}, {"id": "NZ-0DK67", "name": "BP 2go Putaruru", "lat": -38.049312, "lng": 175.78066, "site_brand": "BP", "country_code": "NZ", "address": "35 Tirau Street", "city": "Putaruru", "state": "", "postcode": null, "telephone": "+64 7 883 8399", "facilities": ["open_24_hours", "open_saturday", "open_sunday", "tires_pump_up", "vacuum_cleaner", "trailers", "high_speed_pump", "cash_point", "disabled_facilities", "toilet", "hungry_as", "mobile_enabled", "everyday_rewards", "swappa_bottle"], "products": ["aa_smart_fuel", "ultimate_diesel", "unleaded_91", "unleaded_95"], "website": null, "watchlist_id": null, "formatted_address": "35 Tirau Street\nPutaruru", "channel_of_trade": null}, {"id": "NZ-0DK68", "name": "BP 2go Racecourse", "lat": -39.643836, "lng": 176.840387, "site_brand": "BP", "country_code": "NZ", "address": "305 Railway Road", "city": "Hastings", "state": "Saint Leonards", "postcode": null, "telephone": "+64 6 878 4742", "facilities": ["open_saturday", "open_sunday", "car_wash", "tires_pump_up", "trailers", "disabled_facilities", "toilet", "wifi", "hungry_as", "mobile_enabled", "everyday_rewards", "swappa_bottle"], "products": ["aa_smart_fuel", "ultimate_diesel", "unleaded_91", "unleaded_95"], "website": null, "watchlist_id": null, "formatted_address": "305 Railway Road\nHastings", "channel_of_trade": null}, {"id": "NZ-0DK69", "name": "BP 2go Redcliffs", "lat": -43.561366, "lng": 172.737938, "site_brand": "BP", "country_code": "NZ", "address": "170 Main Road", "city": "Christchurch", "state": "Redcliffs", "postcode": null, "telephone": "+64 3 384 7954", "facilities": ["open_saturday", "open_sunday", "car_wash", "tires_pump_up", "vacuum_cleaner", "trailers", "workshop", "cash_point", "disabled_facilities", "toilet", "wifi", "wild_bean_cafe", "mobile_enabled", "outdoor_payment_terminal", "everyday_rewards", "swappa_bottle"], "products": ["aa_smart_fuel", "ultimate_98", "ultimate_diesel", "unleaded_91", "unleaded_95"], "website": null, "watchlist_id": null, "formatted_address": "170 Main Road\nChristchurch", "channel_of_trade": null}, {"id": "NZ-0DK71", "name": "BP Connect Richmond", "lat": -41.342456, "lng": 173.187881, "site_brand": "BP", "country_code": "NZ", "address": "177 Queen Street", "city": "Nelson", "state": "Richmond", "postcode": null, "telephone": "+64 3 541 0459", "facilities": ["open_saturday", "open_sunday", "car_wash", "tires_pump_up", "vacuum_cleaner", "high_speed_pump", "cash_point", "disabled_facilities", "recycling", "toilet", "wifi", "wild_bean_cafe", "mobile_enabled", "everyday_rewards", "swappa_bottle"], "products": ["aa_smart_fuel", "electricity", "ultimate_98", "ultimate_diesel", "unleaded_91", "unleaded_95"], "website": null, "watchlist_id": null, "formatted_address": "177 Queen Street\nNelson", "channel_of_trade": null}, {"id": "NZ-0DK72", "name": "BP 2go Ridley Motors", "lat": -38.988734, "lng": 175.810752, "site_brand": "BP", "country_code": "NZ", "address": "11 Ohuanga Road", "city": "Turangi", "state": "", "postcode": null, "telephone": "+64 7 386 8603", "facilities": ["open_saturday", "open_sunday", "tires_pump_up", "trailers", "cash_point", "toilet", "wifi", "mobile_enabled", "outdoor_payment_terminal", "ruc", "everyday_rewards", "swappa_bottle"], "products": ["aa_smart_fuel", "ad_blue", "auto_gas", "lpg", "truck_diesel", "ultimate_diesel", "unleaded_91", "unleaded_95"], "website": null, "watchlist_id": null, "formatted_address": "11 Ohuanga Road\nTurangi", "channel_of_trade": null}, {"id": "NZ-0DK74", "name": "BP 2go Summit", "lat": -37.694812, "lng": 176.139545, "site_brand": "BP", "country_code": "NZ", "address": "200 Waihi Road", "city": "Tauranga", "state": "Judea", "postcode": null, "telephone": "+64 7 578 9162", "facilities": ["open_saturday", "open_sunday", "tires_pump_up", "high_speed_pump", "disabled_facilities", "toilet", "hungry_as", "mobile_enabled", "everyday_rewards", "swappa_bottle"], "products": ["aa_smart_fuel", "auto_gas", "lpg", "truck_diesel", "ultimate_98", "ultimate_diesel", "unleaded_91"], "website": null, "watchlist_id": null, "formatted_address": "200 Waihi Road\nTauranga", "channel_of_trade": null}, {"id": "NZ-0DK75", "name": "BP 2go Taumarunui", "lat": -38.883031, "lng": 175.25701, "site_brand": "BP", "country_code": "NZ", "address": "4 Hakiaha Street", "city": "Taumarunui", "state": "", "postcode": null, "telephone": "+64 7 895 7863", "facilities": ["open_24_hours", "open_saturday", "open_sunday", "car_wash", "tires_pump_up", "vacuum_cleaner", "trailers", "high_speed_pump", "truck_parking", "cash_point", "disabled_facilities", "toilet", "motorway_site", "hungry_as", "mobile_enabled", "everyday_rewards", "swappa_bottle"], "products": ["aa_smart_fuel", "ad_blue", "auto_gas", "lpg", "truck_diesel", "ultimate_98", "ultimate_diesel", "unleaded_91"], "website": null, "watchlist_id": null, "formatted_address": "4 Hakiaha Street\nTaumarunui", "channel_of_trade": null}, {"id": "NZ-0DK76", "name": "BP 2go Taupo Quay", "lat": -39.937888, "lng": 175.052674, "site_brand": "BP", "country_code": "NZ", "address": "75 Taupo Quay", "city": "Whanganui", "state": "Whanganui Central", "postcode": null, "telephone": "+64 6 348 4833", "facilities": ["open_saturday", "open_sunday", "car_wash", "tires_pump_up", "vacuum_cleaner", "trailers", "high_speed_pump", "disabled_facilities", "toilet", "wifi", "hungry_as", "mobile_enabled", "everyday_rewards", "swappa_bottle"], "products": ["aa_smart_fuel", "ad_blue", "truck_diesel", "ultimate_diesel", "unleaded_91", "unleaded_95"], "website": null, "watchlist_id": null, "formatted_address": "75 Taupo Quay\nWhanganui", "channel_of_trade": null}, {"id": "NZ-0DK77", "name": "BP 2go Te Kuiti", "lat": -38.33807, "lng": 175.166995, "site_brand": "BP", "country_code": "NZ", "address": " Cnr Carroll Street & Awakino Road", "city": "Te Kuiti", "state": "", "postcode": null, "telephone": "+64 7 878 8175", "facilities": ["open_24_hours", "open_saturday", "open_sunday", "car_wash", "tires_pump_up", "vacuum_cleaner", "trailers", "high_speed_pump", "truck_parking", "cash_point", "disabled_facilities", "toilet", "hungry_as", "mobile_enabled", "everyday_rewards", "swappa_bottle"], "products": ["aa_smart_fuel", "ad_blue", "truck_diesel", "ultimate_98", "ultimate_diesel", "unleaded_91", "unleaded_95"], "website": null, "watchlist_id": null, "formatted_address": " Cnr Carroll Street & Awakino Road\nTe Kuiti", "channel_of_trade": null}, {"id": "NZ-0DK78", "name": "BP 2go Te Puke", "lat": -37.785623, "lng": 176.329923, "site_brand": "BP", "country_code": "NZ", "address": "25 Jellicoe Street", "city": "Te Puke", "state": "", "postcode": null, "telephone": "+64 7 220 9963", "facilities": ["open_saturday", "open_sunday", "tires_pump_up", "vacuum_cleaner", "trailers", "workshop", "disabled_facilities", "toilet", "wifi", "hungry_as", "everyday_rewards", "swappa_bottle"], "products": ["aa_smart_fuel", "ultimate_98", "ultimate_diesel", "unleaded_91"], "website": null, "watchlist_id": null, "formatted_address": "25 Jellicoe Street\nTe Puke", "channel_of_trade": null}, {"id": "NZ-0DK82", "name": "BP Connect Waihi", "lat": -37.393193, "lng": 175.841981, "site_brand": "BP", "country_code": "NZ", "address": "1 Johnston Street", "city": "Waihi", "state": "", "postcode": null, "telephone": "+64 7 863 7029", "facilities": ["open_24_hours", "open_saturday", "open_sunday", "car_wash", "tires_pump_up", "vacuum_cleaner", "high_speed_pump", "cash_point", "disabled_facilities", "recycling", "toilet", "wifi", "wild_bean_cafe", "good_mood_food", "mobile_enabled", "everyday_rewards", "swappa_bottle"], "products": ["aa_smart_fuel", "truck_diesel", "ultimate_98", "ultimate_diesel", "unleaded_91"], "website": null, "watchlist_id": null, "formatted_address": "1 Johnston Street\nWaihi", "channel_of_trade": null}, {"id": "NZ-0DK84", "name": "BP 2go Waitara", "lat": -39.002558, "lng": 174.234318, "site_brand": "BP", "country_code": "NZ", "address": "66 Cnr McLean Street & Browne Street", "city": "Waitara", "state": "", "postcode": null, "telephone": "+64 6 754 7718", "facilities": ["open_saturday", "open_sunday", "tires_pump_up", "high_speed_pump", "cash_point", "disabled_facilities", "recycling", "toilet", "wifi", "hungry_as", "mobile_enabled", "everyday_rewards", "swappa_bottle"], "products": ["aa_smart_fuel", "truck_diesel", "ultimate_98", "ultimate_diesel", "unleaded_91"], "website": null, "watchlist_id": null, "formatted_address": "66 Cnr McLean Street & Browne Street\nWaitara", "channel_of_trade": null}, {"id": "NZ-0DK86", "name": "BP Connect Levin", "lat": -40.629607, "lng": 175.278789, "site_brand": "BP", "country_code": "NZ", "address": "59 Oxford Street", "city": "Levin", "state": "Horowhenua", "postcode": null, "telephone": "+64 6 367 6528", "facilities": ["open_24_hours", "open_saturday", "open_sunday", "car_wash", "tires_pump_up", "vacuum_cleaner", "cash_point", "disabled_facilities", "recycling", "toilet", "wifi", "wild_bean_cafe", "good_mood_food", "mobile_enabled", "everyday_rewards", "swappa_bottle"], "products": ["aa_smart_fuel", "electricity", "truck_diesel", "ultimate_diesel", "unleaded_91", "unleaded_95"], "website": null, "watchlist_id": null, "formatted_address": "59 Oxford Street\nLevin", "channel_of_trade": null}, {"id": "NZ-0DK87", "name": "BP 2go Whakapara", "lat": -35.546898, "lng": 174.277716, "site_brand": "BP", "country_code": "NZ", "address": "1609 State Highway 1", "city": "Whakapara", "state": "", "postcode": null, "telephone": "+64 9 433 9761", "facilities": ["open_saturday", "open_sunday", "tires_pump_up", "vacuum_cleaner", "high_speed_pump", "truck_parking", "disabled_facilities", "toilet", "wifi", "hungry_as", "mobile_enabled", "outdoor_payment_terminal", "everyday_rewards", "swappa_bottle"], "products": ["aa_smart_fuel", "truck_diesel", "ultimate_diesel", "unleaded_91", "unleaded_95"], "website": null, "watchlist_id": null, "formatted_address": "1609 State Highway 1\nWhakapara", "channel_of_trade": null}, {"id": "NZ-0DK88", "name": "BP 2go Whitford", "lat": -36.945517, "lng": 174.964733, "site_brand": "BP", "country_code": "NZ", "address": "8 Maraetai Road", "city": "Auckland", "state": "Whitford", "postcode": null, "telephone": "+64 9 530 8518", "facilities": ["open_saturday", "open_sunday", "tires_pump_up", "trailers", "truck_parking", "disabled_facilities", "mobile_enabled", "everyday_rewards", "swappa_bottle"], "products": ["aa_smart_fuel", "truck_diesel", "ultimate_98", "ultimate_diesel", "unleaded_91"], "website": null, "watchlist_id": null, "formatted_address": "8 Maraetai Road\nAuckland", "channel_of_trade": null}, {"id": "NZ-0DK90", "name": "BP 2go Papanui", "lat": -43.499453, "lng": 172.609868, "site_brand": "BP", "country_code": "NZ", "address": "461 Papanui Road", "city": "Christchurch", "state": "Papanui", "postcode": null, "telephone": "+64 3 352 4035", "facilities": ["open_saturday", "open_sunday", "car_wash", "tires_pump_up", "vacuum_cleaner", "trailers", "high_speed_pump", "cash_point", "disabled_facilities", "toilet", "hungry_as", "mobile_enabled", "everyday_rewards", "swappa_bottle"], "products": ["aa_smart_fuel", "ad_blue", "truck_diesel", "ultimate_98", "ultimate_diesel", "unleaded_91"], "website": null, "watchlist_id": null, "formatted_address": "461 Papanui Road\nChristchurch", "channel_of_trade": null}, {"id": "NZ-0DK93", "name": "Coromandel Service Station", "lat": -36.760644, "lng": 175.497405, "site_brand": "BP", "country_code": "NZ", "address": "50 Tiki Road", "city": "Coromandel", "state": "", "postcode": null, "telephone": "+64 7 866 8059", "facilities": ["open_saturday", "open_sunday", "tires_pump_up", "vacuum_cleaner", "workshop", "high_speed_pump", "cash_point", "disabled_facilities", "recycling", "toilet", "mobile_enabled", "everyday_rewards", "swappa_bottle"], "products": ["aa_smart_fuel", "truck_diesel", "ultimate_diesel", "unleaded_91", "unleaded_95"], "website": null, "watchlist_id": null, "formatted_address": "50 Tiki Road\nCoromandel", "channel_of_trade": null}, {"id": "NZ-0DK95", "name": "BP 2go Dargaville", "lat": -35.940093, "lng": 173.871576, "site_brand": "BP", "country_code": "NZ", "address": "123 Victoria Street", "city": "Dargaville", "state": "", "postcode": null, "telephone": "+64 9 439 7259", "facilities": ["open_saturday", "open_sunday", "tires_pump_up", "trailers", "high_speed_pump", "truck_parking", "disabled_facilities", "toilet", "wifi", "hungry_as", "mobile_enabled", "everyday_rewards", "swappa_bottle"], "products": ["aa_smart_fuel", "truck_diesel", "ultimate_diesel", "unleaded_91", "unleaded_95"], "website": null, "watchlist_id": null, "formatted_address": "123 Victoria Street\nDargaville", "channel_of_trade": null}, {"id": "NZ-0DL05", "name": "BP Hutt Road Truckstop", "lat": -41.232348, "lng": 174.837467, "site_brand": "BP", "country_code": "NZ", "address": "605 State Highway 2 Hutt Expressway", "city": "Wellington", "state": "", "postcode": null, "telephone": "0800800027", "facilities": ["open_24_hours", "open_saturday", "open_sunday", "tires_pump_up", "vacuum_cleaner", "high_speed_pump", "disabled_facilities", "mobile_enabled", "outdoor_payment_terminal", "truck_only"], "products": ["ad_blue", "truck_diesel", "ultimate_diesel", "unleaded_91", "unleaded_95"], "website": null, "watchlist_id": null, "formatted_address": "605 State Highway 2 Hutt Expressway\nWellington", "channel_of_trade": null}, {"id": "NZ-0DL06", "name": "BP 2go Karori", "lat": -41.284938, "lng": 174.736307, "site_brand": "BP", "country_code": "NZ", "address": "276-280 Karori Road", "city": "Wellington", "state": "Karori", "postcode": null, "telephone": "+64 4 476 5826", "facilities": ["open_saturday", "open_sunday", "tires_pump_up", "trailers", "workshop", "disabled_facilities", "mobile_enabled", "everyday_rewards", "swappa_bottle"], "products": ["aa_smart_fuel", "ultimate_diesel", "unleaded_91", "unleaded_95"], "website": null, "watchlist_id": null, "formatted_address": "276-280 Karori Road\nWellington", "channel_of_trade": null}, {"id": "NZ-0DL07", "name": "BP 2go Katikati", "lat": -37.552463, "lng": 175.917957, "site_brand": "BP", "country_code": "NZ", "address": "11 Main Road", "city": "Katikati", "state": "", "postcode": null, "telephone": "+64 7 549 0671", "facilities": ["open_saturday", "open_sunday", "tires_pump_up", "disabled_facilities", "recycling", "toilet", "hungry_as", "mobile_enabled", "everyday_rewards", "swappa_bottle"], "products": ["aa_smart_fuel", "ultimate_diesel", "unleaded_91", "unleaded_95"], "website": null, "watchlist_id": null, "formatted_address": "11 Main Road\nKatikati", "channel_of_trade": null}, {"id": "NZ-0DL08", "name": "BP 2go Kerikeri", "lat": -35.230904, "lng": 173.946287, "site_brand": "BP", "country_code": "NZ", "address": "305 Kerikeri Road", "city": "Kerikeri", "state": "", "postcode": null, "telephone": "+64 9 407 8156", "facilities": ["open_saturday", "open_sunday", "car_wash", "tires_pump_up", "vacuum_cleaner", "high_speed_pump", "disabled_facilities", "toilet", "mobile_enabled", "outdoor_payment_terminal", "everyday_rewards", "swappa_bottle"], "products": ["aa_smart_fuel", "auto_gas", "lpg", "ultimate_diesel", "unleaded_91", "unleaded_95"], "website": null, "watchlist_id": null, "formatted_address": "305 Kerikeri Road\nKerikeri", "channel_of_trade": null}, {"id": "NZ-0DL09", "name": "BP Connect Marshlands", "lat": -43.474691, "lng": 172.659854, "site_brand": "BP", "country_code": "NZ", "address": "432 Marshland Road", "city": "Christchurch", "state": "Marshland", "postcode": null, "telephone": "+64 3 385 4237", "facilities": ["open_24_hours", "open_saturday", "open_sunday", "car_wash", "jet_wash", "tires_pump_up", "vacuum_cleaner", "disabled_facilities", "recycling", "toilet", "wifi", "wild_bean_cafe", "good_mood_food", "ubereats", "mobile_enabled", "everyday_rewards", "swappa_bottle"], "products": ["aa_smart_fuel", "electricity", "ultimate_98", "ultimate_diesel", "unleaded_91"], "website": null, "watchlist_id": null, "formatted_address": "432 Marshland Road\nChristchurch", "channel_of_trade": null}, {"id": "NZ-0DL11", "name": "BP 2go Moerewa", "lat": -35.387992, "lng": 174.013017, "site_brand": "BP", "country_code": "NZ", "address": "50 Main Road", "city": "Moerewa", "state": "", "postcode": null, "telephone": "+64 9 404 0076", "facilities": ["open_saturday", "open_sunday", "jet_wash", "tires_pump_up", "vacuum_cleaner", "high_speed_pump", "truck_parking", "cash_point", "disabled_facilities", "recycling", "toilet", "motorway_site", "hungry_as", "mobile_enabled", "ruc", "everyday_rewards", "swappa_bottle"], "products": ["aa_smart_fuel", "truck_diesel", "ultimate_diesel", "unleaded_91", "unleaded_95"], "website": null, "watchlist_id": null, "formatted_address": "50 Main Road\nMoerewa", "channel_of_trade": null}, {"id": "NZ-0DL12", "name": "BP Mt Roskill", "lat": -36.914138, "lng": 174.75443, "site_brand": "BP", "country_code": "NZ", "address": " Cnr Hayr Raod & Carr Road", "city": "Auckland", "state": "Mt Roskill", "postcode": null, "telephone": "+64 9 625 6249", "facilities": ["open_saturday", "open_sunday", "tires_pump_up", "vacuum_cleaner", "trailers", "workshop", "disabled_facilities", "toilet", "mobile_enabled", "everyday_rewards", "swappa_bottle"], "products": ["aa_smart_fuel", "ultimate_diesel", "unleaded_91", "unleaded_95"], "website": null, "watchlist_id": null, "formatted_address": " Cnr Hayr Raod & Carr Road\nAuckland", "channel_of_trade": null}, {"id": "NZ-0DL14", "name": "BP 2go North Road", "lat": -46.387248, "lng": 168.347076, "site_brand": "BP", "country_code": "NZ", "address": "52 North Road", "city": "Invercargill", "state": "Prestonville", "postcode": null, "telephone": "+64 3 215 6119", "facilities": ["open_saturday", "open_sunday", "tires_pump_up", "workshop", "high_speed_pump", "disabled_facilities", "recycling", "toilet", "hungry_as", "mobile_enabled", "everyday_rewards", "swappa_bottle"], "products": ["aa_smart_fuel", "truck_diesel", "ultimate_diesel", "unleaded_91", "unleaded_95"], "website": null, "watchlist_id": null, "formatted_address": "52 North Road\nInvercargill", "channel_of_trade": null}, {"id": "NZ-0DL20", "name": "BP 2go Pongakawa", "lat": -37.822176, "lng": 176.489327, "site_brand": "BP", "country_code": "NZ", "address": "1646 State Highway 2", "city": "Te Puke", "state": "Pongakawa", "postcode": null, "telephone": "+64 7 533 4155", "facilities": ["open_saturday", "open_sunday", "tires_pump_up", "workshop", "high_speed_pump", "truck_parking", "cash_point", "disabled_facilities", "toilet", "hungry_as", "mobile_enabled", "outdoor_payment_terminal", "everyday_rewards", "swappa_bottle"], "products": ["aa_smart_fuel", "regular_diesel", "truck_diesel", "ultimate_98", "ultimate_diesel", "unleaded_91"], "website": null, "watchlist_id": null, "formatted_address": "1646 State Highway 2\nTe Puke", "channel_of_trade": null}, {"id": "NZ-0DL21", "name": "BP Connect Powderham", "lat": -39.059512, "lng": 174.072273, "site_brand": "BP", "country_code": "NZ", "address": "71 Powderham Street", "city": "New Plymouth", "state": "", "postcode": null, "telephone": "+64 6 758 4171", "facilities": ["open_saturday", "open_sunday", "car_wash", "tires_pump_up", "vacuum_cleaner", "disabled_facilities", "toilet", "wifi", "wild_bean_cafe", "mobile_enabled", "everyday_rewards", "swappa_bottle"], "products": ["aa_smart_fuel", "ultimate_98", "ultimate_diesel", "unleaded_91"], "website": null, "watchlist_id": null, "formatted_address": "71 Powderham Street\nNew Plymouth", "channel_of_trade": null}, {"id": "NZ-0DL24", "name": "BP 2go Sockburn", "lat": -43.543089, "lng": 172.546149, "site_brand": "BP", "country_code": "NZ", "address": "222 Main South Road", "city": "Christchurch", "state": "Hornby", "postcode": null, "telephone": "+64 3 341 0109", "facilities": ["open_saturday", "open_sunday", "tires_pump_up", "trailers", "truck_parking", "recycling", "toilet", "wifi", "motorway_site", "hungry_as", "mobile_enabled", "everyday_rewards", "swappa_bottle"], "products": ["aa_smart_fuel", "ad_blue", "truck_diesel", "ultimate_98", "ultimate_diesel", "unleaded_91"], "website": null, "watchlist_id": null, "formatted_address": "222 Main South Road\nChristchurch", "channel_of_trade": null}, {"id": "NZ-0DL27", "name": "BP 2go Taita", "lat": -41.178955, "lng": 174.961237, "site_brand": "BP", "country_code": "NZ", "address": "1217 High Street", "city": "Wellington", "state": "Taita", "postcode": null, "telephone": "+64 4 567 8037", "facilities": ["open_saturday", "tires_pump_up", "trailers", "workshop", "disabled_facilities", "toilet", "hungry_as", "mobile_enabled", "everyday_rewards", "swappa_bottle"], "products": ["aa_smart_fuel", "truck_diesel", "ultimate_diesel", "unleaded_91", "unleaded_95"], "website": null, "watchlist_id": null, "formatted_address": "1217 High Street\nWellington", "channel_of_trade": null}, {"id": "NZ-0DL32", "name": "BP 2go Waipawa", "lat": -39.944706, "lng": 176.587007, "site_brand": "BP", "country_code": "NZ", "address": "1 High Street", "city": "Waipawa", "state": "", "postcode": null, "telephone": "+64 6 857 8034", "facilities": ["open_24_hours", "open_saturday", "open_sunday", "tires_pump_up", "trailers", "workshop", "high_speed_pump", "disabled_facilities", "toilet", "wifi", "hungry_as", "mobile_enabled", "outdoor_payment_terminal", "everyday_rewards"], "products": ["aa_smart_fuel", "auto_gas", "lpg", "truck_diesel", "ultimate_diesel", "unleaded_91", "unleaded_95"], "website": null, "watchlist_id": null, "formatted_address": "1 High Street\nWaipawa", "channel_of_trade": null}, {"id": "NZ-0DL35", "name": "BP 2go Westburn", "lat": -43.515785, "lng": 172.572164, "site_brand": "BP", "country_code": "NZ", "address": "196 Waimairi Road", "city": "Christchurch", "state": "Ilam", "postcode": null, "telephone": "+64 3 358 3371", "facilities": ["open_saturday", "open_sunday", "tires_pump_up", "vacuum_cleaner", "trailers", "workshop", "high_speed_pump", "disabled_facilities", "toilet", "hungry_as", "mobile_enabled", "everyday_rewards", "swappa_bottle"], "products": ["aa_smart_fuel", "ultimate_diesel", "unleaded_91", "unleaded_95"], "website": null, "watchlist_id": null, "formatted_address": "196 Waimairi Road\nChristchurch", "channel_of_trade": null}, {"id": "NZ-0DL36", "name": "BP 2go Westport", "lat": -41.751318, "lng": 171.597994, "site_brand": "BP", "country_code": "NZ", "address": "75 Palmerston Street", "city": "Westport", "state": "", "postcode": null, "telephone": "+64 3 789 7379", "facilities": ["open_saturday", "open_sunday", "tires_pump_up", "trailers", "high_speed_pump", "disabled_facilities", "toilet", "hungry_as", "mobile_enabled", "everyday_rewards", "swappa_bottle"], "products": ["aa_smart_fuel", "lpg", "truck_diesel", "ultimate_diesel", "unleaded_91", "unleaded_95"], "website": null, "watchlist_id": null, "formatted_address": "75 Palmerston Street\nWestport", "channel_of_trade": null}, {"id": "NZ-0DL43", "name": "BP 2go Tauhara", "lat": -38.684295, "lng": 176.106487, "site_brand": "BP", "country_code": "NZ", "address": "235 Tauhara Road", "city": "Taupo", "state": "Tauhara", "postcode": null, "telephone": "+64 7 377 4044", "facilities": ["open_saturday", "open_sunday", "tires_pump_up", "vacuum_cleaner", "high_speed_pump", "disabled_facilities", "toilet", "mobile_enabled", "everyday_rewards", "swappa_bottle"], "products": ["aa_smart_fuel", "auto_gas", "lpg", "truck_diesel", "ultimate_98", "ultimate_diesel", "unleaded_91"], "website": null, "watchlist_id": null, "formatted_address": "235 Tauhara Road\nTaupo", "channel_of_trade": null}, {"id": "NZ-0DL57", "name": "Heydon Priest", "lat": -39.116631, "lng": 173.956828, "site_brand": "BP", "country_code": "NZ", "address": "1145 Main South Road", "city": "Oakura", "state": "", "postcode": null, "telephone": "+64 6 752 7753", "facilities": ["open_saturday", "open_sunday", "tires_pump_up", "trailers", "workshop", "disabled_facilities", "toilet", "wifi", "motorway_site", "everyday_rewards"], "products": ["aa_smart_fuel", "auto_gas", "lpg", "truck_diesel", "ultimate_diesel", "unleaded_91", "unleaded_95"], "website": null, "watchlist_id": null, "formatted_address": "1145 Main South Road\nOakura", "channel_of_trade": null}, {"id": "NZ-0DL58", "name": "BP 2go Oamaru", "lat": -45.093588, "lng": 170.972728, "site_brand": "BP", "country_code": "NZ", "address": "214 Thames Street", "city": "Oamaru", "state": "", "postcode": null, "telephone": "+64 3 434 8798", "facilities": ["open_saturday", "open_sunday", "tires_pump_up", "high_speed_pump", "disabled_facilities", "toilet", "wifi", "motorway_site", "hungry_as", "mobile_enabled", "everyday_rewards", "swappa_bottle"], "products": ["aa_smart_fuel", "truck_diesel", "ultimate_diesel", "unleaded_91", "unleaded_95"], "website": null, "watchlist_id": null, "formatted_address": "214 Thames Street\nOamaru", "channel_of_trade": null}, {"id": "NZ-0DL59", "name": "BP 2go Hunterville", "lat": -39.935998, "lng": 175.569238, "site_brand": "BP", "country_code": "NZ", "address": "74 Main North Road", "city": "Hunterville", "state": "", "postcode": null, "telephone": "+64 6 322 8360", "facilities": ["open_saturday", "open_sunday", "tires_pump_up", "workshop", "high_speed_pump", "truck_parking", "disabled_facilities", "toilet", "wifi", "hungry_as", "mobile_enabled", "outdoor_payment_terminal", "everyday_rewards", "swappa_bottle"], "products": ["aa_smart_fuel", "ad_blue", "regular_diesel", "truck_diesel", "unleaded_91", "unleaded_95"], "website": null, "watchlist_id": null, "formatted_address": "74 Main North Road\nHunterville", "channel_of_trade": null}, {"id": "NZ-0DL60", "name": "BP 2go Kaeo", "lat": -35.100122, "lng": 173.778732, "site_brand": "BP", "country_code": "NZ", "address": "4171 Leigh Street", "city": "Kaeo", "state": "", "postcode": null, "telephone": "+64 9 405 0166", "facilities": ["open_saturday", "open_sunday", "tires_pump_up", "high_speed_pump", "cash_point", "disabled_facilities", "outdoor_payment_terminal", "everyday_rewards", "swappa_bottle"], "products": ["aa_smart_fuel", "auto_gas", "lpg", "truck_diesel", "ultimate_diesel", "unleaded_91", "unleaded_95"], "website": null, "watchlist_id": null, "formatted_address": "4171 Leigh Street\nKaeo", "channel_of_trade": null}, {"id": "NZ-0DL63", "name": "BP 2go Martinborough", "lat": -41.217123, "lng": 175.457929, "site_brand": "BP", "country_code": "NZ", "address": "13-17 Kitchener Street", "city": "Martinborough", "state": "", "postcode": null, "telephone": "+64 6 306 9104", "facilities": ["open_saturday", "open_sunday", "tires_pump_up", "trailers", "workshop", "high_speed_pump", "mobile_enabled", "outdoor_payment_terminal", "ruc", "everyday_rewards", "swappa_bottle"], "products": ["aa_smart_fuel", "auto_gas", "lpg", "truck_diesel", "ultimate_98", "ultimate_diesel", "unleaded_91"], "website": null, "watchlist_id": null, "formatted_address": "13-17 Kitchener Street\nMartinborough", "channel_of_trade": null}, {"id": "NZ-0DL65", "name": "BP 2go Ohakune", "lat": -39.418833, "lng": 175.399682, "site_brand": "BP", "country_code": "NZ", "address": "74 Clyde Street", "city": "Ohakune", "state": "", "postcode": null, "telephone": "+64 6 385 9104", "facilities": ["open_saturday", "open_sunday", "tires_pump_up", "trailers", "workshop", "disabled_facilities", "toilet", "motorway_site", "mobile_enabled", "everyday_rewards", "swappa_bottle"], "products": ["aa_smart_fuel", "ad_blue", "lpg", "truck_diesel", "ultimate_diesel", "unleaded_91", "unleaded_95"], "website": null, "watchlist_id": null, "formatted_address": "74 Clyde Street\nOhakune", "channel_of_trade": null}, {"id": "NZ-0DL71", "name": "BP 2go Target Road", "lat": -36.761788, "lng": 174.724759, "site_brand": "BP", "country_code": "NZ", "address": "8 Target Road", "city": "Auckland", "state": "Glenfield", "postcode": null, "telephone": "+64 9 444 8856", "facilities": ["open_saturday", "open_sunday", "tires_pump_up", "trailers", "disabled_facilities", "recycling", "toilet", "wifi", "mobile_enabled", "everyday_rewards", "swappa_bottle"], "products": ["aa_smart_fuel", "ultimate_diesel", "unleaded_91", "unleaded_95"], "website": null, "watchlist_id": null, "formatted_address": "8 Target Road\nAuckland", "channel_of_trade": null}, {"id": "NZ-0DL74", "name": "BP 2go Sawyers Arms", "lat": -43.481219, "lng": 172.592782, "site_brand": "BP", "country_code": "NZ", "address": "260 Sawyers Arms Road", "city": "Christchurch", "state": "Bishopdale", "postcode": null, "telephone": "+64 3 359 9315", "facilities": ["open_saturday", "open_sunday", "tires_pump_up", "trailers", "workshop", "high_speed_pump", "truck_parking", "cash_point", "disabled_facilities", "toilet", "hungry_as", "mobile_enabled", "outdoor_payment_terminal", "everyday_rewards", "swappa_bottle"], "products": ["aa_smart_fuel", "truck_diesel", "ultimate_diesel", "unleaded_91", "unleaded_95"], "website": null, "watchlist_id": null, "formatted_address": "260 Sawyers Arms Road\nChristchurch", "channel_of_trade": null}, {"id": "NZ-0DL79", "name": "BP 2go Thames", "lat": -37.147974, "lng": 175.549561, "site_brand": "BP", "country_code": "NZ", "address": "100 Banks Street", "city": "Thames", "state": "", "postcode": null, "telephone": "+64 7 868 6285", "facilities": ["open_saturday", "open_sunday", "tires_pump_up", "trailers", "workshop", "high_speed_pump", "truck_parking", "disabled_facilities", "recycling", "toilet", "hungry_as", "mobile_enabled", "outdoor_payment_terminal", "everyday_rewards"], "products": ["aa_smart_fuel", "auto_gas", "lpg", "truck_diesel", "ultimate_diesel", "unleaded_91", "unleaded_95"], "website": null, "watchlist_id": null, "formatted_address": "100 Banks Street\nThames", "channel_of_trade": null}, {"id": "NZ-0DL80", "name": "BP 2go Motor Centre", "lat": -36.793296, "lng": 174.746738, "site_brand": "BP", "country_code": "NZ", "address": "50 Northcote Road", "city": "Auckland", "state": "Northcote", "postcode": null, "telephone": "+64 9 418 0371", "facilities": ["open_saturday", "open_sunday", "tires_pump_up", "trailers", "disabled_facilities", "toilet", "wild_bean_cafe", "mobile_enabled", "everyday_rewards", "swappa_bottle"], "products": ["aa_smart_fuel", "lpg", "truck_diesel", "ultimate_diesel", "unleaded_91", "unleaded_95"], "website": null, "watchlist_id": null, "formatted_address": "50 Northcote Road\nAuckland", "channel_of_trade": null}, {"id": "NZ-0DL81", "name": "BP 2go Masterton", "lat": -40.952012, "lng": 175.656189, "site_brand": "BP", "country_code": "NZ", "address": "127 Chapel Street", "city": "Masterton", "state": "", "postcode": null, "telephone": "+64 6 370 4317", "facilities": ["open_saturday", "open_sunday", "car_wash", "jet_wash", "tires_pump_up", "vacuum_cleaner", "trailers", "disabled_facilities", "toilet", "mobile_enabled", "everyday_rewards"], "products": ["aa_smart_fuel", "ad_blue", "auto_gas", "lpg", "ultimate_98", "ultimate_diesel", "unleaded_91"], "website": null, "watchlist_id": null, "formatted_address": "127 Chapel Street\nMasterton", "channel_of_trade": null}, {"id": "NZ-0DL85", "name": "BP 2go West Melton", "lat": -43.523813, "lng": 172.369563, "site_brand": "BP", "country_code": "NZ", "address": "1146 West Coast Road", "city": "Christchurch", "state": "West Melton", "postcode": null, "telephone": "+64 3 347 8305", "facilities": ["open_saturday", "open_sunday", "tires_pump_up", "workshop", "cash_point", "disabled_facilities", "toilet", "motorway_site", "hungry_as", "mobile_enabled", "everyday_rewards", "swappa_bottle"], "products": ["aa_smart_fuel", "ultimate_diesel", "unleaded_91", "unleaded_95"], "website": null, "watchlist_id": null, "formatted_address": "1146 West Coast Road\nChristchurch", "channel_of_trade": null}, {"id": "NZ-0DL90", "name": "BP Connect Rosedale", "lat": -36.735339, "lng": 174.726531, "site_brand": "BP", "country_code": "NZ", "address": " Cnr Rosedale Drive & Apollo Drive", "city": "Auckland", "state": "Albany", "postcode": null, "telephone": "+64 9 476 1390", "facilities": ["open_24_hours", "open_saturday", "open_sunday", "car_wash", "tires_pump_up", "vacuum_cleaner", "cash_point", "disabled_facilities", "recycling", "toilet", "wifi", "wild_bean_cafe", "good_mood_food", "ubereats", "mobile_enabled", "everyday_rewards", "swappa_bottle"], "products": ["aa_smart_fuel", "electricity", "ultimate_98", "ultimate_diesel", "unleaded_91", "unleaded_95"], "website": null, "watchlist_id": null, "formatted_address": " Cnr Rosedale Drive & Apollo Drive\nAuckland", "channel_of_trade": null}, {"id": "NZ-0DL91", "name": "BP 2go Hokitika", "lat": -42.717637, "lng": 170.965835, "site_brand": "BP", "country_code": "NZ", "address": "51 Fitzherbert Street", "city": "Hokitika", "state": "", "postcode": null, "telephone": "+64 3 756 8120", "facilities": ["open_saturday", "open_sunday", "tires_pump_up", "vacuum_cleaner", "trailers", "high_speed_pump", "disabled_facilities", "toilet", "motorway_site", "hungry_as", "mobile_enabled", "outdoor_payment_terminal", "everyday_rewards", "swappa_bottle"], "products": ["aa_smart_fuel", "ad_blue", "truck_diesel", "ultimate_diesel", "unleaded_91", "unleaded_95"], "website": null, "watchlist_id": null, "formatted_address": "51 Fitzherbert Street\nHokitika", "channel_of_trade": null}, {"id": "NZ-0DL95", "name": "BP 2go Opaheke", "lat": -37.072601, "lng": 174.942716, "site_brand": "BP", "country_code": "NZ", "address": "373 Great South Road", "city": "Auckland", "state": "Opaheke", "postcode": null, "telephone": "+64 9 297 7069", "facilities": ["open_24_hours", "open_saturday", "open_sunday", "tires_pump_up", "trailers", "high_speed_pump", "cash_point", "toilet", "hungry_as", "everyday_rewards", "swappa_bottle"], "products": ["aa_smart_fuel", "truck_diesel", "ultimate_diesel", "unleaded_91", "unleaded_95"], "website": null, "watchlist_id": null, "formatted_address": "373 Great South Road\nAuckland", "channel_of_trade": null}, {"id": "NZ-0DL96", "name": "BP Brooklyn", "lat": -41.306688, "lng": 174.763255, "site_brand": "BP", "country_code": "NZ", "address": "217-219 Ohiro Road", "city": "Wellington", "state": "Brooklyn", "postcode": null, "telephone": "+64 4 381 0956", "facilities": ["open_saturday", "open_sunday", "tires_pump_up", "vacuum_cleaner", "disabled_facilities", "toilet", "everyday_rewards"], "products": ["aa_smart_fuel", "ultimate_diesel", "unleaded_91", "unleaded_95"], "website": null, "watchlist_id": null, "formatted_address": "217-219 Ohiro Road\nWellington", "channel_of_trade": null}, {"id": "NZ-0DL97", "name": "BP 2go Horotiu", "lat": -37.711295, "lng": 175.210079, "site_brand": "BP", "country_code": "NZ", "address": "21 Hutchinson Road", "city": "Waikato", "state": "Horotiu", "postcode": null, "telephone": "+64 7 829 9387", "facilities": ["open_saturday", "open_sunday", "car_wash", "tires_pump_up", "vacuum_cleaner", "trailers", "high_speed_pump", "cash_point", "disabled_facilities", "toilet", "wifi", "motorway_site", "hungry_as", "mobile_enabled", "everyday_rewards", "swappa_bottle"], "products": ["aa_smart_fuel", "truck_diesel", "ultimate_98", "ultimate_diesel", "unleaded_91", "unleaded_95"], "website": null, "watchlist_id": null, "formatted_address": "21 Hutchinson Road\nWaikato", "channel_of_trade": null}, {"id": "NZ-0DL98", "name": "BP 2go Ascot", "lat": -46.405931, "lng": 168.392856, "site_brand": "BP", "country_code": "NZ", "address": "710 Tay Street", "city": "Invercargill", "state": "Hawthorndale", "postcode": null, "telephone": "+64 3 217 3339", "facilities": ["open_24_hours", "open_saturday", "open_sunday", "tires_pump_up", "vacuum_cleaner", "high_speed_pump", "disabled_facilities", "toilet", "motorway_site", "hungry_as", "mobile_enabled", "everyday_rewards", "swappa_bottle"], "products": ["aa_smart_fuel", "regular_diesel", "truck_diesel", "unleaded_91", "unleaded_95"], "website": null, "watchlist_id": null, "formatted_address": "710 Tay Street\nInvercargill", "channel_of_trade": null}, {"id": "NZ-0DL99", "name": "BP Motueka", "lat": -41.1236093, "lng": 173.010251, "site_brand": "BP", "country_code": "NZ", "address": "398 High Street", "city": "Motueka", "state": "", "postcode": null, "telephone": "+64 3 528 0340", "facilities": ["open_saturday", "open_sunday", "tires_pump_up", "trailers", "high_speed_pump", "disabled_facilities", "toilet", "mobile_enabled", "everyday_rewards", "swappa_bottle"], "products": ["aa_smart_fuel", "truck_diesel", "ultimate_diesel", "unleaded_91", "unleaded_95"], "website": null, "watchlist_id": null, "formatted_address": "398 High Street\nMotueka", "channel_of_trade": null}, {"id": "NZ-0DL9A", "name": "BP Cromwell Truckstop", "lat": -45.036131, "lng": 169.194008, "site_brand": "BP", "country_code": "NZ", "address": " Cnr Iles Drive & Sargood Drive", "city": "Cromwell", "state": "", "postcode": null, "telephone": "+64 3 445 4441", "facilities": ["open_24_hours", "open_saturday", "open_sunday", "high_speed_pump", "truck_parking", "toilet", "mobile_enabled", "outdoor_payment_terminal", "truck_only"], "products": ["ad_blue", "truck_diesel", "ultimate_diesel"], "website": null, "watchlist_id": null, "formatted_address": " Cnr Iles Drive & Sargood Drive\nCromwell", "channel_of_trade": null}, {"id": "NZ-0DN59", "name": "BP Connect Tirau", "lat": -37.976571, "lng": 175.755327, "site_brand": "BP", "country_code": "NZ", "address": "58-70 Main Road", "city": "Tirau", "state": "", "postcode": null, "telephone": "+64 7 883 1813", "facilities": ["open_24_hours", "open_saturday", "open_sunday", "tires_pump_up", "disabled_facilities", "toilet", "wifi", "wild_bean_cafe", "good_mood_food", "mobile_enabled", "everyday_rewards", "swappa_bottle"], "products": ["aa_smart_fuel", "electricity", "ultimate_98", "ultimate_diesel", "unleaded_91", "unleaded_95"], "website": null, "watchlist_id": null, "formatted_address": "58-70 Main Road\nTirau", "channel_of_trade": null}, {"id": "NZ-0DN60", "name": "BP Connect Bruce Road", "lat": -37.701127, "lng": 176.262584, "site_brand": "BP", "country_code": "NZ", "address": "48 Bruce Road", "city": "Tauranga", "state": "Papamoa", "postcode": null, "telephone": "+64 7 987 2072", "facilities": ["open_24_hours", "open_saturday", "open_sunday", "car_wash", "tires_pump_up", "vacuum_cleaner", "disabled_facilities", "recycling", "toilet", "wifi", "wild_bean_cafe", "good_mood_food", "mobile_enabled", "everyday_rewards", "swappa_bottle"], "products": ["aa_smart_fuel", "truck_diesel", "ultimate_98", "ultimate_diesel", "unleaded_91", "unleaded_95"], "website": null, "watchlist_id": null, "formatted_address": "48 Bruce Road\nTauranga", "channel_of_trade": null}, {"id": "NZ-0DN62", "name": "BP Connect Bethlehem", "lat": -37.6948979, "lng": 176.1087941, "site_brand": "BP", "country_code": "NZ", "address": "19 Bethlehem Road", "city": "Tauranga", "state": "Bethlehem", "postcode": null, "telephone": "+64 7 987 2127", "facilities": ["open_24_hours", "open_saturday", "open_sunday", "tires_pump_up", "vacuum_cleaner", "cash_point", "disabled_facilities", "recycling", "toilet", "wifi", "wild_bean_cafe", "good_mood_food", "ubereats", "mobile_enabled", "everyday_rewards", "swappa_bottle"], "products": ["aa_smart_fuel", "ultimate_98", "ultimate_diesel", "unleaded_91", "unleaded_95"], "website": null, "watchlist_id": null, "formatted_address": "19 Bethlehem Road\nTauranga", "channel_of_trade": null}, {"id": "NZ-0DN63", "name": "BP Connect Millwater", "lat": -36.605144, "lng": 174.662545, "site_brand": "BP", "country_code": "NZ", "address": "219 - 225 Wainui Road", "city": "Auckland", "state": "Millwater", "postcode": null, "telephone": "+64 9 444 8918", "facilities": ["open_24_hours", "open_saturday", "open_sunday", "car_wash", "tires_pump_up", "vacuum_cleaner", "cash_point", "disabled_facilities", "recycling", "toilet", "wifi", "wild_bean_cafe", "good_mood_food", "mobile_enabled", "everyday_rewards", "swappa_bottle"], "products": ["aa_smart_fuel", "electricity", "ultimate_98", "ultimate_diesel", "unleaded_91", "unleaded_95"], "website": null, "watchlist_id": null, "formatted_address": "219 - 225 Wainui Road\nAuckland", "channel_of_trade": null}, {"id": "NZ-0DN85", "name": "Porirua COCO", "lat": -41.131721, "lng": 174.84031, "site_brand": "BP", "country_code": "NZ", "address": " Cnr Parumoana Street & Norrie Street", "city": "Wellington", "state": "Porirua", "postcode": null, "telephone": "+0800800027", "facilities": ["open_24_hours", "open_saturday", "open_sunday", "tires_pump_up", "disabled_facilities", "mobile_enabled", "outdoor_payment_terminal", "everyday_rewards"], "products": ["aa_smart_fuel", "ultimate_98", "unleaded_91", "unleaded_95"], "website": null, "watchlist_id": null, "formatted_address": " Cnr Parumoana Street & Norrie Street\nWellington", "channel_of_trade": null}, {"id": "NZ-0DP09", "name": "BP Bombay Truckstop", "lat": -37.192543, "lng": 174.981945, "site_brand": "BP", "country_code": "NZ", "address": " Cnr Mill Street & State Street", "city": "Auckland", "state": "Bombay", "postcode": null, "telephone": "0800800027", "facilities": ["open_24_hours", "open_saturday", "open_sunday", "tires_pump_up", "high_speed_pump", "disabled_facilities", "toilet", "wild_bean_cafe", "mobile_enabled", "outdoor_payment_terminal", "truck_only"], "products": ["ad_blue", "truck_diesel", "ultimate_diesel"], "website": null, "watchlist_id": null, "formatted_address": " Cnr Mill Street & State Street\nAuckland", "channel_of_trade": null}, {"id": "NZ-0DP16", "name": "BP Takapuna Truckstop", "lat": -36.77291, "lng": 174.74146, "site_brand": "BP", "country_code": "NZ", "address": "127 Wairau Road", "city": "Auckland", "state": "Takapuna", "postcode": null, "telephone": "0800800027", "facilities": ["open_24_hours", "open_saturday", "open_sunday", "tires_pump_up", "vacuum_cleaner", "high_speed_pump", "disabled_facilities", "toilet", "wild_bean_cafe", "mobile_enabled", "outdoor_payment_terminal", "truck_only"], "products": ["truck_diesel", "ultimate_diesel"], "website": null, "watchlist_id": null, "formatted_address": "127 Wairau Road\nAuckland", "channel_of_trade": null}, {"id": "NZ-0DP17", "name": "BP Dairy Flat Truckstop", "lat": -36.6604387, "lng": 174.6670417, "site_brand": "BP", "country_code": "NZ", "address": " State Highway 1", "city": "Auckland", "state": "North Harbour", "postcode": null, "telephone": "0800800027", "facilities": ["open_24_hours", "open_saturday", "open_sunday", "tires_pump_up", "vacuum_cleaner", "high_speed_pump", "truck_parking", "disabled_facilities", "toilet", "wild_bean_cafe", "mobile_enabled", "outdoor_payment_terminal", "truck_only"], "products": ["ad_blue", "truck_diesel", "ultimate_diesel"], "website": null, "watchlist_id": null, "formatted_address": " State Highway 1\nAuckland", "channel_of_trade": null}, {"id": "NZ-0DP21", "name": "BP Hastings Truckstop", "lat": -39.626546, "lng": 176.820661, "site_brand": "BP", "country_code": "NZ", "address": "511 Orchard Road", "city": "Hastings", "state": "", "postcode": null, "telephone": "0800800027", "facilities": ["open_24_hours", "open_saturday", "open_sunday", "tires_pump_up", "vacuum_cleaner", "high_speed_pump", "disabled_facilities", "mobile_enabled", "outdoor_payment_terminal", "truck_only"], "products": ["truck_diesel", "ultimate_diesel"], "website": null, "watchlist_id": null, "formatted_address": "511 Orchard Road\nHastings", "channel_of_trade": null}, {"id": "NZ-0DP24", "name": "BP Blenheim Truckstop", "lat": -41.505284, "lng": 173.959542, "site_brand": "BP", "country_code": "NZ", "address": "49 Grove Road", "city": "Blenheim", "state": "", "postcode": null, "telephone": "0800800027", "facilities": ["open_24_hours", "open_saturday", "open_sunday", "tires_pump_up", "vacuum_cleaner", "high_speed_pump", "disabled_facilities", "toilet", "wild_bean_cafe", "mobile_enabled", "outdoor_payment_terminal", "truck_only"], "products": ["truck_diesel", "ultimate_diesel"], "website": null, "watchlist_id": null, "formatted_address": "49 Grove Road\nBlenheim", "channel_of_trade": null}, {"id": "NZ-0DP25", "name": "BP Gisborne Truckstop", "lat": -38.664495, "lng": 178.005224, "site_brand": "BP", "country_code": "NZ", "address": " Innes Street", "city": "Gisborne", "state": "Gisborne", "postcode": null, "telephone": "0800800027", "facilities": ["open_24_hours", "open_saturday", "open_sunday", "tires_pump_up", "vacuum_cleaner", "high_speed_pump", "disabled_facilities", "mobile_enabled", "outdoor_payment_terminal", "truck_only"], "products": ["truck_diesel", "ultimate_diesel"], "website": null, "watchlist_id": null, "formatted_address": " Innes Street\nGisborne", "channel_of_trade": null}, {"id": "NZ-0DP32", "name": "BP Inglewood Truckstop", "lat": -39.154422, "lng": 174.206065, "site_brand": "BP", "country_code": "NZ", "address": "9 Brown Street", "city": "Inglewood", "state": "", "postcode": null, "telephone": "0800800027", "facilities": ["open_24_hours", "open_saturday", "open_sunday", "tires_pump_up", "vacuum_cleaner", "high_speed_pump", "disabled_facilities", "mobile_enabled", "outdoor_payment_terminal", "truck_only"], "products": ["truck_diesel", "ultimate_diesel"], "website": null, "watchlist_id": null, "formatted_address": "9 Brown Street\nInglewood", "channel_of_trade": null}, {"id": "NZ-0DP34", "name": "BP J D Hickman Truckstop", "lat": -39.02024, "lng": 174.22041, "site_brand": "BP", "country_code": "NZ", "address": " Waitara Road", "city": "New Plymouth", "state": "", "postcode": null, "telephone": "0800800027", "facilities": ["open_saturday", "open_sunday", "tires_pump_up", "vacuum_cleaner", "high_speed_pump", "disabled_facilities", "mobile_enabled", "outdoor_payment_terminal", "truck_only"], "products": ["truck_diesel", "ultimate_diesel"], "website": null, "watchlist_id": null, "formatted_address": " Waitara Road\nNew Plymouth", "channel_of_trade": null}, {"id": "NZ-0DP35", "name": "BP Sockburn Truckstop", "lat": -43.542945, "lng": 172.567215, "site_brand": "BP", "country_code": "NZ", "address": "8 Jipco Road", "city": "Christchurch", "state": "Sockburn", "postcode": null, "telephone": "0800800027", "facilities": ["open_24_hours", "open_saturday", "open_sunday", "tires_pump_up", "vacuum_cleaner", "high_speed_pump", "disabled_facilities", "mobile_enabled", "outdoor_payment_terminal", "truck_only"], "products": ["truck_diesel", "ultimate_diesel"], "website": null, "watchlist_id": null, "formatted_address": "8 Jipco Road\nChristchurch", "channel_of_trade": null}, {"id": "NZ-0DP39", "name": "BP Kaikoura Truckstop", "lat": -42.3923, "lng": 173.679, "site_brand": "BP", "country_code": "NZ", "address": " State Highway 2", "city": "Kaikoura", "state": "", "postcode": null, "telephone": "0800800027", "facilities": ["open_24_hours", "open_saturday", "open_sunday", "tires_pump_up", "vacuum_cleaner", "high_speed_pump", "disabled_facilities", "toilet", "mobile_enabled", "outdoor_payment_terminal", "truck_only"], "products": ["truck_diesel", "ultimate_diesel"], "website": null, "watchlist_id": null, "formatted_address": " State Highway 2\nKaikoura", "channel_of_trade": null}, {"id": "NZ-0DP50", "name": "BP Masterton Truckstop", "lat": -40.9626, "lng": 175.615, "site_brand": "BP", "country_code": "NZ", "address": "307 High Street", "city": "Masterton", "state": "", "postcode": null, "telephone": "0800800027", "facilities": ["open_24_hours", "open_saturday", "open_sunday", "tires_pump_up", "vacuum_cleaner", "high_speed_pump", "disabled_facilities", "mobile_enabled", "outdoor_payment_terminal", "truck_only"], "products": ["truck_diesel", "ultimate_diesel"], "website": null, "watchlist_id": null, "formatted_address": "307 High Street\nMasterton", "channel_of_trade": null}, {"id": "NZ-0DP54", "name": "BP Moerewa Truckstop", "lat": -35.388113, "lng": 174.013163, "site_brand": "BP", "country_code": "NZ", "address": "48 George Street", "city": "Moerewa", "state": "", "postcode": null, "telephone": "0800800027", "facilities": ["open_24_hours", "open_saturday", "open_sunday", "tires_pump_up", "vacuum_cleaner", "high_speed_pump", "disabled_facilities", "toilet", "mobile_enabled", "outdoor_payment_terminal", "truck_only"], "products": ["truck_diesel", "ultimate_diesel"], "website": null, "watchlist_id": null, "formatted_address": "48 George Street\nMoerewa", "channel_of_trade": null}, {"id": "NZ-0DP55", "name": "BP Mt Maunganui Truckstop", "lat": -37.664956, "lng": 176.194658, "site_brand": "BP", "country_code": "NZ", "address": "6 Hocking Street", "city": "Tauranga", "state": "Mt Maunganui", "postcode": null, "telephone": "0800800027", "facilities": ["open_24_hours", "open_saturday", "open_sunday", "tires_pump_up", "vacuum_cleaner", "high_speed_pump", "disabled_facilities", "mobile_enabled", "outdoor_payment_terminal", "truck_only"], "products": ["ad_blue", "truck_diesel", "ultimate_diesel"], "website": null, "watchlist_id": null, "formatted_address": "6 Hocking Street\nTauranga", "channel_of_trade": null}, {"id": "NZ-0DP58", "name": "BP Bay View Truckstop", "lat": -39.425551, "lng": 176.870041, "site_brand": "BP", "country_code": "NZ", "address": "569 Main North Road", "city": "Napier", "state": "Bay View", "postcode": null, "telephone": "0800800027", "facilities": ["open_24_hours", "open_saturday", "open_sunday", "tires_pump_up", "vacuum_cleaner", "high_speed_pump", "disabled_facilities", "toilet", "wild_bean_cafe", "mobile_enabled", "outdoor_payment_terminal", "truck_only"], "products": ["ad_blue", "truck_diesel", "ultimate_diesel"], "website": null, "watchlist_id": null, "formatted_address": "569 Main North Road\nNapier", "channel_of_trade": null}, {"id": "NZ-0DP59", "name": "BP Onehunga Truckstop", "lat": -36.923571, "lng": 174.811059, "site_brand": "BP", "country_code": "NZ", "address": "375 Neilson Street", "city": "Auckland", "state": "Onehunga", "postcode": null, "telephone": "0800800027", "facilities": ["open_24_hours", "open_saturday", "open_sunday", "tires_pump_up", "vacuum_cleaner", "high_speed_pump", "disabled_facilities", "mobile_enabled", "outdoor_payment_terminal", "truck_only"], "products": ["ad_blue", "truck_diesel", "ultimate_diesel"], "website": null, "watchlist_id": null, "formatted_address": "375 Neilson Street\nAuckland", "channel_of_trade": null}, {"id": "NZ-0DP60", "name": "BP Ngaruawahia Truckstop", "lat": -37.671328, "lng": 175.151799, "site_brand": "BP", "country_code": "NZ", "address": " Great South Road", "city": "Ngarauwahia", "state": "", "postcode": null, "telephone": "0800800027", "facilities": ["open_24_hours", "open_saturday", "open_sunday", "tires_pump_up", "vacuum_cleaner", "high_speed_pump", "disabled_facilities", "toilet", "wild_bean_cafe", "mobile_enabled", "outdoor_payment_terminal", "truck_only"], "products": ["truck_diesel", "ultimate_diesel"], "website": null, "watchlist_id": null, "formatted_address": " Great South Road\nNgarauwahia", "channel_of_trade": null}, {"id": "NZ-0DP65", "name": "BP Papakura Truckstop", "lat": -37.0883, "lng": 174.94024, "site_brand": "BP", "country_code": "NZ", "address": " Southern Motorway", "city": "Auckland", "state": "Papakura", "postcode": null, "telephone": "0800800027", "facilities": ["open_24_hours", "open_saturday", "open_sunday", "tires_pump_up", "vacuum_cleaner", "high_speed_pump", "truck_parking", "disabled_facilities", "toilet", "wild_bean_cafe", "mobile_enabled", "outdoor_payment_terminal", "truck_only"], "products": ["ad_blue", "truck_diesel", "ultimate_diesel"], "website": null, "watchlist_id": null, "formatted_address": " Southern Motorway\nAuckland", "channel_of_trade": null}, {"id": "NZ-0DP71", "name": "BP Port Nelson Truckstop", "lat": -41.2644993, "lng": 173.2744576, "site_brand": "BP", "country_code": "NZ", "address": " Hay Street", "city": "Nelson", "state": "", "postcode": null, "telephone": "0800800027", "facilities": ["open_24_hours", "open_saturday", "open_sunday", "tires_pump_up", "vacuum_cleaner", "high_speed_pump", "disabled_facilities", "mobile_enabled", "outdoor_payment_terminal", "truck_only"], "products": ["ad_blue", "regular_diesel", "truck_diesel"], "website": null, "watchlist_id": null, "formatted_address": " Hay Street\nNelson", "channel_of_trade": null}, {"id": "NZ-0DP75", "name": "BP Putaruru Truckstop", "lat": -38.052917, "lng": 175.782216, "site_brand": "BP", "country_code": "NZ", "address": "31 Taupo Street", "city": "Putaruru", "state": "", "postcode": null, "telephone": "0800800027", "facilities": ["open_24_hours", "open_saturday", "open_sunday", "tires_pump_up", "vacuum_cleaner", "high_speed_pump", "disabled_facilities", "mobile_enabled", "outdoor_payment_terminal", "truck_only"], "products": ["truck_diesel", "ultimate_diesel"], "website": null, "watchlist_id": null, "formatted_address": "31 Taupo Street\nPutaruru", "channel_of_trade": null}, {"id": "NZ-0DP76", "name": "BP Queenstown Truckstop", "lat": -45.0207834, "lng": 168.6626835, "site_brand": "BP", "country_code": "NZ", "address": "131 Gorge Road", "city": "Queenstown", "state": "", "postcode": null, "telephone": "0800800027", "facilities": ["open_24_hours", "open_saturday", "open_sunday", "tires_pump_up", "vacuum_cleaner", "high_speed_pump", "disabled_facilities", "mobile_enabled", "outdoor_payment_terminal", "truck_only"], "products": ["ad_blue", "regular_diesel", "truck_diesel"], "website": null, "watchlist_id": null, "formatted_address": "131 Gorge Road\nQueenstown", "channel_of_trade": null}, {"id": "NZ-0DP79", "name": "BP Rotorua West Truckstop", "lat": -38.131919, "lng": 176.233857, "site_brand": "BP", "country_code": "NZ", "address": "82 Old Taupo Road", "city": "Rotorua", "state": "", "postcode": null, "telephone": "0800800027", "facilities": ["open_24_hours", "open_saturday", "open_sunday", "tires_pump_up", "vacuum_cleaner", "high_speed_pump", "disabled_facilities", "mobile_enabled", "outdoor_payment_terminal", "truck_only"], "products": ["truck_diesel", "ultimate_diesel"], "website": null, "watchlist_id": null, "formatted_address": "82 Old Taupo Road\nRotorua", "channel_of_trade": null}, {"id": "NZ-0DP82", "name": "BP Seaview Truckstop", "lat": -41.241138, "lng": 174.908448, "site_brand": "BP", "country_code": "NZ", "address": "48-56 Seaview Road", "city": "Wellington", "state": "Seaview", "postcode": null, "telephone": "0800800027", "facilities": ["open_24_hours", "open_saturday", "open_sunday", "tires_pump_up", "vacuum_cleaner", "high_speed_pump", "disabled_facilities", "mobile_enabled", "outdoor_payment_terminal", "truck_only"], "products": ["truck_diesel", "ultimate_diesel"], "website": null, "watchlist_id": null, "formatted_address": "48-56 Seaview Road\nWellington", "channel_of_trade": null}, {"id": "NZ-0DP84", "name": "BP Dunedin Truckstop", "lat": -45.884557, "lng": 170.501148, "site_brand": "BP", "country_code": "NZ", "address": "52 Cumberland Sreet South", "city": "Dunedin", "state": "Dunedin Central", "postcode": null, "telephone": "0800800027", "facilities": ["open_24_hours", "open_saturday", "open_sunday", "tires_pump_up", "vacuum_cleaner", "high_speed_pump", "truck_parking", "disabled_facilities", "toilet", "wild_bean_cafe", "mobile_enabled", "outdoor_payment_terminal", "truck_only"], "products": ["ad_blue", "truck_diesel", "ultimate_diesel"], "website": null, "watchlist_id": null, "formatted_address": "52 Cumberland Sreet South\nDunedin", "channel_of_trade": null}, {"id": "NZ-0DP88", "name": "BP Takanini Truckstop", "lat": -37.038953, "lng": 174.913543, "site_brand": "BP", "country_code": "NZ", "address": "102 Great South Road", "city": "Auckland", "state": "Takanini", "postcode": null, "telephone": "0800800027", "facilities": ["open_24_hours", "open_saturday", "open_sunday", "tires_pump_up", "vacuum_cleaner", "high_speed_pump", "disabled_facilities", "toilet", "wild_bean_cafe", "mobile_enabled", "outdoor_payment_terminal", "truck_only"], "products": ["ad_blue", "truck_diesel", "ultimate_diesel"], "website": null, "watchlist_id": null, "formatted_address": "102 Great South Road\nAuckland", "channel_of_trade": null}, {"id": "NZ-0DP92", "name": "BP Te Kuiti Truckstop", "lat": -38.337996, "lng": 175.167152, "site_brand": "BP", "country_code": "NZ", "address": "70 Carroll Street", "city": "Te Kuiti", "state": "", "postcode": null, "telephone": "0800800027", "facilities": ["open_24_hours", "open_saturday", "open_sunday", "tires_pump_up", "vacuum_cleaner", "high_speed_pump", "disabled_facilities", "toilet", "mobile_enabled", "outdoor_payment_terminal", "truck_only"], "products": ["ad_blue", "truck_diesel", "ultimate_diesel"], "website": null, "watchlist_id": null, "formatted_address": "70 Carroll Street\nTe Kuiti", "channel_of_trade": null}, {"id": "NZ-0DP93", "name": "BP Te Puna Truckstop", "lat": -37.695978, "lng": 176.072127, "site_brand": "BP", "country_code": "NZ", "address": "620 State Highway 2", "city": "Te Puna", "state": "", "postcode": null, "telephone": "0800800027", "facilities": ["open_24_hours", "open_saturday", "open_sunday", "tires_pump_up", "vacuum_cleaner", "high_speed_pump", "disabled_facilities", "toilet", "wild_bean_cafe", "mobile_enabled", "outdoor_payment_terminal", "truck_only"], "products": ["truck_diesel", "ultimate_diesel"], "website": null, "watchlist_id": null, "formatted_address": "620 State Highway 2\nTe Puna", "channel_of_trade": null}, {"id": "NZ-0DP96", "name": "BP Timaru Truckstop", "lat": -44.364063, "lng": 171.240816, "site_brand": "BP", "country_code": "NZ", "address": " Blair Street", "city": "Timaru", "state": "Washdyke", "postcode": null, "telephone": "0800800027", "facilities": ["open_24_hours", "open_saturday", "open_sunday", "tires_pump_up", "vacuum_cleaner", "high_speed_pump", "disabled_facilities", "mobile_enabled", "outdoor_payment_terminal", "truck_only"], "products": ["regular_diesel", "truck_diesel"], "website": null, "watchlist_id": null, "formatted_address": " Blair Street\nTimaru", "channel_of_trade": null}, {"id": "NZ-0DP98", "name": "BP Tokoroa Truckstop", "lat": -38.231635, "lng": 175.87851, "site_brand": "BP", "country_code": "NZ", "address": " State Highway 1", "city": "Tokoroa", "state": "", "postcode": null, "telephone": "0800800027", "facilities": ["open_24_hours", "open_saturday", "open_sunday", "tires_pump_up", "vacuum_cleaner", "high_speed_pump", "disabled_facilities", "mobile_enabled", "outdoor_payment_terminal", "truck_only"], "products": ["truck_diesel", "ultimate_diesel"], "website": null, "watchlist_id": null, "formatted_address": " State Highway 1\nTokoroa", "channel_of_trade": null}, {"id": "NZ-0DQ00", "name": "BP Kaitaia Truckstop", "lat": -35.096542, "lng": 173.257577, "site_brand": "BP", "country_code": "NZ", "address": "134 State Highway 1", "city": "Kaitaia", "state": "", "postcode": null, "telephone": "0800800027", "facilities": ["open_24_hours", "open_saturday", "open_sunday", "tires_pump_up", "vacuum_cleaner", "high_speed_pump", "disabled_facilities", "mobile_enabled", "outdoor_payment_terminal", "truck_only"], "products": ["ad_blue", "truck_diesel", "ultimate_diesel"], "website": null, "watchlist_id": null, "formatted_address": "134 State Highway 1\nKaitaia", "channel_of_trade": null}, {"id": "NZ-0DQ01", "name": "BP Waiouru Truckstop", "lat": -39.478175, "lng": 175.668157, "site_brand": "BP", "country_code": "NZ", "address": "22 Main Road", "city": "Waiouru", "state": "", "postcode": null, "telephone": "0800800027", "facilities": ["open_24_hours", "open_saturday", "open_sunday", "tires_pump_up", "vacuum_cleaner", "high_speed_pump", "disabled_facilities", "mobile_enabled", "outdoor_payment_terminal", "truck_only"], "products": ["truck_diesel", "ultimate_diesel"], "website": null, "watchlist_id": null, "formatted_address": "22 Main Road\nWaiouru", "channel_of_trade": null}, {"id": "NZ-0DQ03", "name": "BP Wairakei Truckstop", "lat": -38.626314, "lng": 176.089334, "site_brand": "BP", "country_code": "NZ", "address": "655 Thermal Explorer Highway", "city": "Wairakei", "state": "", "postcode": null, "telephone": "0800800027", "facilities": ["open_24_hours", "open_saturday", "open_sunday", "tires_pump_up", "vacuum_cleaner", "high_speed_pump", "truck_parking", "disabled_facilities", "toilet", "wild_bean_cafe", "mobile_enabled", "outdoor_payment_terminal", "truck_only"], "products": ["ad_blue", "truck_diesel", "ultimate_diesel"], "website": null, "watchlist_id": null, "formatted_address": "655 Thermal Explorer Highway\nWairakei", "channel_of_trade": null}, {"id": "NZ-0DQ05", "name": "BP Whanganui Truckstop", "lat": -39.947736, "lng": 175.009661, "site_brand": "BP", "country_code": "NZ", "address": "390 Heads Road", "city": "Whanganui", "state": "", "postcode": null, "telephone": "0800800027", "facilities": ["open_24_hours", "open_saturday", "open_sunday", "tires_pump_up", "vacuum_cleaner", "high_speed_pump", "disabled_facilities", "mobile_enabled", "outdoor_payment_terminal", "truck_only"], "products": ["truck_diesel", "ultimate_diesel"], "website": null, "watchlist_id": null, "formatted_address": "390 Heads Road\nWhanganui", "channel_of_trade": null}, {"id": "NZ-0DQ10", "name": "BP Whangarei Truckstop", "lat": -35.739627, "lng": 174.334488, "site_brand": "BP", "country_code": "NZ", "address": "4-6 Kioreroa Road", "city": "Whangarei", "state": "Port Whangarei", "postcode": null, "telephone": "0800800027", "facilities": ["open_24_hours", "open_saturday", "open_sunday", "tires_pump_up", "vacuum_cleaner", "high_speed_pump", "disabled_facilities", "mobile_enabled", "outdoor_payment_terminal", "truck_only"], "products": ["ad_blue", "truck_diesel", "ultimate_diesel"], "website": null, "watchlist_id": null, "formatted_address": "4-6 Kioreroa Road\nWhangarei", "channel_of_trade": null}, {"id": "NZ-0DQ12", "name": "BP Whitianga Truckstop", "lat": -36.836992, "lng": 175.678039, "site_brand": "BP", "country_code": "NZ", "address": "199 South Highway", "city": "Whitianga", "state": "", "postcode": null, "telephone": "0800800027", "facilities": ["open_24_hours", "open_saturday", "open_sunday", "tires_pump_up", "vacuum_cleaner", "high_speed_pump", "disabled_facilities", "mobile_enabled", "outdoor_payment_terminal", "truck_only"], "products": ["truck_diesel", "ultimate_diesel"], "website": null, "watchlist_id": null, "formatted_address": "199 South Highway\nWhitianga", "channel_of_trade": null}, {"id": "NZ-0DQ13", "name": "BP Wiri Truckstop", "lat": -37.0030193, "lng": 174.8651214, "site_brand": "BP", "country_code": "NZ", "address": "3 Ash Road", "city": "Auckland", "state": "Wiri", "postcode": null, "telephone": "0800800027", "facilities": ["open_24_hours", "open_saturday", "open_sunday", "tires_pump_up", "vacuum_cleaner", "high_speed_pump", "disabled_facilities", "mobile_enabled", "outdoor_payment_terminal", "truck_only"], "products": ["ad_blue", "truck_diesel", "ultimate_diesel"], "website": null, "watchlist_id": null, "formatted_address": "3 Ash Road\nAuckland", "channel_of_trade": null}, {"id": "NZ-0DQ15", "name": "BP Hokitika Truckstop", "lat": -42.724729, "lng": 170.9811, "site_brand": "BP", "country_code": "NZ", "address": "10 Town Belt East Road", "city": "Hokitika", "state": "Hokitika", "postcode": null, "telephone": "0800800027", "facilities": ["open_24_hours", "open_saturday", "open_sunday", "tires_pump_up", "vacuum_cleaner", "high_speed_pump", "disabled_facilities", "mobile_enabled", "outdoor_payment_terminal", "truck_only"], "products": ["truck_diesel", "ultimate_diesel"], "website": null, "watchlist_id": null, "formatted_address": "10 Town Belt East Road\nHokitika", "channel_of_trade": null}, {"id": "NZ-0DQ18", "name": "BP Grenada North Truckstop", "lat": -41.180939, "lng": 174.835435, "site_brand": "BP", "country_code": "NZ", "address": "50 Takapu Road", "city": "Wellington", "state": "Grenada North", "postcode": null, "telephone": "0800800027", "facilities": ["open_24_hours", "open_saturday", "open_sunday", "tires_pump_up", "vacuum_cleaner", "high_speed_pump", "disabled_facilities", "mobile_enabled", "outdoor_payment_terminal", "truck_only"], "products": ["truck_diesel", "ultimate_diesel"], "website": null, "watchlist_id": null, "formatted_address": "50 Takapu Road\nWellington", "channel_of_trade": null}, {"id": "NZ-0DQ19", "name": "BP Ashburton Truckstop", "lat": -43.8968, "lng": 171.758, "site_brand": "BP", "country_code": "NZ", "address": "360 West Street", "city": "Ashburton", "state": "", "postcode": null, "telephone": "0800800027", "facilities": ["open_24_hours", "open_saturday", "open_sunday", "tires_pump_up", "vacuum_cleaner", "high_speed_pump", "truck_parking", "disabled_facilities", "toilet", "wild_bean_cafe", "mobile_enabled", "outdoor_payment_terminal", "truck_only"], "products": ["truck_diesel", "ultimate_diesel"], "website": null, "watchlist_id": null, "formatted_address": "360 West Street\nAshburton", "channel_of_trade": null}, {"id": "NZ-0DQ20", "name": "BP Mangere Truckstop", "lat": -36.9862064, "lng": 174.7893557, "site_brand": "BP", "country_code": "NZ", "address": "20 Verissimo Drive", "city": "Auckland", "state": "Mangere", "postcode": null, "telephone": "0800800027", "facilities": ["open_24_hours", "open_saturday", "open_sunday", "tires_pump_up", "vacuum_cleaner", "high_speed_pump", "disabled_facilities", "mobile_enabled", "outdoor_payment_terminal", "truck_only"], "products": ["ad_blue", "truck_diesel", "ultimate_diesel"], "website": null, "watchlist_id": null, "formatted_address": "20 Verissimo Drive\nAuckland", "channel_of_trade": null}, {"id": "NZ-0DQ21", "name": "BP Hornby Truckstop", "lat": -43.5509859, "lng": 172.5175194, "site_brand": "BP", "country_code": "NZ", "address": " Cnr Halswell Junction Road & Shands Road", "city": "Christchurch", "state": "Hornby", "postcode": null, "telephone": "0800800027", "facilities": ["open_24_hours", "open_saturday", "open_sunday", "tires_pump_up", "vacuum_cleaner", "high_speed_pump", "disabled_facilities", "mobile_enabled", "outdoor_payment_terminal", "truck_only"], "products": ["ad_blue", "truck_diesel", "ultimate_diesel"], "website": null, "watchlist_id": null, "formatted_address": " Cnr Halswell Junction Road & Shands Road\nChristchurch", "channel_of_trade": null}, {"id": "NZ-0DQ22", "name": "BP Levin Truckstop", "lat": -40.629238, "lng": 175.27766, "site_brand": "BP", "country_code": "NZ", "address": "7 Seddon Street", "city": "Levin", "state": "", "postcode": null, "telephone": "0800800027", "facilities": ["open_24_hours", "open_saturday", "open_sunday", "tires_pump_up", "vacuum_cleaner", "high_speed_pump", "disabled_facilities", "toilet", "wild_bean_cafe", "mobile_enabled", "outdoor_payment_terminal", "truck_only"], "products": ["truck_diesel", "ultimate_diesel"], "website": null, "watchlist_id": null, "formatted_address": "7 Seddon Street\nLevin", "channel_of_trade": null}, {"id": "NZ-0DQ23", "name": "BP Marsden Point Truckstop", "lat": -35.8544876, "lng": 174.4676651, "site_brand": "BP", "country_code": "NZ", "address": "596 Port Marsden Highway", "city": "Whangarei", "state": "Whangarei", "postcode": null, "telephone": "0800800027", "facilities": ["open_24_hours", "open_saturday", "open_sunday", "tires_pump_up", "vacuum_cleaner", "high_speed_pump", "disabled_facilities", "mobile_enabled", "outdoor_payment_terminal", "truck_only"], "products": ["truck_diesel", "ultimate_diesel"], "website": null, "watchlist_id": null, "formatted_address": "596 Port Marsden Highway\nWhangarei", "channel_of_trade": null}, {"id": "NZ-0DQ24", "name": "BP Waipawa Truckstop", "lat": -39.9449489, "lng": 176.5872217, "site_brand": "BP", "country_code": "NZ", "address": "1 High Street", "city": "Waipawa", "state": "", "postcode": null, "telephone": "0800800027", "facilities": ["open_24_hours", "open_saturday", "open_sunday", "tires_pump_up", "vacuum_cleaner", "high_speed_pump", "disabled_facilities", "mobile_enabled", "outdoor_payment_terminal", "truck_only"], "products": ["truck_diesel", "ultimate_diesel"], "website": null, "watchlist_id": null, "formatted_address": "1 High Street\nWaipawa", "channel_of_trade": null}, {"id": "NZ-0DQ25", "name": "BP Bell Block Truckstop", "lat": -39.028718, "lng": 174.174085, "site_brand": "BP", "country_code": "NZ", "address": " De Havilland Drive West", "city": "New Plymouth", "state": "Bell Block", "postcode": null, "telephone": "0800800027", "facilities": ["open_24_hours", "open_saturday", "open_sunday", "tires_pump_up", "vacuum_cleaner", "high_speed_pump", "disabled_facilities", "mobile_enabled", "outdoor_payment_terminal", "truck_only"], "products": ["ad_blue", "truck_diesel", "ultimate_diesel"], "website": null, "watchlist_id": null, "formatted_address": " De Havilland Drive West\nNew Plymouth", "channel_of_trade": null}, {"id": "NZ-0DQ42", "name": "BP Hamilton Crawford St Truckstop", "lat": -37.766425, "lng": 175.239154, "site_brand": "BP", "country_code": "NZ", "address": "26 Crawford Street", "city": "Hamilton", "state": "", "postcode": null, "telephone": "0800800027", "facilities": ["open_24_hours", "open_saturday", "open_sunday", "tires_pump_up", "vacuum_cleaner", "high_speed_pump", "disabled_facilities", "mobile_enabled", "outdoor_payment_terminal", "truck_only"], "products": ["ad_blue", "truck_diesel", "ultimate_diesel"], "website": null, "watchlist_id": null, "formatted_address": "26 Crawford Street\nHamilton", "channel_of_trade": null}, {"id": "NZ-0DQ43", "name": "BP Rolleston Truckstop", "lat": -43.5907326, "lng": 172.3807348, "site_brand": "BP", "country_code": "NZ", "address": "1705 Main South Road", "city": "Christchurch", "state": "Rolleston", "postcode": null, "telephone": "0800800027", "facilities": ["open_24_hours", "open_saturday", "open_sunday", "tires_pump_up", "vacuum_cleaner", "high_speed_pump", "disabled_facilities", "toilet", "wild_bean_cafe", "mobile_enabled", "outdoor_payment_terminal", "truck_only"], "products": ["ad_blue", "truck_diesel", "ultimate_diesel"], "website": null, "watchlist_id": null, "formatted_address": "1705 Main South Road\nChristchurch", "channel_of_trade": null}, {"id": "NZ-0DQ44", "name": "BP Bulls Truckstop", "lat": -40.176332, "lng": 175.386279, "site_brand": "BP", "country_code": "NZ", "address": "5 Funnell Street", "city": "Bulls", "state": "", "postcode": null, "telephone": "0800800027", "facilities": ["open_24_hours", "open_saturday", "open_sunday", "tires_pump_up", "vacuum_cleaner", "high_speed_pump", "disabled_facilities", "toilet", "wild_bean_cafe", "mobile_enabled", "outdoor_payment_terminal", "truck_only"], "products": ["ad_blue", "truck_diesel", "ultimate_diesel"], "website": null, "watchlist_id": null, "formatted_address": "5 Funnell Street\nBulls", "channel_of_trade": null}, {"id": "NZ-0DQ45", "name": "BP Palmerston North Truckstop", "lat": -40.3332422, "lng": 175.6211834, "site_brand": "BP", "country_code": "NZ", "address": "26 Malden Street", "city": "Palmerston North", "state": "", "postcode": null, "telephone": "0800800027", "facilities": ["open_24_hours", "open_saturday", "open_sunday", "tires_pump_up", "vacuum_cleaner", "high_speed_pump", "disabled_facilities", "mobile_enabled", "outdoor_payment_terminal", "truck_only"], "products": ["ad_blue", "truck_diesel", "ultimate_diesel"], "website": null, "watchlist_id": null, "formatted_address": "26 Malden Street\nPalmerston North", "channel_of_trade": null}, {"id": "NZ-0DQ46", "name": "BP Highbrook Truckstop", "lat": -36.935336, "lng": 174.885896, "site_brand": "BP", "country_code": "NZ", "address": "19 Cryers Road", "city": "Auckland", "state": "Highbrook", "postcode": null, "telephone": "+0800800027", "facilities": ["open_24_hours", "open_saturday", "open_sunday", "tires_pump_up", "vacuum_cleaner", "high_speed_pump", "disabled_facilities", "mobile_enabled", "outdoor_payment_terminal", "truck_only"], "products": ["truck_diesel", "ultimate_diesel"], "website": null, "watchlist_id": null, "formatted_address": "19 Cryers Road\nAuckland", "channel_of_trade": null}, {"id": "NZ-0DQ47", "name": "BP Tauriko Truckstop", "lat": -37.7384459, "lng": 176.1072693, "site_brand": "BP", "country_code": "NZ", "address": "1 Taurikura Drive", "city": "Tauranga", "state": "Tauriko", "postcode": null, "telephone": "0800800027", "facilities": ["open_24_hours", "open_saturday", "open_sunday", "tires_pump_up", "vacuum_cleaner", "high_speed_pump", "disabled_facilities", "toilet", "wild_bean_cafe", "mobile_enabled", "outdoor_payment_terminal", "truck_only"], "products": ["ad_blue", "truck_diesel", "ultimate_diesel"], "website": null, "watchlist_id": null, "formatted_address": "1 Taurikura Drive\nTauranga", "channel_of_trade": null}, {"id": "NZ-0DQ48", "name": "BP Dannevirke Truckstop", "lat": -40.2102, "lng": 176.095, "site_brand": "BP", "country_code": "NZ", "address": "3 High Street", "city": "Dannevirke", "state": "", "postcode": null, "telephone": "0800800027", "facilities": ["open_24_hours", "open_saturday", "open_sunday", "tires_pump_up", "vacuum_cleaner", "high_speed_pump", "disabled_facilities", "mobile_enabled", "outdoor_payment_terminal", "truck_only"], "products": ["truck_diesel", "ultimate_diesel"], "website": null, "watchlist_id": null, "formatted_address": "3 High Street\nDannevirke", "channel_of_trade": null}, {"id": "NZ-0DQ52", "name": "BP Kawerau Truckstop", "lat": -38.0699166, "lng": 176.7301915, "site_brand": "BP", "country_code": "NZ", "address": " Tarawera Road", "city": "Kawerau", "state": "", "postcode": null, "telephone": "0800800027", "facilities": ["open_24_hours", "open_saturday", "open_sunday", "tires_pump_up", "vacuum_cleaner", "high_speed_pump", "disabled_facilities", "mobile_enabled", "outdoor_payment_terminal", "truck_only"], "products": ["truck_diesel", "ultimate_diesel"], "website": null, "watchlist_id": null, "formatted_address": " Tarawera Road\nKawerau", "channel_of_trade": null}, {"id": "NZ-0DQ53", "name": "BP Rangiora Truckstop", "lat": -43.3271854, "lng": 172.6001904, "site_brand": "BP", "country_code": "NZ", "address": "647 Lineside Road", "city": "Rangiora", "state": "Waimakariri", "postcode": null, "telephone": "0800800027", "facilities": ["open_24_hours", "open_saturday", "open_sunday", "tires_pump_up", "vacuum_cleaner", "high_speed_pump", "disabled_facilities", "toilet", "wild_bean_cafe", "mobile_enabled", "outdoor_payment_terminal", "truck_only"], "products": ["ad_blue", "truck_diesel", "ultimate_diesel"], "website": null, "watchlist_id": null, "formatted_address": "647 Lineside Road\nRangiora", "channel_of_trade": null}, {"id": "NZ-0DQ54", "name": "BP Russley Truckstop", "lat": -43.4792538, "lng": 172.5548534, "site_brand": "BP", "country_code": "NZ", "address": "661 Russley Road", "city": "Christchurch", "state": "Harewood", "postcode": null, "telephone": "0800800027", "facilities": ["open_24_hours", "open_saturday", "open_sunday", "tires_pump_up", "vacuum_cleaner", "high_speed_pump", "disabled_facilities", "toilet", "wild_bean_cafe", "mobile_enabled", "outdoor_payment_terminal", "truck_only"], "products": ["ad_blue", "truck_diesel", "ultimate_diesel"], "website": null, "watchlist_id": null, "formatted_address": "661 Russley Road\nChristchurch", "channel_of_trade": null}, {"id": "NZ-0DQ55", "name": "BP Rosebank Road Truckstop", "lat": -36.87277, "lng": 174.6699, "site_brand": "BP", "country_code": "NZ", "address": "685-699 Rosebank Road", "city": "Auckland", "state": "Avondale", "postcode": null, "telephone": "0800800027", "facilities": ["open_24_hours", "open_saturday", "open_sunday", "tires_pump_up", "vacuum_cleaner", "high_speed_pump", "disabled_facilities", "mobile_enabled", "outdoor_payment_terminal", "truck_only"], "products": ["ad_blue", "truck_diesel", "ultimate_diesel"], "website": null, "watchlist_id": null, "formatted_address": "685-699 Rosebank Road\nAuckland", "channel_of_trade": null}, {"id": "NZ-0DQ56", "name": "BP Bruce Road Truckstop", "lat": -37.701105, "lng": 176.263422, "site_brand": "BP", "country_code": "NZ", "address": "48 Bruce Road", "city": "Tauranga", "state": "Papamoa", "postcode": null, "telephone": "0800800027", "facilities": ["open_24_hours", "open_saturday", "open_sunday", "tires_pump_up", "high_speed_pump", "disabled_facilities", "toilet", "wild_bean_cafe", "mobile_enabled", "outdoor_payment_terminal", "truck_only"], "products": ["ad_blue", "truck_diesel", "ultimate_diesel"], "website": null, "watchlist_id": null, "formatted_address": "48 Bruce Road\nTauranga", "channel_of_trade": null}, {"id": "NZ-0DQ57", "name": "BP Taupiri Truckstop", "lat": -37.622382, "lng": 175.204178, "site_brand": "BP", "country_code": "NZ", "address": "2189 Gordonton Road", "city": "Taupiri", "state": "", "postcode": null, "telephone": "0800800027", "facilities": ["open_24_hours", "open_saturday", "open_sunday", "tires_pump_up", "high_speed_pump", "truck_parking", "disabled_facilities", "toilet", "motorway_site", "wild_bean_cafe", "mobile_enabled", "truck_only"], "products": ["ad_blue", "truck_diesel", "ultimate_diesel"], "website": null, "watchlist_id": null, "formatted_address": "2189 Gordonton Road\nTaupiri", "channel_of_trade": null}]