[{"id": "NL-1007799378", "name": "BP Zuid-Oost", "lat": 52.720313, "lng": 6.5059849, "site_brand": "BP", "country_code": "NL", "address": "Buizerdlaan 147", "city": "HOOGEVEEN", "state": null, "postcode": "7905 GD", "telephone": "+31 528 268 286", "facilities": ["car_wash", "truck_suitable_site", "toilet", "albert_heijn", "accepts_routex_cards", "open_saturday", "open_sunday", "mobile_enabled"], "products": ["ad_blue_cannister", "ad_blue_pump", "auto_gas", "diesel_on", "electricity", "lpg", "ultimate", "ultimate_diesel", "ultimate_unleaded", "unleaded_95", "ad_blue"], "website": null, "watchlist_id": null, "formatted_address": "Buizerdlaan 147\n7905 GD\nHOOGEVEEN", "channel_of_trade": null}, {"id": "NL-10185", "name": "BP Express Tilburg", "lat": 51.5810893, "lng": 5.0826538, "site_brand": "BP", "country_code": "NL", "address": "Heikantlaan 10", "city": "TILBURG", "state": null, "postcode": "5011 SZ", "telephone": "08002727270", "facilities": ["open_24_hours", "high_speed_pump", "truck_suitable_site", "accepts_routex_cards", "open_saturday", "open_sunday"], "products": ["diesel_on", "electricity", "ultimate", "ultimate_diesel", "ultimate_unleaded", "unleaded_95"], "website": null, "watchlist_id": null, "formatted_address": "Heikantlaan 10\n5011 SZ\nTILBURG", "channel_of_trade": null}, {"id": "NL-1019487608", "name": "BP Harderwijk", "lat": 52.3444063, "lng": 5.6279222, "site_brand": "BP", "country_code": "NL", "address": "Hoofdweg 4", "city": "HARDERWIJK", "state": null, "postcode": "3842 GZ", "telephone": "+31 88 313 0248", "facilities": ["car_wash", "high_speed_pump", "truck_suitable_site", "toilet", "accepts_routex_cards", "open_saturday", "open_sunday"], "products": ["ad_blue_cannister", "ad_blue_pump", "diesel_on", "truck_diesel", "ultimate", "ultimate_diesel", "ultimate_unleaded", "unleaded_95", "ad_blue"], "website": null, "watchlist_id": null, "formatted_address": "Hoofdweg 4\n3842 GZ\nHARDERWIJK", "channel_of_trade": null}, {"id": "NL-1021750374", "name": "Tankstation Dinteloord", "lat": 51.6292598, "lng": 4.3640184, "site_brand": "BP", "country_code": "NL", "address": "Steenbergseweg 97b", "city": "DINTELOORD", "state": null, "postcode": "4671 BE", "telephone": "+31 167 522 793", "facilities": ["car_wash", "truck_suitable_site", "toilet", "accepts_routex_cards", "open_saturday", "open_sunday", "mobile_enabled"], "products": ["ad_blue_cannister", "ad_blue_pump", "auto_gas", "diesel_on", "lpg", "truck_diesel", "ultimate", "ultimate_diesel", "ultimate_unleaded", "unleaded_95", "ad_blue"], "website": null, "watchlist_id": null, "formatted_address": "Steenbergseweg 97b\n4671 BE\nDINTELOORD", "channel_of_trade": null}, {"id": "NL-1023736882", "name": "BP Biemond Aalsmeer", "lat": 52.2601994, "lng": 4.7721213, "site_brand": "BP", "country_code": "NL", "address": "Lakenblekerstraat 5", "city": "AALSMEER", "state": null, "postcode": "1431 GE", "telephone": "+31 297 227 495", "facilities": ["high_speed_pump", "truck_suitable_site", "toilet", "wild_bean_cafe", "accepts_routex_cards", "mobile_enabled"], "products": ["ad_blue_cannister", "ad_blue_pump", "auto_gas", "diesel_on", "lpg", "truck_diesel", "ultimate", "ultimate_diesel", "ultimate_unleaded", "unleaded_95", "ad_blue"], "website": null, "watchlist_id": null, "formatted_address": "Lakenblekerstraat 5\n1431 GE\nAALSMEER", "channel_of_trade": null}, {"id": "NL-1024848421", "name": "BP Flora Rijnsburg (Automaat-trucks)", "lat": 52.1836, "lng": 4.4579, "site_brand": "BP", "country_code": "NL", "address": "Laan van Verhof 3", "city": "RIJNSBURG", "state": null, "postcode": "2231 BZ", "telephone": "08002727270", "facilities": ["open_24_hours", "high_speed_pump", "truck_suitable_site", "accepts_routex_cards", "automatic_site", "open_saturday", "open_sunday"], "products": ["ad_blue_pump", "diesel_on", "red_diesel", "unleaded_95", "ad_blue"], "website": null, "watchlist_id": null, "formatted_address": "Laan van Verhof 3\n2231 BZ\nRIJNSBURG", "channel_of_trade": null}, {"id": "NL-1027079348", "name": "47644 Jumbo Woerden", "lat": 52.0768202, "lng": 4.9113575, "site_brand": "BP", "country_code": "NL", "address": "Finse Golf 7", "city": "WOERDEN", "state": null, "postcode": "3446 CK", "telephone": "08002727270", "facilities": ["open_24_hours", "accepts_routex_cards", "automatic_site", "open_saturday", "open_sunday"], "products": ["ad_blue_pump", "diesel_on", "unleaded_95", "ad_blue"], "website": null, "watchlist_id": null, "formatted_address": "Finse Golf 7\n3446 CK\nWOERDEN", "channel_of_trade": null}, {"id": "NL-1032863747", "name": "BP Express Ulvenhout", "lat": 51.5400194, "lng": 4.7942743, "site_brand": "BP", "country_code": "NL", "address": "Chaamsebaan 6", "city": "ULVENHOUT", "state": null, "postcode": "4851 SN", "telephone": "08002727270", "facilities": ["open_24_hours", "high_speed_pump", "truck_suitable_site", "accepts_routex_cards", "open_saturday", "open_sunday"], "products": ["ad_blue_pump", "diesel_on", "hvo", "unleaded_95", "ad_blue"], "website": null, "watchlist_id": null, "formatted_address": "Chaamsebaan 6\n4851 SN\nULVENHOUT", "channel_of_trade": null}, {"id": "NL-1033890684", "name": "BP Oud Beijerland", "lat": 51.8248457, "lng": 4.420031, "site_brand": "BP", "country_code": "NL", "address": "Beneden Oostdijk 18", "city": "OUD-BEYERLAND", "state": null, "postcode": "3261 KX", "telephone": "+31 186 616 057", "facilities": ["car_wash", "truck_suitable_site", "toilet", "albert_heijn", "accepts_routex_cards", "open_saturday", "open_sunday", "mobile_enabled"], "products": ["ad_blue_cannister", "diesel_on", "electricity", "truck_diesel", "ultimate", "ultimate_diesel", "ultimate_unleaded", "unleaded_95"], "website": null, "watchlist_id": null, "formatted_address": "Beneden Oostdijk 18\n3261 KX\nOUD-BEYERLAND", "channel_of_trade": null}, {"id": "NL-1036779004", "name": "BP express Maasdam", "lat": 51.7925321, "lng": 4.5531034, "site_brand": "BP", "country_code": "NL", "address": "Sportlaan 1", "city": "MAASDAM", "state": null, "postcode": "3299 XG", "telephone": "08002727270", "facilities": ["open_24_hours", "truck_suitable_site", "accepts_routex_cards", "open_saturday", "open_sunday"], "products": ["diesel_on", "ultimate", "ultimate_unleaded", "unleaded_95"], "website": null, "watchlist_id": null, "formatted_address": "Sportlaan 1\n3299 XG\nMAASDAM", "channel_of_trade": null}, {"id": "NL-104689802", "name": "BP Vreeland", "lat": 52.227744, "lng": 5.026075, "site_brand": "BP", "country_code": "NL", "address": "Singel 3", "city": "VREELAND", "state": null, "postcode": "3633 CW", "telephone": "+31 88 313 0071", "facilities": ["car_wash", "truck_suitable_site", "accepts_routex_cards", "open_saturday", "open_sunday", "mobile_enabled"], "products": ["ad_blue_cannister", "ad_blue_pump", "auto_gas", "diesel_on", "lpg", "truck_diesel", "ultimate", "ultimate_diesel", "ultimate_unleaded", "unleaded_95", "ad_blue"], "website": null, "watchlist_id": null, "formatted_address": "Singel 3\n3633 CW\nVREELAND", "channel_of_trade": null}, {"id": "NL-1057947263", "name": "Tankstop Brussen", "lat": 51.9373597, "lng": 6.4862251, "site_brand": "BP", "country_code": "NL", "address": "Euroweg 1", "city": "Varsseveld", "state": null, "postcode": "7051 EB", "telephone": "+31 315 230 535", "facilities": ["car_wash", "truck_suitable_site", "accepts_routex_cards", "open_saturday", "open_sunday", "mobile_enabled"], "products": ["ad_blue_pump", "diesel_on", "truck_diesel", "ultimate", "ultimate_diesel", "ultimate_unleaded", "unleaded_95", "ad_blue"], "website": null, "watchlist_id": null, "formatted_address": "Euroweg 1\n7051 EB\nVarsseveld", "channel_of_trade": null}, {"id": "NL-1063600519", "name": "BP NISSE AUTOMAAT", "lat": 51.456703, "lng": 3.85657, "site_brand": "BP", "country_code": "NL", "address": "Drieweg 7", "city": "Nisse", "state": null, "postcode": "4443 RD", "telephone": "", "facilities": ["accepts_routex_cards", "automatic_site", "open_saturday"], "products": ["ad_blue_pump", "diesel_on", "ultimate", "ultimate_unleaded", "ad_blue"], "website": null, "watchlist_id": null, "formatted_address": "Drieweg 7\n4443 RD\nNisse", "channel_of_trade": null}, {"id": "NL-1066745970", "name": "BP UITHOORN", "lat": 52.2418772, "lng": 4.8416168, "site_brand": "BP", "country_code": "NL", "address": "Amsterdamseweg 30", "city": "UITHOORN", "state": null, "postcode": "1422 AD", "telephone": "+31 172 423 200", "facilities": ["open_24_hours", "accepts_routex_cards", "automatic_site", "open_saturday", "open_sunday"], "products": ["ad_blue_pump", "diesel_on", "ad_blue"], "website": null, "watchlist_id": null, "formatted_address": "Amsterdamseweg 30\n1422 AD\nUITHOORN", "channel_of_trade": null}, {"id": "NL-1069494059", "name": "BP Nieuwegein 'Team Trans' (Automaat-trucks)", "lat": 52.0468417, "lng": 5.1145166, "site_brand": "BP", "country_code": "NL", "address": "Veldwade 22", "city": "NIEUWEGEIN", "state": null, "postcode": "3439 LE", "telephone": "08002727270", "facilities": ["open_24_hours", "high_speed_pump", "truck_suitable_site", "accepts_routex_cards", "automatic_site", "open_saturday", "open_sunday"], "products": ["ad_blue_pump", "diesel_on", "ad_blue"], "website": null, "watchlist_id": null, "formatted_address": "Veldwade 22\n3439 LE\nNIEUWEGEIN", "channel_of_trade": null}, {"id": "NL-1070725319", "name": "BP Express Stiens", "lat": 53.26628, "lng": 5.75014, "site_brand": "BP", "country_code": "NL", "address": "Seerob 4", "city": "STIENS", "state": null, "postcode": "9051 VA", "telephone": "+31 513 657 010", "facilities": ["open_24_hours", "accepts_routex_cards", "open_saturday", "open_sunday"], "products": ["ad_blue_pump", "diesel_on", "unleaded_95", "ad_blue"], "website": null, "watchlist_id": null, "formatted_address": "Seerob 4\n9051 VA\nSTIENS", "channel_of_trade": null}, {"id": "NL-1086192045", "name": "BP De Gagel", "lat": 51.745587, "lng": 5.600309, "site_brand": "BP", "country_code": "NL", "address": "Rijksweg A50", "city": "SCHAYK", "state": null, "postcode": "5374 PJ", "telephone": "+31 486 463 774", "facilities": ["high_speed_pump", "truck_parking", "truck_suitable_site", "toilet", "motorway_site", "albert_heijn", "accepts_routex_cards", "open_saturday", "open_sunday", "mobile_enabled"], "products": ["ad_blue_cannister", "ad_blue_pump", "auto_gas", "diesel_on", "lpg", "truck_diesel", "ultimate", "ultimate_diesel", "ultimate_unleaded", "unleaded_95", "ad_blue"], "website": null, "watchlist_id": null, "formatted_address": "Rijksweg A50\n5374 PJ\nSCHAYK", "channel_of_trade": null}, {"id": "NL-1087216443", "name": "BP Express Katwijk", "lat": 52.202721, "lng": 4.428397, "site_brand": "BP", "country_code": "NL", "address": "Ambachtsweg 1", "city": "KATWIJK ZH", "state": null, "postcode": "2222 AH", "telephone": "08002727270", "facilities": ["open_24_hours", "accepts_routex_cards", "open_saturday", "open_sunday"], "products": ["diesel_on", "ultimate", "ultimate_unleaded", "unleaded_95"], "website": null, "watchlist_id": null, "formatted_address": "Ambachtsweg 1\n2222 AH\nKATWIJK ZH", "channel_of_trade": null}, {"id": "NL-1088557945", "name": "BP express Aalsmeer", "lat": 52.2665591, "lng": 4.8001306, "site_brand": "BP", "country_code": "NL", "address": "Machineweg 301", "city": "AALSMEER", "state": null, "postcode": "1432 ES", "telephone": "08002727270", "facilities": ["open_24_hours", "high_speed_pump", "truck_suitable_site", "accepts_routex_cards", "open_saturday", "open_sunday"], "products": ["diesel_on", "ultimate", "ultimate_diesel", "ultimate_unleaded", "unleaded_95"], "website": null, "watchlist_id": null, "formatted_address": "Machineweg 301\n1432 ES\nAALSMEER", "channel_of_trade": null}, {"id": "NL-1088802234", "name": "BP EXPRESS UITHOORN", "lat": 52.238843, "lng": 4.836248, "site_brand": "BP", "country_code": "NL", "address": "Amsterdamseweg 9", "city": "Uithoorn", "state": null, "postcode": "1422 AC", "telephone": "", "facilities": ["open_24_hours", "accepts_routex_cards", "open_saturday", "open_sunday"], "products": ["diesel_on", "ultimate", "ultimate_unleaded", "unleaded_95"], "website": null, "watchlist_id": null, "formatted_address": "Amsterdamseweg 9\n1422 AC\nUithoorn", "channel_of_trade": null}, {"id": "NL-1095747758", "name": "BP express Alexandrium", "lat": 51.9499323, "lng": 4.550094, "site_brand": "BP", "country_code": "NL", "address": "Koperstraat 14", "city": "ROTTERDAM", "state": null, "postcode": "3067 GL", "telephone": "08002727270", "facilities": ["open_24_hours", "accepts_routex_cards", "open_saturday", "open_sunday"], "products": ["diesel_on", "unleaded_95"], "website": null, "watchlist_id": null, "formatted_address": "Koperstraat 14\n3067 GL\nROTTERDAM", "channel_of_trade": null}, {"id": "NL-1096078242", "name": "BP Orden", "lat": 52.2008786, "lng": 5.9303647, "site_brand": "BP", "country_code": "NL", "address": "Laan van Orden 322", "city": "APELDOORN", "state": null, "postcode": "7312 KX", "telephone": "+31 55 355 1771", "facilities": ["car_wash", "truck_suitable_site", "toilet", "accepts_routex_cards", "open_saturday", "open_sunday", "mobile_enabled"], "products": ["ad_blue_cannister", "diesel_on", "ultimate", "ultimate_diesel", "ultimate_unleaded", "unleaded_95"], "website": null, "watchlist_id": null, "formatted_address": "Laan van Orden 322\n7312 KX\nAPELDOORN", "channel_of_trade": null}, {"id": "NL-1108054829", "name": "BP Zoomseweg", "lat": 52.0286061, "lng": 4.3221024, "site_brand": "BP", "country_code": "NL", "address": "Prinses Beatrixlaan 1147", "city": "RYSWIJK ZH", "state": null, "postcode": "2287 GZ", "telephone": "+31 70 396 6365", "facilities": ["high_speed_pump", "truck_suitable_site", "albert_heijn", "accepts_routex_cards", "open_saturday", "open_sunday", "mobile_enabled"], "products": ["ad_blue_cannister", "diesel_on", "electricity", "lpg", "ultimate", "ultimate_diesel", "ultimate_unleaded", "unleaded_95"], "website": null, "watchlist_id": null, "formatted_address": "Prinses Beatrixlaan 1147\n2287 GZ\nRYSWIJK ZH", "channel_of_trade": null}, {"id": "NL-1108538103", "name": "BP Express Leeuwarden", "lat": 53.205332, "lng": 5.774219, "site_brand": "BP", "country_code": "NL", "address": "Harlingerstraatweg 82", "city": "LEEUWARDEN", "state": null, "postcode": "8915 CN", "telephone": "+31 513 657 010", "facilities": ["open_24_hours", "truck_suitable_site", "accepts_routex_cards", "open_saturday", "open_sunday"], "products": ["diesel_on", "truck_diesel", "ultimate", "ultimate_diesel", "ultimate_unleaded", "unleaded_95"], "website": null, "watchlist_id": null, "formatted_address": "Harlingerstraatweg 82\n8915 CN\nLEEUWARDEN", "channel_of_trade": null}, {"id": "NL-1127730329", "name": "BP EXPRESS ROELOFARENDSVEEN", "lat": 52.198033, "lng": 4.614515, "site_brand": "BP", "country_code": "NL", "address": "Veenderveld 4", "city": "Roelofarendsveen", "state": null, "postcode": "2371 TV", "telephone": "+31 341 411 011", "facilities": ["open_24_hours", "accepts_routex_cards", "open_saturday", "open_sunday"], "products": ["ad_blue_pump", "diesel_on", "ultimate", "ultimate_diesel", "ultimate_unleaded", "unleaded_95", "ad_blue"], "website": null, "watchlist_id": null, "formatted_address": "Veenderveld 4\n2371 TV\nRoelofarendsveen", "channel_of_trade": null}, {"id": "NL-1132433740", "name": "BP Venray", "lat": 51.5178, "lng": 5.97997, "site_brand": "BP", "country_code": "NL", "address": "Leunseweg 47a", "city": "VENRAY", "state": null, "postcode": "5802 CG", "telephone": "+31 478 511 207", "facilities": ["car_wash", "truck_suitable_site", "toilet", "accepts_routex_cards", "open_saturday", "open_sunday", "mobile_enabled"], "products": ["ad_blue_cannister", "ad_blue_pump", "auto_gas", "diesel_on", "lpg", "natural_gas", "truck_diesel", "ultimate", "ultimate_diesel", "ultimate_unleaded", "unleaded_95", "ad_blue"], "website": null, "watchlist_id": null, "formatted_address": "Leunseweg 47a\n5802 CG\nVENRAY", "channel_of_trade": null}, {"id": "NL-1139883085", "name": "BP Express Nijkerk", "lat": 52.2398205, "lng": 5.4820141, "site_brand": "BP", "country_code": "NL", "address": "Smitspol 6", "city": "Nijkerk", "state": null, "postcode": "3861 RS", "telephone": "08002727270", "facilities": ["open_24_hours", "high_speed_pump", "truck_suitable_site", "accepts_routex_cards", "open_saturday", "open_sunday"], "products": ["ad_blue_pump", "diesel_on", "truck_diesel", "ultimate", "ultimate_diesel", "ultimate_unleaded", "unleaded_95", "ad_blue"], "website": null, "watchlist_id": null, "formatted_address": "Smitspol 6\n3861 RS\nNijkerk", "channel_of_trade": null}, {"id": "NL-115622519", "name": "BP 't Groene Land", "lat": 53.1805783, "lng": 6.380825, "site_brand": "BP", "country_code": "NL", "address": "Oude Postweg 1", "city": "MIDWOLDE", "state": null, "postcode": "9355 TR", "telephone": "+31 594 514 209", "facilities": ["high_speed_pump", "truck_suitable_site", "albert_heijn", "accepts_routex_cards", "open_saturday", "open_sunday", "mobile_enabled"], "products": ["ad_blue_cannister", "auto_gas", "diesel_on", "lpg", "ultimate", "ultimate_diesel", "ultimate_unleaded", "unleaded_95"], "website": null, "watchlist_id": null, "formatted_address": "Oude Postweg 1\n9355 TR\nMIDWOLDE", "channel_of_trade": null}, {"id": "NL-1172381067", "name": "BP EXPRESS HEERLEN", "lat": 50.8793867, "lng": 5.970007, "site_brand": "BP", "country_code": "NL", "address": "Welterlaan 44", "city": "Heerlen", "state": null, "postcode": "6411 EB", "telephone": "08002727270", "facilities": ["open_24_hours", "wild_bean_cafe", "accepts_routex_cards", "open_saturday", "open_sunday"], "products": ["diesel_on", "unleaded_95"], "website": null, "watchlist_id": null, "formatted_address": "Welterlaan 44\n6411 EB\nHeerlen", "channel_of_trade": null}, {"id": "NL-1192457010", "name": "BP Ten Bruggencate", "lat": 52.678484, "lng": 4.800313, "site_brand": "BP", "country_code": "NL", "address": "Hornweg 6", "city": "BROEK OP LANGEDIJK", "state": null, "postcode": "1721 CV", "telephone": "+31 226 314 416", "facilities": ["car_wash", "high_speed_pump", "truck_parking", "truck_suitable_site", "toilet", "accepts_routex_cards", "open_saturday", "open_sunday"], "products": ["ad_blue_cannister", "ad_blue_pump", "auto_gas", "diesel_on", "lpg", "truck_diesel", "ultimate", "ultimate_diesel", "ultimate_unleaded", "unleaded_95", "ad_blue"], "website": null, "watchlist_id": null, "formatted_address": "Hornweg 6\n1721 CV\nBROEK OP LANGEDIJK", "channel_of_trade": null}, {"id": "NL-1193483657", "name": "BP Bolnes", "lat": 51.8945173, "lng": 4.5845155, "site_brand": "BP", "country_code": "NL", "address": "Beneden rijweg 184", "city": "RIDDERKERK", "state": null, "postcode": "2987 VB", "telephone": "+31 88 313 0229", "facilities": ["car_wash", "truck_suitable_site", "toilet", "accepts_routex_cards", "open_saturday", "open_sunday", "mobile_enabled"], "products": ["ad_blue_cannister", "diesel_on", "lpg", "truck_diesel", "ultimate", "ultimate_diesel", "ultimate_unleaded", "unleaded_95"], "website": null, "watchlist_id": null, "formatted_address": "Beneden rijweg 184\n2987 VB\nRIDDERKERK", "channel_of_trade": null}, {"id": "NL-119475872", "name": "BP Hoefplan", "lat": 52.6353158, "lng": 4.7198456, "site_brand": "BP", "country_code": "NL", "address": "Martin Luther Kingweg 10", "city": "ALKMAAR", "state": null, "postcode": "1816 ML", "telephone": "+31 72 512 0772", "facilities": ["high_speed_pump", "truck_suitable_site", "toilet", "albert_heijn", "accepts_routex_cards", "open_saturday", "open_sunday", "mobile_enabled"], "products": ["ad_blue_cannister", "auto_gas", "diesel_on", "lpg", "ultimate", "ultimate_diesel", "ultimate_unleaded", "unleaded_95"], "website": null, "watchlist_id": null, "formatted_address": "Martin Luther Kingweg 10\n1816 ML\nALKMAAR", "channel_of_trade": null}, {"id": "NL-1228853355", "name": "BP express Molenvliet", "lat": 51.8844, "lng": 4.5224, "site_brand": "BP", "country_code": "NL", "address": "Molenvliet 14", "city": "ROTTERDAM", "state": null, "postcode": "3076 CK", "telephone": "08002727270", "facilities": ["open_24_hours", "accepts_routex_cards", "open_saturday", "open_sunday"], "products": ["diesel_on", "unleaded_95"], "website": null, "watchlist_id": null, "formatted_address": "Molenvliet 14\n3076 CK\nROTTERDAM", "channel_of_trade": null}, {"id": "NL-1276387471", "name": "BP Heuthorst", "lat": 51.876879, "lng": 6.38208, "site_brand": "BP", "country_code": "NL", "address": "Industrieweg 29", "city": "GENDRINGEN", "state": null, "postcode": "7081 AD", "telephone": "+31 315 681 295", "facilities": ["car_wash", "high_speed_pump", "truck_parking", "truck_suitable_site", "toilet", "accepts_routex_cards", "open_saturday", "open_sunday", "mobile_enabled"], "products": ["ad_blue_cannister", "ad_blue_pump", "auto_gas", "diesel_on", "lpg", "truck_diesel", "ultimate", "ultimate_diesel", "ultimate_unleaded", "unleaded_95", "ad_blue"], "website": null, "watchlist_id": null, "formatted_address": "Industrieweg 29\n7081 AD\nGENDRINGEN", "channel_of_trade": null}, {"id": "NL-1298380998", "name": "BP express Zelhem", "lat": 52.0008609, "lng": 6.3451731, "site_brand": "BP", "country_code": "NL", "address": "Doetinchemseweg 53", "city": "ZELHEM", "state": null, "postcode": "7021 BR", "telephone": "08002727270", "facilities": ["open_24_hours", "accepts_routex_cards", "open_saturday", "open_sunday"], "products": ["auto_gas", "diesel_on", "electricity", "lpg", "ultimate", "ultimate_unleaded", "unleaded_95"], "website": null, "watchlist_id": null, "formatted_address": "Doetinchemseweg 53\n7021 BR\nZELHEM", "channel_of_trade": null}, {"id": "NL-1302520595", "name": "BP Express Hilversum", "lat": 52.2130385, "lng": 5.1486598, "site_brand": "BP", "country_code": "NL", "address": "Loosdrechtseweg 200", "city": "HILVERSUM", "state": null, "postcode": "1215 KD", "telephone": "08002727270", "facilities": ["accepts_routex_cards", "open_saturday", "open_sunday"], "products": ["diesel_on", "electricity", "ultimate", "ultimate_unleaded", "unleaded_95"], "website": null, "watchlist_id": null, "formatted_address": "Loosdrechtseweg 200\n1215 KD\nHILVERSUM", "channel_of_trade": null}, {"id": "NL-1305283721", "name": "BP 't Hazennest", "lat": 51.584498, "lng": 5.110035, "site_brand": "BP", "country_code": "NL", "address": "Burg. Bechtweg 50", "city": "TILBURG", "state": null, "postcode": "5012 TL", "telephone": "+31 13 455 7745", "facilities": ["high_speed_pump", "truck_suitable_site", "toilet", "albert_heijn", "accepts_routex_cards", "shop_open_24_hours", "open_saturday", "mobile_enabled"], "products": ["ad_blue_cannister", "auto_gas", "diesel_on", "electricity", "lpg", "ultimate", "ultimate_diesel", "ultimate_unleaded", "unleaded_95"], "website": null, "watchlist_id": null, "formatted_address": "Burg. Bechtweg 50\n5012 TL\nTILBURG", "channel_of_trade": null}, {"id": "NL-1305386113", "name": "BP Ockenburgh", "lat": 52.058753, "lng": 4.225799, "site_brand": "BP", "country_code": "NL", "address": "Ockenburghstraat 35", "city": "S-GRAVENHAGE", "state": null, "postcode": "2553 AA", "telephone": "+31 70 397 2532", "facilities": ["car_wash", "toilet", "albert_heijn", "accepts_routex_cards", "shop_open_24_hours", "open_saturday", "open_sunday", "mobile_enabled"], "products": ["ad_blue_cannister", "auto_gas", "diesel_on", "lpg", "ultimate", "ultimate_diesel", "ultimate_unleaded", "unleaded_95"], "website": null, "watchlist_id": null, "formatted_address": "Ockenburghstraat 35\n2553 AA\nS-GRAVENHAGE", "channel_of_trade": null}, {"id": "NL-1323972780", "name": "BP Express Soesterberg", "lat": 52.1235278, "lng": 5.2877068, "site_brand": "BP", "country_code": "NL", "address": "Amersfoortsestraat 13 N237", "city": "SOESTERBERG", "state": null, "postcode": "3769 AD", "telephone": "08002727270", "facilities": ["open_24_hours", "high_speed_pump", "truck_suitable_site", "accepts_routex_cards", "open_saturday", "open_sunday"], "products": ["diesel_on", "lpg", "ultimate", "ultimate_diesel", "ultimate_unleaded", "unleaded_95"], "website": null, "watchlist_id": null, "formatted_address": "Amersfoortsestraat 13 N237\n3769 AD\nSOESTERBERG", "channel_of_trade": null}, {"id": "NL-13262", "name": "BP De Sonse Heide", "lat": 51.535977, "lng": 5.479521, "site_brand": "BP", "country_code": "NL", "address": "Rijksweg A50", "city": "SON EN BREUGEL", "state": null, "postcode": "5691 PL", "telephone": "+31 88 313 0242", "facilities": ["open_24_hours", "high_speed_pump", "truck_parking", "truck_suitable_site", "toilet", "motorway_site", "wild_bean_cafe", "accepts_routex_cards", "shop_open_24_hours", "open_saturday", "open_sunday"], "products": ["ad_blue_cannister", "ad_blue_pump", "auto_gas", "diesel_on", "lpg", "ultimate", "ultimate_diesel", "ultimate_unleaded", "unleaded_95", "ad_blue"], "website": null, "watchlist_id": null, "formatted_address": "Rijksweg A50\n5691 PL\nSON EN BREUGEL", "channel_of_trade": null}, {"id": "NL-133153002", "name": "BP Weesp", "lat": 52.3025351, "lng": 5.0355148, "site_brand": "BP", "country_code": "NL", "address": "Gooilandseweg 2", "city": "WEESP", "state": null, "postcode": "1381 HR", "telephone": "+31 88 313 0150", "facilities": ["car_wash", "truck_suitable_site", "toilet", "accepts_routex_cards", "open_saturday", "open_sunday", "mobile_enabled"], "products": ["ad_blue_cannister", "ad_blue_pump", "auto_gas", "diesel_on", "lpg", "truck_diesel", "ultimate", "ultimate_diesel", "ultimate_unleaded", "unleaded_95", "ad_blue"], "website": null, "watchlist_id": null, "formatted_address": "Gooilandseweg 2\n1381 HR\nWEESP", "channel_of_trade": null}, {"id": "NL-1337097018", "name": "BP Lingehorst", "lat": 51.9115158, "lng": 5.1806867, "site_brand": "BP", "country_code": "NL", "address": "Rijksweg A2", "city": "BEESD", "state": null, "postcode": "4153 RL", "telephone": "+31 345 681 548", "facilities": ["open_24_hours", "high_speed_pump", "truck_parking", "truck_suitable_site", "toilet", "motorway_site", "albert_heijn", "accepts_routex_cards", "shop_open_24_hours", "open_saturday", "open_sunday", "mobile_enabled"], "products": ["ad_blue_cannister", "ad_blue_pump", "auto_gas", "diesel_on", "lpg", "truck_diesel", "ultimate", "ultimate_diesel", "ultimate_unleaded", "unleaded_95", "ad_blue"], "website": null, "watchlist_id": null, "formatted_address": "Rijksweg A2\n4153 RL\nBEESD", "channel_of_trade": null}, {"id": "NL-13428", "name": "De Hoef", "lat": 51.7355784, "lng": 5.5358892, "site_brand": "BP", "country_code": "NL", "address": "Nistelrodeseweg 3", "city": "HEESCH", "state": null, "postcode": "5384 BA", "telephone": "+31 412 451 422", "facilities": ["truck_suitable_site", "accepts_routex_cards", "open_saturday", "open_sunday", "mobile_enabled"], "products": ["ad_blue_cannister", "auto_gas", "diesel_on", "lpg", "natural_gas", "ultimate", "ultimate_diesel", "ultimate_unleaded", "unleaded_95"], "website": null, "watchlist_id": null, "formatted_address": "Nistelrodeseweg 3\n5384 BA\nHEESCH", "channel_of_trade": null}, {"id": "NL-13534", "name": "BP Stad van de Zon", "lat": 52.638115, "lng": 4.805788, "site_brand": "BP", "country_code": "NL", "address": "Oosttangent 2", "city": "HEERHUGOWAARD", "state": null, "postcode": "1705 PA", "telephone": "+31 72 534 6914", "facilities": ["car_wash", "truck_suitable_site", "toilet", "albert_heijn", "accepts_routex_cards", "open_saturday", "open_sunday"], "products": ["ad_blue_cannister", "auto_gas", "diesel_on", "lpg", "truck_diesel", "ultimate", "ultimate_diesel", "ultimate_unleaded", "unleaded_95"], "website": null, "watchlist_id": null, "formatted_address": "Oosttangent 2\n1705 PA\nHEERHUGOWAARD", "channel_of_trade": null}, {"id": "NL-13551", "name": "BP Charlois 2 (Noordzijde)", "lat": 51.869401, "lng": 4.451777, "site_brand": "BP", "country_code": "NL", "address": "Groene Kruisweg 389", "city": "ROTTERDAM", "state": null, "postcode": "3088 NB", "telephone": "+31 88 313 0243", "facilities": ["open_24_hours", "toilet", "accepts_routex_cards", "open_saturday", "open_sunday"], "products": ["ad_blue_cannister", "ad_blue_pump", "auto_gas", "diesel_on", "lpg", "ultimate", "ultimate_diesel", "ultimate_unleaded", "unleaded_95", "ad_blue"], "website": null, "watchlist_id": null, "formatted_address": "Groene Kruisweg 389\n3088 NB\nROTTERDAM", "channel_of_trade": null}, {"id": "NL-13552", "name": "BP Charlois 1 (Zuidzijde)", "lat": 51.868732, "lng": 4.450431, "site_brand": "BP", "country_code": "NL", "address": "Groene Kruisweg 380", "city": "ROTTERDAM", "state": null, "postcode": "3088 NB", "telephone": "+31 88 313 0244", "facilities": ["open_24_hours", "toilet", "accepts_routex_cards", "open_saturday", "open_sunday"], "products": ["ad_blue_cannister", "ad_blue_pump", "auto_gas", "diesel_on", "lpg", "ultimate", "ultimate_diesel", "ultimate_unleaded", "unleaded_95", "ad_blue"], "website": null, "watchlist_id": null, "formatted_address": "Groene Kruisweg 380\n3088 NB\nROTTERDAM", "channel_of_trade": null}, {"id": "NL-1365500862", "name": "BP express Voorburg", "lat": 52.0853607, "lng": 4.3796825, "site_brand": "BP", "country_code": "NL", "address": "Prins Bernhardlaan 516", "city": "VOORBURG", "state": null, "postcode": "2272 ZZ", "telephone": "08002727270", "facilities": ["open_24_hours", "accepts_routex_cards", "open_saturday", "open_sunday"], "products": ["diesel_on", "ultimate", "ultimate_diesel", "ultimate_unleaded", "unleaded_95"], "website": null, "watchlist_id": null, "formatted_address": "Prins Bernhardlaan 516\n2272 ZZ\nVOORBURG", "channel_of_trade": null}, {"id": "NL-1379866468", "name": "BP Sandelingen WZ", "lat": 51.8368878, "lng": 4.6163043, "site_brand": "BP", "country_code": "NL", "address": "Rijksweg A16", "city": "Hendrik-Ido Ambacht", "state": null, "postcode": "3342 LE", "telephone": "+31 78 619 8606", "facilities": ["open_24_hours", "high_speed_pump", "truck_suitable_site", "toilet", "wifi", "motorway_site", "albert_heijn", "accepts_routex_cards", "shop_open_24_hours", "open_saturday", "open_sunday", "mobile_enabled"], "products": ["ad_blue_cannister", "ad_blue_pump", "auto_gas", "diesel_on", "lpg", "ultimate", "ultimate_diesel", "ultimate_unleaded", "unleaded_95", "ad_blue"], "website": null, "watchlist_id": null, "formatted_address": "Rijksweg A16\n3342 LE\nHendrik-Ido Ambacht", "channel_of_trade": null}, {"id": "NL-1381238687", "name": "BP express IJmuiden", "lat": 52.45879, "lng": 4.59808, "site_brand": "BP", "country_code": "NL", "address": "Dokweg 14", "city": "IJMUIDEN", "state": null, "postcode": "1976 CA", "telephone": "08002727270", "facilities": ["high_speed_pump", "truck_suitable_site", "accepts_routex_cards", "open_saturday", "open_sunday"], "products": ["diesel_on", "ultimate", "ultimate_unleaded", "unleaded_95"], "website": null, "watchlist_id": null, "formatted_address": "Dokweg 14\n1976 CA\nIJMUIDEN", "channel_of_trade": null}, {"id": "NL-1382060133", "name": "BP express Lisse", "lat": 52.265649, "lng": 4.558156, "site_brand": "BP", "country_code": "NL", "address": "Heereweg 50", "city": "LISSE", "state": null, "postcode": "2161 AH", "telephone": "08002727270", "facilities": ["open_24_hours", "accepts_routex_cards", "open_saturday", "open_sunday"], "products": ["diesel_on", "unleaded_95"], "website": null, "watchlist_id": null, "formatted_address": "Heereweg 50\n2161 AH\nLISSE", "channel_of_trade": null}, {"id": "NL-1391304359", "name": "BP 'T VEEN", "lat": 52.3966265, "lng": 6.0140016, "site_brand": "BP", "country_code": "NL", "address": "Rijksweg A50 1", "city": "Heerde", "state": null, "postcode": "8181 MH", "telephone": "+31 88 313 0165", "facilities": ["open_24_hours", "motorway_site", "accepts_routex_cards", "open_saturday", "open_sunday"], "products": ["ad_blue_cannister", "ad_blue_pump", "auto_gas", "diesel_on", "lpg", "ultimate", "ultimate_unleaded", "unleaded_95", "ad_blue"], "website": null, "watchlist_id": null, "formatted_address": "Rijksweg A50 1\n8181 MH\nHeerde", "channel_of_trade": null}, {"id": "NL-1392672886", "name": "BP Express Helmond", "lat": 51.4496576, "lng": 5.7080063, "site_brand": "BP", "country_code": "NL", "address": "Heibloemweg 1", "city": "HELMOND", "state": null, "postcode": "5704 BS", "telephone": "08002727270", "facilities": ["open_24_hours", "high_speed_pump", "truck_suitable_site", "accepts_routex_cards", "open_saturday", "open_sunday"], "products": ["ad_blue_pump", "diesel_on", "truck_diesel", "unleaded_95", "ad_blue"], "website": null, "watchlist_id": null, "formatted_address": "Heibloemweg 1\n5704 BS\nHELMOND", "channel_of_trade": null}, {"id": "NL-1393582500", "name": "BP Nieuwe Hemweg", "lat": 52.393645, "lng": 4.8650242, "site_brand": "BP", "country_code": "NL", "address": "Nieuwe Hemweg 11", "city": "AMSTERDAM", "state": null, "postcode": "1013 BG", "telephone": "+31 20 488 9513", "facilities": ["open_24_hours", "car_wash", "truck_suitable_site", "toilet", "wifi", "supermarket", "albert_heijn", "accepts_routex_cards", "shop_open_24_hours", "open_saturday", "open_sunday", "mobile_enabled"], "products": ["ad_blue_cannister", "auto_gas", "diesel_on", "electricity", "lpg", "truck_diesel", "ultimate", "ultimate_diesel", "ultimate_unleaded", "unleaded_95"], "website": null, "watchlist_id": null, "formatted_address": "Nieuwe Hemweg 11\n1013 BG\nAMSTERDAM", "channel_of_trade": null}, {"id": "NL-1409101452", "name": "47558 Bolsward BP Bij de Weg Tank Carwash-Center BV", "lat": 53.0637278, "lng": 5.5105769, "site_brand": "BP", "country_code": "NL", "address": "Twibaksdyk 6", "city": "BOLSWARD", "state": null, "postcode": "8701 PP", "telephone": "+31 515 574 475", "facilities": ["car_wash", "accepts_routex_cards", "open_saturday", "open_sunday", "mobile_enabled"], "products": ["ad_blue_cannister", "diesel_on", "ultimate", "ultimate_unleaded", "unleaded_95"], "website": null, "watchlist_id": null, "formatted_address": "Twibaksdyk 6\n8701 PP\nBOLSWARD", "channel_of_trade": null}, {"id": "NL-14539", "name": "BP De IJssel", "lat": 52.028416, "lng": 5.062809, "site_brand": "BP", "country_code": "NL", "address": "Rijksweg A2", "city": "NIEUWEGEIN", "state": null, "postcode": "3437 PV", "telephone": "+31 85 086 1216", "facilities": ["open_24_hours", "high_speed_pump", "truck_parking", "truck_suitable_site", "toilet", "motorway_site", "wild_bean_cafe", "accepts_routex_cards", "shop_open_24_hours", "open_saturday", "open_sunday", "mobile_enabled"], "products": ["ad_blue_cannister", "ad_blue_pump", "auto_gas", "diesel_on", "lpg", "truck_diesel", "ultimate", "ultimate_diesel", "ultimate_unleaded", "unleaded_95", "ad_blue"], "website": null, "watchlist_id": null, "formatted_address": "Rijksweg A2\n3437 PV\nNIEUWEGEIN", "channel_of_trade": null}, {"id": "NL-1473148728", "name": "BP express Rouveen", "lat": 52.585665, "lng": 6.192124, "site_brand": "BP", "country_code": "NL", "address": "Oude Rijksweg 510", "city": "ROUVEEN", "state": null, "postcode": "7954 GG", "telephone": "08002727270", "facilities": ["open_24_hours", "high_speed_pump", "truck_suitable_site", "accepts_routex_cards", "open_saturday", "open_sunday"], "products": ["ad_blue_pump", "diesel_on", "electricity", "unleaded_95", "ad_blue"], "website": null, "watchlist_id": null, "formatted_address": "Oude Rijksweg 510\n7954 GG\nROUVEEN", "channel_of_trade": null}, {"id": "NL-1477242530", "name": "47719 Sita Alphen a/d Rijn", "lat": 52.1169211, "lng": 4.6876482, "site_brand": "BP", "country_code": "NL", "address": "Steekterweg 67", "city": "ALPHEN AAN DEN RIJN", "state": null, "postcode": "2407 BE", "telephone": "08002727270", "facilities": ["open_24_hours", "accepts_routex_cards", "automatic_site", "open_saturday", "open_sunday"], "products": ["diesel_on"], "website": null, "watchlist_id": null, "formatted_address": "Steekterweg 67\n2407 BE\nALPHEN AAN DEN RIJN", "channel_of_trade": null}, {"id": "NL-152104282", "name": "BP De Keern", "lat": 52.645025, "lng": 5.049501, "site_brand": "BP", "country_code": "NL", "address": "Keern 17", "city": "HOORN", "state": null, "postcode": "1622 NA", "telephone": "+31 229 216 556", "facilities": ["car_wash", "truck_suitable_site", "toilet", "albert_heijn", "accepts_routex_cards", "open_saturday", "open_sunday", "mobile_enabled"], "products": ["ad_blue_cannister", "auto_gas", "diesel_on", "electricity", "lpg", "ultimate", "ultimate_diesel", "ultimate_unleaded", "unleaded_95"], "website": null, "watchlist_id": null, "formatted_address": "Keern 17\n1622 NA\nHOORN", "channel_of_trade": null}, {"id": "NL-1545605460", "name": "BP Goudseweg", "lat": 52.066382, "lng": 4.737821, "site_brand": "BP", "country_code": "NL", "address": "Goudseweg 34", "city": "BODEGRAVEN", "state": null, "postcode": "2411 HL", "telephone": "+31 88 313 0066", "facilities": ["truck_suitable_site", "accepts_routex_cards", "open_saturday", "open_sunday", "mobile_enabled"], "products": ["ad_blue_cannister", "ad_blue_pump", "auto_gas", "diesel_on", "lpg", "truck_diesel", "ultimate", "ultimate_diesel", "ultimate_unleaded", "unleaded_95", "ad_blue"], "website": null, "watchlist_id": null, "formatted_address": "Goudseweg 34\n2411 HL\nBODEGRAVEN", "channel_of_trade": null}, {"id": "NL-1553196614", "name": "BP VSDV BEIRAWEG AMSTERDAM", "lat": 52.405418, "lng": 4.74942, "site_brand": "BP", "country_code": "NL", "address": "Beiraweg 5", "city": "Amsterdam", "state": null, "postcode": "1047 HN", "telephone": "+31 20 587 9600", "facilities": ["accepts_routex_cards", "automatic_site"], "products": ["ad_blue_pump", "diesel_on", "ad_blue"], "website": null, "watchlist_id": null, "formatted_address": "Beiraweg 5\n1047 HN\nAmsterdam", "channel_of_trade": null}, {"id": "NL-1560176277", "name": "BP Hintham", "lat": 51.699041, "lng": 5.34734, "site_brand": "BP", "country_code": "NL", "address": "Jan Heymanslaan 92", "city": "ROSMALEN", "state": null, "postcode": "5246 BM", "telephone": "+31 88 313 0247", "facilities": ["car_wash", "truck_suitable_site", "toilet", "wild_bean_cafe", "accepts_routex_cards", "open_saturday", "open_sunday", "mobile_enabled"], "products": ["ad_blue_cannister", "diesel_on", "truck_diesel", "ultimate", "ultimate_diesel", "ultimate_unleaded", "unleaded_95"], "website": null, "watchlist_id": null, "formatted_address": "Jan Heymanslaan 92\n5246 BM\nROSMALEN", "channel_of_trade": null}, {"id": "NL-1561595494", "name": "BP De Hucht", "lat": 52.18535, "lng": 5.8919, "site_brand": "BP", "country_code": "NL", "address": "Rijksweg A1 779", "city": "UGCHELEN", "state": null, "postcode": "7339 ET", "telephone": "+31 55 533 4134", "facilities": ["open_24_hours", "high_speed_pump", "truck_parking", "truck_suitable_site", "toilet", "motorway_site", "albert_heijn", "accepts_routex_cards", "shop_open_24_hours", "open_saturday", "open_sunday", "mobile_enabled"], "products": ["ad_blue_cannister", "ad_blue_pump", "auto_gas", "diesel_on", "electricity", "lpg", "truck_diesel", "ultimate", "ultimate_diesel", "ultimate_unleaded", "unleaded_95", "ad_blue"], "website": null, "watchlist_id": null, "formatted_address": "Rijksweg A1 779\n7339 ET\nUGCHELEN", "channel_of_trade": null}, {"id": "NL-1564282597", "name": "BP Ypenburg", "lat": 52.0486215, "lng": 4.3471, "site_brand": "BP", "country_code": "NL", "address": "Laan van Hoornwijk 70", "city": "RIJSWIJK", "state": null, "postcode": "2289 DG", "telephone": "+31 70 307 0468", "facilities": ["open_24_hours", "car_wash", "truck_suitable_site", "toilet", "supermarket", "albert_heijn", "accepts_routex_cards", "shop_open_24_hours", "open_saturday", "open_sunday", "mobile_enabled"], "products": ["ad_blue_cannister", "auto_gas", "diesel_on", "electricity", "lpg", "ultimate", "ultimate_diesel", "ultimate_unleaded", "unleaded_95"], "website": null, "watchlist_id": null, "formatted_address": "Laan van Hoornwijk 70\n2289 DG\nRIJSWIJK", "channel_of_trade": null}, {"id": "NL-1578622362", "name": "BP VISSERS TRUCK HORST", "lat": 51.43985, "lng": 6.05373, "site_brand": "BP", "country_code": "NL", "address": "Handelstraat 5a", "city": "Horst", "state": null, "postcode": "5961 PV", "telephone": "+31 77 399 9200", "facilities": ["open_24_hours", "accepts_routex_cards", "automatic_site", "open_saturday", "open_sunday"], "products": ["ad_blue_pump", "diesel_on", "ad_blue"], "website": null, "watchlist_id": null, "formatted_address": "Handelstraat 5a\n5961 PV\nHorst", "channel_of_trade": null}, {"id": "NL-1581221312", "name": "BP express Zwanenburg", "lat": 52.3659, "lng": 4.73845, "site_brand": "BP", "country_code": "NL", "address": "IJweg 341", "city": "ZWANENBURG", "state": null, "postcode": "1161 EZ", "telephone": "08002727270", "facilities": ["open_24_hours", "high_speed_pump", "truck_suitable_site", "accepts_routex_cards", "open_saturday", "open_sunday"], "products": ["diesel_on", "ultimate", "ultimate_diesel", "ultimate_unleaded", "unleaded_95"], "website": null, "watchlist_id": null, "formatted_address": "IJweg 341\n1161 EZ\nZWANENBURG", "channel_of_trade": null}, {"id": "NL-1591797840", "name": "BP VSDV ZWAAGDIJK OOST", "lat": 52.70438, "lng": 5.15237, "site_brand": "BP", "country_code": "NL", "address": "Groothandelsmarkt 8-10", "city": "Zwaagdijk", "state": null, "postcode": "1681 NN", "telephone": "+31 228 587 838", "facilities": ["accepts_routex_cards", "automatic_site"], "products": ["ad_blue_pump", "diesel_on", "ad_blue"], "website": null, "watchlist_id": null, "formatted_address": "Groothandelsmarkt 8-10\n1681 NN\nZwaagdijk", "channel_of_trade": null}, {"id": "NL-1595932583", "name": "BP VISSERS SLIEDRECHT", "lat": 51.8326262, "lng": 4.7381084, "site_brand": "BP", "country_code": "NL", "address": "Sopraanweg 5", "city": "Sliedrecht", "state": null, "postcode": "3363 LS", "telephone": "+31 77 399 9215", "facilities": ["open_24_hours", "car_wash", "truck_suitable_site", "motorway_site", "accepts_routex_cards", "open_saturday", "open_sunday", "mobile_enabled"], "products": ["ad_blue_cannister", "ad_blue_pump", "diesel_on", "truck_diesel", "ultimate", "ultimate_diesel", "ultimate_unleaded", "unleaded_95", "ad_blue"], "website": null, "watchlist_id": null, "formatted_address": "Sopraanweg 5\n3363 LS\nSliedrecht", "channel_of_trade": null}, {"id": "NL-16027317", "name": "BP VISSERS WITTEM", "lat": 50.81105, "lng": 5.91651, "site_brand": "BP", "country_code": "NL", "address": "Rijksweg 4A", "city": "Wittem", "state": null, "postcode": "6286 AG", "telephone": "+31 85 086 1299", "facilities": ["car_wash", "truck_suitable_site", "accepts_routex_cards", "mobile_enabled"], "products": ["ad_blue_cannister", "ad_blue_pump", "auto_gas", "diesel_on", "lpg", "truck_diesel", "ultimate", "ultimate_diesel", "ultimate_unleaded", "unleaded_95", "ad_blue"], "website": null, "watchlist_id": "16027317", "formatted_address": "Rijksweg 4A\n6286 AG\nWittem", "channel_of_trade": null}, {"id": "NL-1624452402", "name": "BP Lopik (Overzijde)", "lat": 51.9785892, "lng": 4.9784588, "site_brand": "BP", "country_code": "NL", "address": "M.A. Reinaldaweg t/o 10", "city": "LOPIK", "state": null, "postcode": "3411 MB", "telephone": "08002727270", "facilities": ["open_24_hours", "truck_suitable_site", "toilet", "accepts_routex_cards", "open_saturday", "open_sunday", "mobile_enabled"], "products": ["ad_blue_cannister", "diesel_on", "lpg", "truck_diesel", "ultimate", "ultimate_diesel", "ultimate_unleaded", "unleaded_95"], "website": null, "watchlist_id": null, "formatted_address": "M.A. Reinaldaweg t/o 10\n3411 MB\nLOPIK", "channel_of_trade": null}, {"id": "NL-16262", "name": "BP De Wildeman (Automaat-trucks)", "lat": 51.7963544, "lng": 5.2741944, "site_brand": "BP", "country_code": "NL", "address": "Bossekamp 4a", "city": "ZALTBOMMEL", "state": null, "postcode": "5301 LZ", "telephone": "08002727270", "facilities": ["open_24_hours", "high_speed_pump", "truck_suitable_site", "accepts_routex_cards", "automatic_site", "open_saturday", "open_sunday"], "products": ["ad_blue_pump", "auto_gas", "diesel_on", "ad_blue"], "website": null, "watchlist_id": null, "formatted_address": "Bossekamp 4a\n5301 LZ\nZALTBOMMEL", "channel_of_trade": null}, {"id": "NL-1630571898", "name": "BP De Houtakker", "lat": 51.8953974, "lng": 5.9111177, "site_brand": "BP", "country_code": "NL", "address": "De Houtakker 2 B", "city": "BEMMEL", "state": null, "postcode": "6681 CW", "telephone": "+31 481 461 115", "facilities": ["car_wash", "high_speed_pump", "truck_suitable_site", "toilet", "albert_heijn", "accepts_routex_cards", "open_saturday", "open_sunday", "mobile_enabled"], "products": ["ad_blue_cannister", "auto_gas", "diesel_on", "lpg", "truck_diesel", "ultimate", "ultimate_diesel", "ultimate_unleaded", "unleaded_95"], "website": null, "watchlist_id": null, "formatted_address": "De Houtakker 2 B\n6681 CW\nBEMMEL", "channel_of_trade": null}, {"id": "NL-164816949", "name": "BP Slump On Sneek", "lat": 53.019691, "lng": 5.654504, "site_brand": "BP", "country_code": "NL", "address": "Lemmerweg 63", "city": "SNEEK", "state": null, "postcode": "8608 JL", "telephone": "+31 515 434 588", "facilities": ["car_wash", "high_speed_pump", "truck_suitable_site", "toilet", "accepts_routex_cards", "open_saturday", "open_sunday", "mobile_enabled"], "products": ["ad_blue_cannister", "ad_blue_pump", "diesel_on", "red_diesel", "truck_diesel", "ultimate", "ultimate_diesel", "ultimate_unleaded", "unleaded_95", "ad_blue"], "website": null, "watchlist_id": null, "formatted_address": "Lemmerweg 63\n8608 JL\nSNEEK", "channel_of_trade": null}, {"id": "NL-1665306260", "name": "BP Venneperweg", "lat": 52.266432, "lng": 4.63108, "site_brand": "BP", "country_code": "NL", "address": "Venneperweg 533", "city": "NIEUW VENNEP", "state": null, "postcode": "2152 CB", "telephone": "+31 88 313 0222", "facilities": ["truck_suitable_site", "toilet", "accepts_routex_cards", "open_saturday", "open_sunday", "mobile_enabled"], "products": ["ad_blue_cannister", "diesel_on", "ultimate", "ultimate_unleaded", "unleaded_95"], "website": null, "watchlist_id": null, "formatted_address": "Venneperweg 533\n2152 CB\nNIEUW VENNEP", "channel_of_trade": null}, {"id": "NL-166588940", "name": "BP De Voldijn", "lat": 51.4041536, "lng": 5.4620826, "site_brand": "BP", "country_code": "NL", "address": "Burg. Mollaan 1a", "city": "WAALRE", "state": null, "postcode": "5582 CJ", "telephone": "+31 85 487 3134", "facilities": ["car_wash", "truck_suitable_site", "albert_heijn", "accepts_routex_cards", "open_saturday", "open_sunday", "mobile_enabled"], "products": ["ad_blue_cannister", "diesel_on", "electricity", "truck_diesel", "ultimate", "ultimate_diesel", "ultimate_unleaded", "unleaded_95"], "website": null, "watchlist_id": null, "formatted_address": "Burg. Mollaan 1a\n5582 CJ\nWAALRE", "channel_of_trade": null}, {"id": "NL-1667245194", "name": "BP Express Deurne", "lat": 51.4539566, "lng": 5.796648, "site_brand": "BP", "country_code": "NL", "address": "Liesselseweg 114", "city": "DEURNE", "state": null, "postcode": "5753 PP", "telephone": "08002727270", "facilities": ["open_24_hours", "high_speed_pump", "truck_suitable_site", "accepts_routex_cards", "open_saturday", "open_sunday"], "products": ["diesel_on", "unleaded_95"], "website": null, "watchlist_id": null, "formatted_address": "Liesselseweg 114\n5753 PP\nDEURNE", "channel_of_trade": null}, {"id": "NL-1677267815", "name": "47725 BP Express Snelliusweg", "lat": 51.972607, "lng": 5.932061, "site_brand": "BP", "country_code": "NL", "address": "Snelliusweg 30-1", "city": "ARNHEM", "state": null, "postcode": "6827 DH", "telephone": "08002727270", "facilities": ["open_24_hours", "accepts_routex_cards", "open_saturday", "open_sunday"], "products": ["diesel_on", "unleaded_95"], "website": null, "watchlist_id": null, "formatted_address": "Snelliusweg 30-1\n6827 DH\nARNHEM", "channel_of_trade": null}, {"id": "NL-1677373829", "name": "BP de Haven", "lat": 53.1103297, "lng": 6.0565347, "site_brand": "BP", "country_code": "NL", "address": "De Meerpaal 11", "city": "DRACHTEN", "state": null, "postcode": "9206 AJ", "telephone": "+31 513 657 010", "facilities": ["open_24_hours", "accepts_routex_cards", "open_saturday", "open_sunday"], "products": ["ad_blue_pump", "diesel_on", "unleaded_95", "ad_blue"], "website": null, "watchlist_id": null, "formatted_address": "De Meerpaal 11\n9206 AJ\nDRACHTEN", "channel_of_trade": null}, {"id": "NL-1716666023", "name": "BP De Bolder", "lat": 52.25275, "lng": 6.430382, "site_brand": "BP", "country_code": "NL", "address": "Rijksweg A1 5", "city": "HOLTEN", "state": null, "postcode": "7451 NX", "telephone": "+31 548 362 271", "facilities": ["open_24_hours", "high_speed_pump", "truck_parking", "truck_suitable_site", "toilet", "motorway_site", "albert_heijn", "accepts_routex_cards", "shop_open_24_hours", "open_saturday", "open_sunday", "mobile_enabled"], "products": ["ad_blue_cannister", "ad_blue_pump", "auto_gas", "diesel_on", "electricity", "lpg", "truck_diesel", "ultimate", "ultimate_diesel", "ultimate_unleaded", "unleaded_95", "ad_blue"], "website": null, "watchlist_id": null, "formatted_address": "Rijksweg A1 5\n7451 NX\nHOLTEN", "channel_of_trade": null}, {"id": "NL-1737484194", "name": "BP WATERINGEN", "lat": 52.01386, "lng": 4.28047, "site_brand": "BP", "country_code": "NL", "address": "Wippolderlaan 1", "city": "Wateringen", "state": null, "postcode": "2291 HG", "telephone": "+31 174 290 542", "facilities": ["open_24_hours", "car_wash", "albert_heijn", "accepts_routex_cards", "open_saturday", "open_sunday", "mobile_enabled"], "products": ["ad_blue_cannister", "ad_blue_pump", "auto_gas", "diesel_on", "electricity", "lpg", "ultimate", "ultimate_diesel", "ultimate_unleaded", "unleaded_95", "ad_blue"], "website": null, "watchlist_id": null, "formatted_address": "Wippolderlaan 1\n2291 HG\nWateringen", "channel_of_trade": null}, {"id": "NL-1744702858", "name": "BP Bunschoten", "lat": 52.2337562, "lng": 5.3669714, "site_brand": "BP", "country_code": "NL", "address": "De Kronkels 3", "city": "BUNSCHOTEN", "state": null, "postcode": "3752 LM", "telephone": "+31 33 299 2222", "facilities": ["car_wash", "high_speed_pump", "truck_suitable_site", "toilet", "accepts_routex_cards", "open_saturday", "mobile_enabled"], "products": ["ad_blue_cannister", "ad_blue_pump", "auto_gas", "diesel_on", "lpg", "natural_gas", "truck_diesel", "ultimate", "ultimate_diesel", "ultimate_unleaded", "unleaded_95", "ad_blue"], "website": null, "watchlist_id": null, "formatted_address": "De Kronkels 3\n3752 LM\nBUNSCHOTEN", "channel_of_trade": null}, {"id": "NL-1767897185", "name": "BP HOEVELAKEN", "lat": 52.171861, "lng": 5.4472785, "site_brand": "BP", "country_code": "NL", "address": "Koninginneweg 7", "city": "HOEVELAKEN", "state": null, "postcode": "3871 JZ", "telephone": "+31 341 439 000", "facilities": ["open_24_hours", "truck_suitable_site", "accepts_routex_cards", "open_saturday", "open_sunday"], "products": ["ad_blue_cannister", "auto_gas", "diesel_on", "lpg", "truck_diesel", "ultimate", "ultimate_diesel", "ultimate_unleaded", "unleaded_95"], "website": null, "watchlist_id": null, "formatted_address": "Koninginneweg 7\n3871 JZ\nHOEVELAKEN", "channel_of_trade": null}, {"id": "NL-1777333161", "name": "BP Express Made", "lat": 51.6788123, "lng": 4.7977906, "site_brand": "BP", "country_code": "NL", "address": "Adellaan 4", "city": "MADE", "state": null, "postcode": "4921 BM", "telephone": "08002727270", "facilities": ["open_24_hours", "accepts_routex_cards", "open_saturday", "open_sunday"], "products": ["auto_gas", "diesel_on", "lpg", "ultimate", "ultimate_diesel", "ultimate_unleaded", "unleaded_95"], "website": null, "watchlist_id": null, "formatted_address": "Adellaan 4\n4921 BM\nMADE", "channel_of_trade": null}, {"id": "NL-1812106284", "name": "BP Rondweg (tankautomatengedeelte)", "lat": 52.5094012, "lng": 6.2632325, "site_brand": "BP", "country_code": "NL", "address": "Rondweg 20-22", "city": "DALFSEN", "state": null, "postcode": "7721 AA", "telephone": "+31 529 434 425", "facilities": ["high_speed_pump", "truck_suitable_site", "accepts_routex_cards", "open_saturday", "open_sunday"], "products": ["ad_blue_pump", "diesel_on", "ad_blue"], "website": null, "watchlist_id": null, "formatted_address": "Rondweg 20-22\n7721 AA\nDALFSEN", "channel_of_trade": null}, {"id": "NL-1813867840", "name": "BP Kerk en Zanen", "lat": 52.1248139, "lng": 4.626089, "site_brand": "BP", "country_code": "NL", "address": "Leidse Schouw 10", "city": "ALPHEN AAN DEN RIJN", "state": null, "postcode": "2408 AE", "telephone": "+31 172 442 561", "facilities": ["open_24_hours", "high_speed_pump", "truck_suitable_site", "toilet", "albert_heijn", "accepts_routex_cards", "open_saturday", "open_sunday", "mobile_enabled"], "products": ["ad_blue_cannister", "ad_blue_pump", "auto_gas", "diesel_on", "electricity", "hvo", "lpg", "ultimate", "ultimate_unleaded", "unleaded_95", "ad_blue"], "website": null, "watchlist_id": null, "formatted_address": "Leidse Schouw 10\n2408 AE\nALPHEN AAN DEN RIJN", "channel_of_trade": null}, {"id": "NL-1820441943", "name": "BP express Hoogvliet", "lat": 51.8671508, "lng": 4.3531179, "site_brand": "BP", "country_code": "NL", "address": "Aveling 200", "city": "HOOGVLIET ROTTERDAM", "state": null, "postcode": "3191 LB", "telephone": "08002727270", "facilities": ["open_24_hours", "accepts_routex_cards", "open_saturday", "open_sunday"], "products": ["diesel_on", "unleaded_95"], "website": null, "watchlist_id": null, "formatted_address": "Aveling 200\n3191 LB\nHOOGVLIET ROTTERDAM", "channel_of_trade": null}, {"id": "NL-1849369276", "name": "BP De Hespelaar", "lat": 51.6735265, "lng": 4.8188808, "site_brand": "BP", "country_code": "NL", "address": "Rijksweg A59", "city": "DEN HOUT", "state": null, "postcode": "4911 BV", "telephone": "+31 162 457 450", "facilities": ["open_24_hours", "high_speed_pump", "truck_parking", "truck_suitable_site", "toilet", "motorway_site", "albert_heijn", "accepts_routex_cards", "shop_open_24_hours", "open_saturday", "open_sunday", "mobile_enabled"], "products": ["ad_blue_cannister", "ad_blue_pump", "auto_gas", "diesel_on", "lpg", "truck_diesel", "ultimate", "ultimate_diesel", "ultimate_unleaded", "unleaded_95", "ad_blue"], "website": null, "watchlist_id": null, "formatted_address": "Rijksweg A59\n4911 BV\nDEN HOUT", "channel_of_trade": null}, {"id": "NL-1855582299", "name": "BP express Leersum", "lat": 52.0129, "lng": 5.4256, "site_brand": "BP", "country_code": "NL", "address": "Rijksstraatweg 152", "city": "LEERSUM", "state": null, "postcode": "3956 CT", "telephone": "08002727270", "facilities": ["accepts_routex_cards", "open_saturday", "open_sunday"], "products": ["diesel_on", "ultimate", "ultimate_diesel", "ultimate_unleaded", "unleaded_95"], "website": null, "watchlist_id": null, "formatted_address": "Rijksstraatweg 152\n3956 CT\nLEERSUM", "channel_of_trade": null}, {"id": "NL-1855987978", "name": "BP Statenlaan", "lat": 52.096529, "lng": 4.2707204, "site_brand": "BP", "country_code": "NL", "address": "Statenlaan 158", "city": "S-GRAVENHAGE", "state": null, "postcode": "2582 GX", "telephone": "+31 70 355 2336", "facilities": ["open_24_hours", "truck_suitable_site", "albert_heijn", "accepts_routex_cards", "shop_open_24_hours", "open_saturday", "open_sunday", "mobile_enabled"], "products": ["ad_blue_cannister", "diesel_on", "ultimate", "ultimate_diesel", "ultimate_unleaded", "unleaded_95"], "website": null, "watchlist_id": null, "formatted_address": "Statenlaan 158\n2582 GX\nS-GRAVENHAGE", "channel_of_trade": null}, {"id": "NL-1871592599", "name": "BP DIVERS WOERDEN", "lat": 52.0758135, "lng": 4.9012611, "site_brand": "BP", "country_code": "NL", "address": "Europabaan 2", "city": "WOERDEN", "state": null, "postcode": "3446 CE", "telephone": "+31 348 434 234", "facilities": ["open_24_hours", "car_wash", "truck_suitable_site", "accepts_routex_cards", "open_saturday", "open_sunday", "mobile_enabled"], "products": ["ad_blue_cannister", "ad_blue_pump", "auto_gas", "diesel_on", "electricity", "lpg", "red_diesel", "ultimate", "ultimate_diesel", "ultimate_unleaded", "unleaded_95", "ad_blue"], "website": null, "watchlist_id": null, "formatted_address": "Europabaan 2\n3446 CE\nWOERDEN", "channel_of_trade": null}, {"id": "NL-1879887194", "name": "BP Slagboom", "lat": 52.347539, "lng": 4.92548, "site_brand": "BP", "country_code": "NL", "address": "Gooiseweg  ZW 10", "city": "AMSTERDAM", "state": null, "postcode": "1097 ST", "telephone": "+31 20 694 8632", "facilities": ["open_24_hours", "high_speed_pump", "truck_suitable_site", "accepts_routex_cards", "open_saturday", "open_sunday", "mobile_enabled"], "products": ["ad_blue_cannister", "auto_gas", "diesel_on", "lpg", "ultimate", "ultimate_diesel", "ultimate_unleaded", "unleaded_95"], "website": null, "watchlist_id": null, "formatted_address": "Gooiseweg  ZW 10\n1097 ST\nAMSTERDAM", "channel_of_trade": null}, {"id": "NL-1885665158", "name": "BP AUTOMAAT BERGSCHENHOEK", "lat": 51.978374, "lng": 4.4990068, "site_brand": "BP", "country_code": "NL", "address": "WEG EN LAND 10", "city": "Bergschenhoek", "state": null, "postcode": "2661 DB", "telephone": "", "facilities": ["accepts_routex_cards", "automatic_site", "open_saturday", "open_sunday"], "products": ["ad_blue_pump", "diesel_on", "ad_blue"], "website": null, "watchlist_id": null, "formatted_address": "WEG EN LAND 10\n2661 DB\nBergschenhoek", "channel_of_trade": null}, {"id": "NL-1891392723", "name": "BP Gastelseweg", "lat": 51.554728, "lng": 4.47333, "site_brand": "BP", "country_code": "NL", "address": "Gastelseweg 201", "city": "ROOSENDAAL", "state": null, "postcode": "4704 RS", "telephone": "+31 165 547 950", "facilities": ["car_wash", "truck_suitable_site", "accepts_routex_cards", "open_saturday", "open_sunday"], "products": ["ad_blue_cannister", "ad_blue_pump", "diesel_on", "truck_diesel", "ultimate", "ultimate_diesel", "ultimate_unleaded", "unleaded_95", "ad_blue"], "website": null, "watchlist_id": null, "formatted_address": "Gastelseweg 201\n4704 RS\nROOSENDAAL", "channel_of_trade": null}, {"id": "NL-1898758386", "name": "BP Express Zwolle", "lat": 52.5210518, "lng": 6.1284962, "site_brand": "BP", "country_code": "NL", "address": "Boerendanserdijk 57", "city": "ZWOLLE", "state": null, "postcode": "8024 AG", "telephone": "08002727270", "facilities": ["open_24_hours", "high_speed_pump", "truck_suitable_site", "accepts_routex_cards", "open_saturday", "open_sunday"], "products": ["auto_gas", "diesel_on", "lpg", "unleaded_95"], "website": null, "watchlist_id": null, "formatted_address": "Boerendanserdijk 57\n8024 AG\nZWOLLE", "channel_of_trade": null}, {"id": "NL-1898848866", "name": "BP DIEMEN", "lat": 52.32703, "lng": 4.97068, "site_brand": "BP", "country_code": "NL", "address": "Provincialeweg 6", "city": "Diemen", "state": null, "postcode": "1112 XT", "telephone": "+31 88 313 0230", "facilities": ["car_wash", "truck_suitable_site", "accepts_routex_cards", "open_saturday", "open_sunday", "mobile_enabled"], "products": ["ad_blue_cannister", "ad_blue_pump", "diesel_on", "truck_diesel", "ultimate", "ultimate_diesel", "ultimate_unleaded", "unleaded_95", "ad_blue"], "website": null, "watchlist_id": null, "formatted_address": "Provincialeweg 6\n1112 XT\nDiemen", "channel_of_trade": null}, {"id": "NL-1899221901", "name": "BP express Andelst", "lat": 51.9130922, "lng": 5.7234781, "site_brand": "BP", "country_code": "NL", "address": "Wageningsestraat 32a", "city": "ANDELST", "state": null, "postcode": "6673 DD", "telephone": "08002727270", "facilities": ["high_speed_pump", "truck_suitable_site", "accepts_routex_cards", "open_saturday", "open_sunday"], "products": ["diesel_on", "ultimate", "ultimate_diesel", "ultimate_unleaded", "unleaded_95"], "website": null, "watchlist_id": null, "formatted_address": "Wageningsestraat 32a\n6673 DD\nANDELST", "channel_of_trade": null}, {"id": "NL-1899954582", "name": "BP Beerta (Automaat-trucks)", "lat": 53.1726, "lng": 7.11275, "site_brand": "BP", "country_code": "NL", "address": "Ulsderweg 2A", "city": "BEERTA", "state": null, "postcode": "9686 XX", "telephone": "+31 513 657 010", "facilities": ["open_24_hours", "high_speed_pump", "truck_suitable_site", "accepts_routex_cards", "automatic_site", "open_saturday", "open_sunday"], "products": ["ad_blue_pump", "diesel_on", "ad_blue"], "website": null, "watchlist_id": null, "formatted_address": "Ulsderweg 2A\n9686 XX\nBEERTA", "channel_of_trade": null}, {"id": "NL-1910314574", "name": "BP VISSERS DE BEERZE", "lat": 51.324693, "lng": 5.224446, "site_brand": "BP", "country_code": "NL", "address": "Rijksweg A67 1", "city": "Bladel", "state": null, "postcode": "5531 NZ", "telephone": "+31 85 488 5953", "facilities": ["truck_suitable_site", "motorway_site", "accepts_routex_cards", "open_saturday", "open_sunday", "mobile_enabled"], "products": ["ad_blue_cannister", "ad_blue_pump", "auto_gas", "diesel_on", "lpg", "truck_diesel", "ultimate", "ultimate_diesel", "ultimate_unleaded", "unleaded_95", "ad_blue"], "website": null, "watchlist_id": null, "formatted_address": "Rijksweg A67 1\n5531 NZ\nBladel", "channel_of_trade": null}, {"id": "NL-1916593369", "name": "BP HAARLE", "lat": 52.371021, "lng": 6.375791, "site_brand": "BP", "country_code": "NL", "address": "Almeloseweg 28 A", "city": "Haarle", "state": null, "postcode": "7448 RN", "telephone": "+31 548 595 192", "facilities": ["accepts_routex_cards", "open_saturday", "open_sunday"], "products": ["ad_blue_cannister", "ad_blue_pump", "auto_gas", "diesel_on", "lpg", "ultimate", "ultimate_unleaded", "unleaded_95", "ad_blue"], "website": null, "watchlist_id": null, "formatted_address": "Almeloseweg 28 A\n7448 RN\nHaarle", "channel_of_trade": null}, {"id": "NL-1917797838", "name": "BP EXPRESS VUREN", "lat": 51.838937, "lng": 5.09252, "site_brand": "BP", "country_code": "NL", "address": "Zeiving 19", "city": "Vuren", "state": null, "postcode": "4214 KT", "telephone": "+31 164 271 020", "facilities": ["open_24_hours", "truck_suitable_site", "accepts_routex_cards", "open_saturday", "open_sunday"], "products": ["ad_blue_pump", "diesel_on", "truck_diesel", "ultimate", "ultimate_diesel", "ultimate_unleaded", "unleaded_95", "ad_blue"], "website": null, "watchlist_id": null, "formatted_address": "Zeiving 19\n4214 KT\nVuren", "channel_of_trade": null}, {"id": "NL-1923998224", "name": "BP Hoogeveen", "lat": 52.7212, "lng": 6.4857, "site_brand": "BP", "country_code": "NL", "address": "Het Haagje 145", "city": "HOOGEVEEN", "state": null, "postcode": "7902 LE", "telephone": "+31 88 313 0225", "facilities": ["truck_suitable_site", "accepts_routex_cards", "open_saturday", "open_sunday"], "products": ["ad_blue_cannister", "auto_gas", "diesel_on", "lpg", "truck_diesel", "ultimate", "ultimate_diesel", "ultimate_unleaded", "unleaded_95"], "website": null, "watchlist_id": null, "formatted_address": "Het Haagje 145\n7902 LE\nHOOGEVEEN", "channel_of_trade": null}, {"id": "NL-1940769807", "name": "BP BEVERWIJK FLEVOLAND", "lat": 52.473196, "lng": 4.673541, "site_brand": "BP", "country_code": "NL", "address": "Flevoland 15", "city": "Beverwijk", "state": null, "postcode": "1948 RH", "telephone": "+31 251 214 430", "facilities": ["car_wash", "accepts_routex_cards", "open_saturday", "open_sunday"], "products": ["ad_blue_cannister", "ad_blue_pump", "diesel_on", "ultimate", "ultimate_unleaded", "unleaded_95", "ad_blue"], "website": null, "watchlist_id": null, "formatted_address": "Flevoland 15\n1948 RH\nBeverwijk", "channel_of_trade": null}, {"id": "NL-1967058034", "name": "BP WIJCHEN", "lat": 51.81694, "lng": 5.76596, "site_brand": "BP", "country_code": "NL", "address": "Nieuweweg 250", "city": "Wijchen", "state": null, "postcode": "6603 BV", "telephone": "+31 24 641 2556", "facilities": ["accepts_routex_cards"], "products": ["ad_blue_cannister", "auto_gas", "diesel_on", "lpg", "ultimate", "ultimate_diesel", "ultimate_unleaded", "unleaded_95"], "website": null, "watchlist_id": null, "formatted_address": "Nieuweweg 250\n6603 BV\nWijchen", "channel_of_trade": null}, {"id": "NL-2019222952", "name": "BP EASTERMAR TANKAUTOMAAT", "lat": 53.201539, "lng": 6.080175, "site_brand": "BP", "country_code": "NL", "address": "Mounekamp 4", "city": "Eastermar", "state": null, "postcode": "9261 XC", "telephone": "+31 513 657 010", "facilities": ["accepts_routex_cards", "automatic_site"], "products": ["ad_blue_pump", "diesel_on", "ad_blue"], "website": null, "watchlist_id": null, "formatted_address": "Mounekamp 4\n9261 XC\nEastermar", "channel_of_trade": null}, {"id": "NL-202562367", "name": "BP KRITERION", "lat": 52.36897, "lng": 4.97046, "site_brand": "BP", "country_code": "NL", "address": "IJburglaan 11", "city": "AMSTERDAM", "state": null, "postcode": "1095 KG", "telephone": "+31 20 694 8811", "facilities": ["truck_suitable_site", "accepts_routex_cards", "open_saturday", "open_sunday", "mobile_enabled"], "products": ["diesel_on", "truck_diesel", "ultimate", "ultimate_diesel", "ultimate_unleaded", "unleaded_95"], "website": null, "watchlist_id": null, "formatted_address": "IJburglaan 11\n1095 KG\nAMSTERDAM", "channel_of_trade": null}, {"id": "NL-2080513507", "name": "BP Barneveld (Automaat-trucks)", "lat": 52.1650274, "lng": 5.594904, "site_brand": "BP", "country_code": "NL", "address": "Harselaarseweg 16", "city": "BARNEVELD", "state": null, "postcode": "3771 MB", "telephone": "+31 342 421 421", "facilities": ["open_24_hours", "high_speed_pump", "truck_suitable_site", "accepts_routex_cards", "automatic_site", "open_saturday", "open_sunday"], "products": ["ad_blue_pump", "diesel_on", "red_diesel", "ultimate", "ultimate_unleaded", "unleaded_95", "ad_blue"], "website": null, "watchlist_id": null, "formatted_address": "Harselaarseweg 16\n3771 MB\nBARNEVELD", "channel_of_trade": null}, {"id": "NL-2081738362", "name": "BP Tjoelker", "lat": 53.150763, "lng": 6.370816, "site_brand": "BP", "country_code": "NL", "address": "Diepswal 22", "city": "LEEK", "state": null, "postcode": "9351 TB", "telephone": "+31 594 517 274", "facilities": ["high_speed_pump", "truck_suitable_site", "toilet", "accepts_routex_cards", "open_saturday", "mobile_enabled"], "products": ["ad_blue_cannister", "auto_gas", "diesel_on", "lpg", "truck_diesel", "ultimate", "ultimate_diesel", "ultimate_unleaded", "unleaded_95"], "website": null, "watchlist_id": null, "formatted_address": "Diepswal 22\n9351 TB\nLEEK", "channel_of_trade": null}, {"id": "NL-2083388605", "name": "BP Zuiderzeeweg", "lat": 52.3890373, "lng": 4.9642822, "site_brand": "BP", "country_code": "NL", "address": "Zuiderzeeweg 1000", "city": "Amsterdam", "state": null, "postcode": "1023 NW", "telephone": "+31 20 494 2593", "facilities": ["open_24_hours", "car_wash", "truck_suitable_site", "toilet", "accepts_routex_cards", "shop_open_24_hours", "open_saturday", "open_sunday", "mobile_enabled"], "products": ["ad_blue_cannister", "diesel_on", "truck_diesel", "ultimate", "ultimate_diesel", "ultimate_unleaded", "unleaded_95"], "website": null, "watchlist_id": null, "formatted_address": "Zuiderzeeweg 1000\n1023 NW\nAmsterdam", "channel_of_trade": null}, {"id": "NL-20840072", "name": "BP Lemmer", "lat": 52.843406, "lng": 5.716391, "site_brand": "BP", "country_code": "NL", "address": "Zeedijk 1", "city": "LEMMER", "state": null, "postcode": "8531 DK", "telephone": "+31 513 657 010", "facilities": ["car_wash", "high_speed_pump", "truck_suitable_site", "toilet", "accepts_routex_cards", "shop_open_24_hours", "open_saturday", "open_sunday"], "products": ["ad_blue_cannister", "auto_gas", "diesel_on", "lpg", "truck_diesel", "ultimate", "ultimate_diesel", "ultimate_unleaded", "unleaded_95"], "website": null, "watchlist_id": "20840072", "formatted_address": "Zeedijk 1\n8531 DK\nLEMMER", "channel_of_trade": null}, {"id": "NL-2095161397", "name": "BP SCHOUTEN AUTOMAAT BLEISWIJK", "lat": 52.02942, "lng": 4.55254, "site_brand": "BP", "country_code": "NL", "address": "Klappolder 225", "city": "Bleiswijk", "state": null, "postcode": "2665 MR", "telephone": "+31 172 423 200", "facilities": ["open_24_hours", "accepts_routex_cards", "automatic_site", "open_saturday", "open_sunday"], "products": ["ad_blue_pump", "diesel_on", "ad_blue"], "website": null, "watchlist_id": null, "formatted_address": "Klappolder 225\n2665 MR\nBleiswijk", "channel_of_trade": null}, {"id": "NL-2102738517", "name": "BP Schulte", "lat": 52.0168, "lng": 4.257441, "site_brand": "BP", "country_code": "NL", "address": "Heulweg 118 A", "city": "KWINTSHEUL", "state": null, "postcode": "2295 KK", "telephone": "+31 174 292 483", "facilities": ["car_wash", "high_speed_pump", "truck_suitable_site", "toilet", "accepts_routex_cards", "open_saturday", "open_sunday", "mobile_enabled"], "products": ["ad_blue_cannister", "ad_blue_pump", "diesel_on", "truck_diesel", "ultimate", "ultimate_diesel", "ultimate_unleaded", "unleaded_95", "ad_blue"], "website": null, "watchlist_id": null, "formatted_address": "Heulweg 118 A\n2295 KK\nKWINTSHEUL", "channel_of_trade": null}, {"id": "NL-2113175290", "name": "BP Express Stadskanaal", "lat": 52.981258, "lng": 6.9702, "site_brand": "BP", "country_code": "NL", "address": "Steenhouwer 33", "city": "STADSKANAAL", "state": null, "postcode": "9502 EV", "telephone": "+31 599 650 423", "facilities": ["high_speed_pump", "truck_suitable_site", "accepts_routex_cards", "open_saturday", "open_sunday"], "products": ["ad_blue_cannister", "ad_blue_pump", "diesel_on", "lpg", "ultimate", "ultimate_diesel", "ultimate_unleaded", "unleaded_95", "ad_blue"], "website": null, "watchlist_id": null, "formatted_address": "Steenhouwer 33\n9502 EV\nSTADSKANAAL", "channel_of_trade": null}, {"id": "NL-2131804280", "name": "BP Vissers Weurt", "lat": 51.8586428, "lng": 5.8036164, "site_brand": "BP", "country_code": "NL", "address": "van Heemstraweg 13a", "city": "WEURT", "state": null, "postcode": "6551 DL", "telephone": "+31 85 086 1210", "facilities": ["car_wash", "truck_suitable_site", "accepts_routex_cards", "open_saturday", "open_sunday", "mobile_enabled"], "products": ["ad_blue_cannister", "ad_blue_pump", "diesel_on", "red_diesel", "truck_diesel", "ultimate", "ultimate_diesel", "ultimate_unleaded", "unleaded_95", "ad_blue"], "website": null, "watchlist_id": null, "formatted_address": "van Heemstraweg 13a\n6551 DL\nWEURT", "channel_of_trade": null}, {"id": "NL-213978233", "name": "BP Express Rossum", "lat": 51.796095, "lng": 5.31072, "site_brand": "BP", "country_code": "NL", "address": "Van Heemstraweg 1", "city": "ROSSUM", "state": null, "postcode": "5328 JG", "telephone": "08002727270", "facilities": ["open_24_hours", "truck_suitable_site", "toilet", "accepts_routex_cards", "open_saturday", "open_sunday"], "products": ["ad_blue_cannister", "auto_gas", "diesel_on", "lpg", "truck_diesel", "ultimate", "ultimate_diesel", "ultimate_unleaded", "unleaded_95"], "website": null, "watchlist_id": null, "formatted_address": "Van Heemstraweg 1\n5328 JG\nROSSUM", "channel_of_trade": null}, {"id": "NL-2146705548", "name": "BP De Panjerd", "lat": 52.68277, "lng": 6.3695, "site_brand": "BP", "country_code": "NL", "address": "Rijksweg A28", "city": "VEENINGEN", "state": null, "postcode": "7924 PV", "telephone": "+31 528 391 531", "facilities": ["open_24_hours", "high_speed_pump", "truck_parking", "truck_suitable_site", "toilet", "motorway_site", "wild_bean_cafe", "accepts_routex_cards", "shop_open_24_hours", "open_saturday", "open_sunday", "mobile_enabled"], "products": ["ad_blue_cannister", "ad_blue_pump", "auto_gas", "diesel_on", "lpg", "ultimate", "ultimate_diesel", "ultimate_unleaded", "unleaded_95", "ad_blue"], "website": null, "watchlist_id": null, "formatted_address": "Rijksweg A28\n7924 PV\nVEENINGEN", "channel_of_trade": null}, {"id": "NL-218613428", "name": "BP express Apeldoorn", "lat": 52.1938263, "lng": 5.9863692, "site_brand": "BP", "country_code": "NL", "address": "Laan van Kuipershof 10", "city": "APELDOORN", "state": null, "postcode": "7327 AX", "telephone": "08002727270", "facilities": ["open_24_hours", "high_speed_pump", "truck_suitable_site", "accepts_routex_cards", "open_saturday", "open_sunday"], "products": ["diesel_on", "ultimate", "ultimate_diesel", "ultimate_unleaded", "unleaded_95"], "website": null, "watchlist_id": null, "formatted_address": "Laan van Kuipershof 10\n7327 AX\nAPELDOORN", "channel_of_trade": null}, {"id": "NL-219079126", "name": "BP Nunspeet", "lat": 52.3835, "lng": 5.787637, "site_brand": "BP", "country_code": "NL", "address": "F.A. Molijnlaan 188", "city": "NUNSPEET", "state": null, "postcode": "8071 AK", "telephone": "+31 341 250 089", "facilities": ["toilet", "accepts_routex_cards", "open_saturday", "open_sunday", "mobile_enabled"], "products": ["ad_blue_cannister", "diesel_on", "ultimate", "ultimate_unleaded", "unleaded_95"], "website": null, "watchlist_id": null, "formatted_address": "F.A. Molijnlaan 188\n8071 AK\nNUNSPEET", "channel_of_trade": null}, {"id": "NL-235848443", "name": "BP De Poel", "lat": 52.0634741, "lng": 5.6118571, "site_brand": "BP", "country_code": "NL", "address": "Rijksweg A30", "city": "EDE GLD", "state": null, "postcode": "6718 VZ", "telephone": "+31 318 431 724", "facilities": ["open_24_hours", "high_speed_pump", "truck_parking", "truck_suitable_site", "toilet", "motorway_site", "albert_heijn", "accepts_routex_cards", "shop_open_24_hours", "open_saturday", "open_sunday", "mobile_enabled"], "products": ["ad_blue_cannister", "ad_blue_pump", "auto_gas", "diesel_on", "lpg", "truck_diesel", "ultimate", "ultimate_diesel", "ultimate_unleaded", "unleaded_95", "ad_blue"], "website": null, "watchlist_id": null, "formatted_address": "Rijksweg A30\n6718 VZ\nEDE GLD", "channel_of_trade": null}, {"id": "NL-248270447", "name": "BP express Abbenbroek", "lat": 51.849134, "lng": 4.2467147, "site_brand": "BP", "country_code": "NL", "address": "Rondweg 2", "city": "ABBENBROEK", "state": null, "postcode": "3216 LM", "telephone": "08002727270", "facilities": ["open_24_hours", "accepts_routex_cards", "open_saturday", "open_sunday"], "products": ["diesel_on", "electricity", "ultimate", "ultimate_diesel", "ultimate_unleaded", "unleaded_95"], "website": null, "watchlist_id": null, "formatted_address": "Rondweg 2\n3216 LM\nABBENBROEK", "channel_of_trade": null}, {"id": "NL-253963965", "name": "BP Bleijenhoek", "lat": 51.362897, "lng": 5.205452, "site_brand": "BP", "country_code": "NL", "address": "Bleijenhoek 79", "city": "BLADEL", "state": null, "postcode": "5531 BL", "telephone": "+31 497 381 353", "facilities": ["car_wash", "high_speed_pump", "truck_parking", "truck_suitable_site", "toilet", "albert_heijn", "accepts_routex_cards", "open_saturday", "open_sunday", "mobile_enabled"], "products": ["ad_blue_cannister", "auto_gas", "diesel_on", "electricity", "lpg", "truck_diesel", "ultimate", "ultimate_diesel", "ultimate_unleaded", "unleaded_95"], "website": null, "watchlist_id": null, "formatted_address": "Bleijenhoek 79\n5531 BL\nBLADEL", "channel_of_trade": null}, {"id": "NL-260881153", "name": "BP Express Gemert", "lat": 51.557516, "lng": 5.6798887, "site_brand": "BP", "country_code": "NL", "address": "Komweg 35", "city": "GEMERT", "state": null, "postcode": "5421 LA", "telephone": "08002727270", "facilities": ["open_24_hours", "truck_suitable_site", "accepts_routex_cards", "open_saturday", "open_sunday"], "products": ["diesel_on", "truck_diesel", "ultimate", "ultimate_unleaded", "unleaded_95"], "website": null, "watchlist_id": null, "formatted_address": "Komweg 35\n5421 LA\nGEMERT", "channel_of_trade": null}, {"id": "NL-268320014", "name": "BP Hoofddorp", "lat": 52.2923059, "lng": 4.7155326, "site_brand": "BP", "country_code": "NL", "address": "Kruisweg 450", "city": "HOOFDDORP", "state": null, "postcode": "2132 LA", "telephone": "+31 23 561 6234", "facilities": ["car_wash", "high_speed_pump", "truck_parking", "truck_suitable_site", "toilet", "albert_heijn", "accepts_routex_cards", "open_saturday", "open_sunday", "mobile_enabled"], "products": ["ad_blue_cannister", "ad_blue_pump", "auto_gas", "diesel_on", "electricity", "hvo", "lpg", "ultimate", "ultimate_unleaded", "unleaded_95", "ad_blue"], "website": null, "watchlist_id": null, "formatted_address": "Kruisweg 450\n2132 LA\nHOOFDDORP", "channel_of_trade": null}, {"id": "NL-272704427", "name": "BP Plaspoelpolder", "lat": 52.0449834, "lng": 4.3352866, "site_brand": "BP", "country_code": "NL", "address": "Burg. Elsenlaan 156", "city": "RIJSWIJK", "state": null, "postcode": "2283 AE", "telephone": "+31 70 395 2710", "facilities": ["truck_suitable_site", "toilet", "albert_heijn", "accepts_routex_cards", "open_saturday", "open_sunday", "mobile_enabled"], "products": ["ad_blue_cannister", "auto_gas", "diesel_on", "lpg", "ultimate", "ultimate_diesel", "ultimate_unleaded", "unleaded_95"], "website": null, "watchlist_id": null, "formatted_address": "Burg. Elsenlaan 156\n2283 AE\nRIJSWIJK", "channel_of_trade": null}, {"id": "NL-273113693", "name": "BP Business Park", "lat": 52.9674615, "lng": 5.9043359, "site_brand": "BP", "country_code": "NL", "address": "Haskeruitgang 111", "city": "HEERENVEEN", "state": null, "postcode": "8447 CK", "telephone": "+31 513 650 084", "facilities": ["car_wash", "high_speed_pump", "truck_suitable_site", "toilet", "albert_heijn", "accepts_routex_cards", "open_saturday", "open_sunday", "mobile_enabled"], "products": ["ad_blue_cannister", "auto_gas", "diesel_on", "lpg", "ultimate", "ultimate_diesel", "ultimate_unleaded", "unleaded_95"], "website": null, "watchlist_id": null, "formatted_address": "Haskeruitgang 111\n8447 CK\nHEERENVEEN", "channel_of_trade": null}, {"id": "NL-281209196", "name": "BP Van de Berg", "lat": 52.237837, "lng": 4.775348, "site_brand": "BP", "country_code": "NL", "address": "Noordzuidroute 2", "city": "DE KWAKEL", "state": null, "postcode": "1424 RT", "telephone": "+31 297 344 055", "facilities": ["open_24_hours", "car_wash", "truck_suitable_site", "toilet", "accepts_routex_cards", "open_saturday", "open_sunday", "mobile_enabled"], "products": ["ad_blue_cannister", "diesel_on", "electricity", "truck_diesel", "ultimate", "ultimate_diesel", "ultimate_unleaded", "unleaded_95"], "website": null, "watchlist_id": null, "formatted_address": "Noordzuidroute 2\n1424 RT\nDE KWAKEL", "channel_of_trade": null}, {"id": "NL-283515961", "name": "BP express Renswoude", "lat": 52.079651, "lng": 5.5390405, "site_brand": "BP", "country_code": "NL", "address": "Barneveldsestraat 29", "city": "RENSWOUDE", "state": null, "postcode": "3927 CA", "telephone": "08002727270", "facilities": ["open_24_hours", "high_speed_pump", "truck_suitable_site", "accepts_routex_cards", "open_saturday", "open_sunday"], "products": ["diesel_on", "ultimate", "ultimate_unleaded", "unleaded_95"], "website": null, "watchlist_id": null, "formatted_address": "Barneveldsestraat 29\n3927 CA\nRENSWOUDE", "channel_of_trade": null}, {"id": "NL-289584974", "name": "BP EXPRESS VISSERS NEER", "lat": 51.264954, "lng": 5.989368, "site_brand": "BP", "country_code": "NL", "address": "Napoleonseweg 27", "city": "Neer", "state": null, "postcode": "6086 AB", "telephone": "+31 77 399 9200", "facilities": ["open_24_hours", "accepts_routex_cards", "automatic_site", "open_saturday", "open_sunday"], "products": ["ad_blue_pump", "diesel_on", "ultimate", "ultimate_unleaded", "unleaded_95", "ad_blue"], "website": null, "watchlist_id": null, "formatted_address": "Napoleonseweg 27\n6086 AB\nNeer", "channel_of_trade": null}, {"id": "NL-301278159", "name": "BP express Kaatsheuvel", "lat": 51.6485228, "lng": 5.0162646, "site_brand": "BP", "country_code": "NL", "address": "Dreefseweg 52-54", "city": "KAATSHEUVEL", "state": null, "postcode": "5171 VM", "telephone": "08002727270", "facilities": ["accepts_routex_cards", "open_saturday", "open_sunday"], "products": ["auto_gas", "diesel_on", "lpg", "unleaded_95"], "website": null, "watchlist_id": null, "formatted_address": "Dreefseweg 52-54\n5171 VM\nKAATSHEUVEL", "channel_of_trade": null}, {"id": "NL-302811161", "name": "BP Raalte", "lat": 52.3787499, "lng": 6.2710668, "site_brand": "BP", "country_code": "NL", "address": "Westdorplaan 126", "city": "RAALTE", "state": null, "postcode": "8101 PP", "telephone": "+31 572 320 051", "facilities": ["car_wash", "high_speed_pump", "truck_suitable_site", "toilet", "accepts_routex_cards", "open_saturday", "open_sunday", "mobile_enabled"], "products": ["ad_blue_cannister", "diesel_on", "truck_diesel", "ultimate", "ultimate_diesel", "ultimate_unleaded", "unleaded_95"], "website": null, "watchlist_id": null, "formatted_address": "Westdorplaan 126\n8101 PP\nRAALTE", "channel_of_trade": null}, {"id": "NL-310562217", "name": "BP De Boogaard", "lat": 52.036264, "lng": 4.312766, "site_brand": "BP", "country_code": "NL", "address": "J.C. van Markenlaan 1", "city": "RIJSWIJK", "state": null, "postcode": "2285 VL", "telephone": "+31 70 394 0375", "facilities": ["open_24_hours", "truck_suitable_site", "toilet", "accepts_routex_cards", "shop_open_24_hours", "open_saturday", "open_sunday", "mobile_enabled"], "products": ["ad_blue_cannister", "diesel_on", "truck_diesel", "ultimate", "ultimate_diesel", "ultimate_unleaded", "unleaded_95"], "website": null, "watchlist_id": null, "formatted_address": "J.C. van Markenlaan 1\n2285 VL\nRIJSWIJK", "channel_of_trade": null}, {"id": "NL-3132537", "name": "BP Express Europoort", "lat": 51.9390167, "lng": 4.1122341, "site_brand": "BP", "country_code": "NL", "address": "d'Arcyweg 11", "city": "ROTTERDAM EUROPOORT", "state": null, "postcode": "3198 NA", "telephone": "08002727270", "facilities": ["open_24_hours", "accepts_routex_cards", "open_saturday", "open_sunday"], "products": ["ad_blue_pump", "diesel_on", "hvo", "ultimate", "ultimate_diesel", "ultimate_unleaded", "unleaded_95", "ad_blue"], "website": null, "watchlist_id": null, "formatted_address": "d'Arcyweg 11\n3198 NA\nROTTERDAM EUROPOORT", "channel_of_trade": null}, {"id": "NL-316396052", "name": "BP Geffen", "lat": 51.7347097, "lng": 5.4942369, "site_brand": "BP", "country_code": "NL", "address": "Rijksweg A59", "city": "GEFFEN", "state": null, "postcode": "5386 LE", "telephone": "+31 412 626 450", "facilities": ["high_speed_pump", "truck_parking", "truck_suitable_site", "toilet", "motorway_site", "wild_bean_cafe", "accepts_routex_cards", "shop_open_24_hours", "open_saturday", "open_sunday"], "products": ["ad_blue_cannister", "ad_blue_pump", "auto_gas", "diesel_on", "electricity", "lpg", "truck_diesel", "ultimate", "ultimate_diesel", "ultimate_unleaded", "unleaded_95", "ad_blue"], "website": null, "watchlist_id": null, "formatted_address": "Rijksweg A59\n5386 LE\nGEFFEN", "channel_of_trade": null}, {"id": "NL-318899159", "name": "BP Moerdijk (Automaat-trucks)", "lat": 51.6710913, "lng": 4.5841526, "site_brand": "BP", "country_code": "NL", "address": "Middenweg 8", "city": "MOERDIJK", "state": null, "postcode": "4782 PM", "telephone": "08002727270", "facilities": ["open_24_hours", "high_speed_pump", "truck_suitable_site", "accepts_routex_cards", "automatic_site", "open_saturday", "open_sunday"], "products": ["ad_blue_pump", "diesel_on", "ad_blue"], "website": null, "watchlist_id": null, "formatted_address": "Middenweg 8\n4782 PM\nMOERDIJK", "channel_of_trade": null}, {"id": "NL-324264517", "name": "BP EXPRESS WEERT", "lat": 51.24043, "lng": 5.71716, "site_brand": "BP", "country_code": "NL", "address": "Maaseikerweg 140 D", "city": "Weert", "state": null, "postcode": "6006 AC", "telephone": "+31 88 313 0000", "facilities": ["open_24_hours", "accepts_routex_cards", "open_saturday", "open_sunday"], "products": ["diesel_on", "ultimate", "ultimate_unleaded", "unleaded_95"], "website": null, "watchlist_id": null, "formatted_address": "Maaseikerweg 140 D\n6006 AC\nWeert", "channel_of_trade": null}, {"id": "NL-327474308", "name": "BP VISSERS AFFERDEN", "lat": 51.873844, "lng": 5.639149, "site_brand": "BP", "country_code": "NL", "address": "Maas en Waalweg 2", "city": "AFFERDEN", "state": null, "postcode": "6654 KK", "telephone": "+31 487 517 022", "facilities": ["accepts_routex_cards", "open_saturday", "open_sunday", "mobile_enabled"], "products": ["ad_blue_cannister", "ad_blue_pump", "auto_gas", "diesel_on", "lpg", "ultimate", "ultimate_unleaded", "unleaded_95", "ad_blue"], "website": null, "watchlist_id": null, "formatted_address": "Maas en Waalweg 2\n6654 KK\nAFFERDEN", "channel_of_trade": null}, {"id": "NL-332217219", "name": "BP Doetinchem", "lat": 51.9482159, "lng": 6.307275, "site_brand": "BP", "country_code": "NL", "address": "Terborgseweg 215", "city": "DOETINCHEM", "state": null, "postcode": "7004 DT", "telephone": "+31 88 313 0012", "facilities": ["car_wash", "truck_suitable_site", "toilet", "accepts_routex_cards", "open_saturday", "open_sunday", "mobile_enabled"], "products": ["ad_blue_cannister", "ad_blue_pump", "auto_gas", "diesel_on", "lpg", "truck_diesel", "ultimate", "ultimate_diesel", "ultimate_unleaded", "unleaded_95", "ad_blue"], "website": null, "watchlist_id": null, "formatted_address": "Terborgseweg 215\n7004 DT\nDOETINCHEM", "channel_of_trade": null}, {"id": "NL-34669416", "name": "BP Kadoelen", "lat": 52.4195147, "lng": 4.9123343, "site_brand": "BP", "country_code": "NL", "address": "IJdoornlaan 11", "city": "LANDSMEER", "state": null, "postcode": "1121 DS", "telephone": "+31 20 337 1266", "facilities": ["open_24_hours", "car_wash", "high_speed_pump", "truck_suitable_site", "toilet", "albert_heijn", "accepts_routex_cards", "open_saturday", "open_sunday", "mobile_enabled"], "products": ["ad_blue_cannister", "ad_blue_pump", "auto_gas", "diesel_on", "electricity", "lpg", "truck_diesel", "ultimate", "ultimate_diesel", "ultimate_unleaded", "unleaded_95", "ad_blue"], "website": null, "watchlist_id": "34669416", "formatted_address": "IJdoornlaan 11\n1121 DS\nLANDSMEER", "channel_of_trade": null}, {"id": "NL-34985869", "name": "BP Express Geert Knolweg Joure", "lat": 52.961207, "lng": 5.808683, "site_brand": "BP", "country_code": "NL", "address": "Geert Knolweg 52b", "city": "JOURE", "state": null, "postcode": "8501 MK", "telephone": "+31 513 416 947", "facilities": ["open_24_hours", "car_wash", "high_speed_pump", "truck_suitable_site", "accepts_routex_cards", "open_saturday", "open_sunday", "mobile_enabled"], "products": ["ad_blue_cannister", "diesel_on", "red_diesel", "truck_diesel", "ultimate", "ultimate_diesel", "ultimate_unleaded", "unleaded_95"], "website": null, "watchlist_id": "34985869", "formatted_address": "Geert Knolweg 52b\n8501 MK\nJOURE", "channel_of_trade": null}, {"id": "NL-350324014", "name": "CARWASH SLUMP JOURE", "lat": 52.961207, "lng": 5.808683, "site_brand": "BP", "country_code": "NL", "address": "Geert Knolweg 52b", "city": "JOURE", "state": null, "postcode": "8501 MK", "telephone": "", "facilities": ["open_24_hours", "accepts_routex_cards", "open_saturday", "open_sunday"], "products": [], "website": null, "watchlist_id": null, "formatted_address": "Geert Knolweg 52b\n8501 MK\nJOURE", "channel_of_trade": null}, {"id": "NL-355331036", "name": "TANKSTATION KOOPS", "lat": 52.76906, "lng": 6.233425, "site_brand": "BP", "country_code": "NL", "address": "Egginklaan 22", "city": "Havelte", "state": null, "postcode": "7971 CA", "telephone": "+31 521 341 292", "facilities": ["car_wash", "toilet", "bistro", "accepts_routex_cards", "open_saturday", "open_sunday"], "products": ["ad_blue_cannister", "ad_blue_pump", "auto_gas", "diesel_on", "lpg", "ultimate", "ultimate_diesel", "ultimate_unleaded", "unleaded_95", "ad_blue"], "website": null, "watchlist_id": null, "formatted_address": "Egginklaan 22\n7971 CA\nHavelte", "channel_of_trade": null}, {"id": "NL-3860", "name": "BP Oude Haagseweg", "lat": 52.33739, "lng": 4.818116, "site_brand": "BP", "country_code": "NL", "address": "Oude Haagseweg 18", "city": "AMSTERDAM", "state": null, "postcode": "1066 BW", "telephone": "+31 20 615 5795", "facilities": ["car_wash", "truck_suitable_site", "toilet", "wifi", "albert_heijn", "accepts_routex_cards", "open_saturday", "open_sunday", "mobile_enabled"], "products": ["ad_blue_cannister", "diesel_on", "electricity", "lpg", "truck_diesel", "ultimate", "ultimate_diesel", "ultimate_unleaded", "unleaded_95"], "website": null, "watchlist_id": null, "formatted_address": "Oude Haagseweg 18\n1066 BW\nAMSTERDAM", "channel_of_trade": null}, {"id": "NL-387382633", "name": "BP Express Ingen", "lat": 51.952845, "lng": 5.4849538, "site_brand": "BP", "country_code": "NL", "address": "De Brei 12", "city": "INGEN", "state": null, "postcode": "4031 JE", "telephone": "08002727270", "facilities": ["open_24_hours", "accepts_routex_cards", "open_saturday", "open_sunday"], "products": ["auto_gas", "diesel_on", "lpg", "ultimate", "ultimate_diesel", "ultimate_unleaded", "unleaded_95"], "website": null, "watchlist_id": null, "formatted_address": "De Brei 12\n4031 JE\nINGEN", "channel_of_trade": null}, {"id": "NL-3896", "name": "BP Vossedal - A2", "lat": 50.937, "lng": 5.78417, "site_brand": "BP", "country_code": "NL", "address": "Rijksweg 75", "city": "BEEK", "state": null, "postcode": "6191 SB", "telephone": "+31 85 086 1227", "facilities": ["open_24_hours", "high_speed_pump", "truck_parking", "truck_suitable_site", "toilet", "motorway_site", "wild_bean_cafe", "accepts_routex_cards", "shop_open_24_hours", "open_saturday", "open_sunday", "mobile_enabled"], "products": ["ad_blue_cannister", "ad_blue_pump", "auto_gas", "diesel_on", "lpg", "truck_diesel", "ultimate", "ultimate_diesel", "ultimate_unleaded", "unleaded_95", "ad_blue"], "website": null, "watchlist_id": null, "formatted_address": "Rijksweg 75\n6191 SB\nBEEK", "channel_of_trade": null}, {"id": "NL-3897", "name": "BP Kruisoord", "lat": 52.580713, "lng": 4.977939, "site_brand": "BP", "country_code": "NL", "address": "Rijksweg A7", "city": "NOORDBEEMSTER", "state": null, "postcode": "1463 PZ", "telephone": "+31 299 403 296", "facilities": ["open_24_hours", "high_speed_pump", "truck_parking", "truck_suitable_site", "toilet", "motorway_site", "albert_heijn", "accepts_routex_cards", "shop_open_24_hours", "open_saturday", "open_sunday", "mobile_enabled"], "products": ["ad_blue_cannister", "ad_blue_pump", "auto_gas", "diesel_on", "lpg", "ultimate", "ultimate_diesel", "ultimate_unleaded", "unleaded_95", "ad_blue"], "website": null, "watchlist_id": null, "formatted_address": "Rijksweg A7\n1463 PZ\nNOORDBEEMSTER", "channel_of_trade": null}, {"id": "NL-400686555", "name": "BP express Ter Aar", "lat": 52.1669954, "lng": 4.710497, "site_brand": "BP", "country_code": "NL", "address": "Westkanaalweg 106-107", "city": "TER AAR", "state": null, "postcode": "2461 EK", "telephone": "08002727270", "facilities": ["open_24_hours", "high_speed_pump", "truck_suitable_site", "accepts_routex_cards", "open_saturday", "open_sunday"], "products": ["diesel_on", "ultimate", "ultimate_diesel", "ultimate_unleaded", "unleaded_95"], "website": null, "watchlist_id": null, "formatted_address": "Westkanaalweg 106-107\n2461 EK\nTER AAR", "channel_of_trade": null}, {"id": "NL-415154818", "name": "BP Lopik", "lat": 51.9791708, "lng": 4.9777078, "site_brand": "BP", "country_code": "NL", "address": "M.A. Reinaldaweg 10", "city": "LOPIK", "state": null, "postcode": "3411 MB", "telephone": "08002727270", "facilities": ["open_24_hours", "car_wash", "truck_suitable_site", "toilet", "accepts_routex_cards", "open_saturday", "open_sunday", "mobile_enabled"], "products": ["ad_blue_cannister", "ad_blue_pump", "diesel_on", "lpg", "truck_diesel", "ultimate", "ultimate_diesel", "ultimate_unleaded", "unleaded_95", "ad_blue"], "website": null, "watchlist_id": null, "formatted_address": "M.A. Reinaldaweg 10\n3411 MB\nLOPIK", "channel_of_trade": null}, {"id": "NL-426467217", "name": "BP express Zevenbergen", "lat": 51.6424112, "lng": 4.5968663, "site_brand": "BP", "country_code": "NL", "address": "Kristallaan 15", "city": "ZEVENBERGEN", "state": null, "postcode": "4761 ZC", "telephone": "08002727270", "facilities": ["open_24_hours", "accepts_routex_cards", "open_saturday", "open_sunday"], "products": ["diesel_on", "unleaded_95"], "website": null, "watchlist_id": null, "formatted_address": "Kristallaan 15\n4761 ZC\nZEVENBERGEN", "channel_of_trade": null}, {"id": "NL-42741133", "name": "BP EXPRESS WAARDER", "lat": 52.0650366, "lng": 4.8237406, "site_brand": "BP", "country_code": "NL", "address": "Verlengde Tuurluur 2", "city": "WAARDER", "state": null, "postcode": "3466 NV", "telephone": "+31 341 439 000", "facilities": ["open_24_hours", "accepts_routex_cards", "open_saturday", "open_sunday"], "products": ["ad_blue_pump", "diesel_on", "unleaded_95", "ad_blue"], "website": null, "watchlist_id": "42741133", "formatted_address": "Verlengde Tuurluur 2\n3466 NV\nWAARDER", "channel_of_trade": null}, {"id": "NL-46083465", "name": "BP Slump On Heerenveen", "lat": 52.959011, "lng": 5.928323, "site_brand": "BP", "country_code": "NL", "address": "Burg. Kuperusplein 130", "city": "HEERENVEEN", "state": null, "postcode": "8442 CR", "telephone": "+31 513 624 074", "facilities": ["high_speed_pump", "truck_suitable_site", "toilet", "accepts_routex_cards", "open_saturday", "open_sunday", "mobile_enabled"], "products": ["ad_blue_cannister", "diesel_on", "truck_diesel", "ultimate", "ultimate_diesel", "ultimate_unleaded", "unleaded_95"], "website": null, "watchlist_id": "46083465", "formatted_address": "Burg. Kuperusplein 130\n8442 CR\nHEERENVEEN", "channel_of_trade": null}, {"id": "NL-4642", "name": "BP Flora", "lat": 52.687985, "lng": 5.243187, "site_brand": "BP", "country_code": "NL", "address": "Florasingel 1", "city": "BOVENKARSPEL", "state": null, "postcode": "1611 GA", "telephone": "+31 228 513 655", "facilities": ["car_wash", "toilet", "albert_heijn", "accepts_routex_cards", "open_saturday", "open_sunday", "mobile_enabled"], "products": ["ad_blue_cannister", "auto_gas", "diesel_on", "lpg", "red_diesel", "ultimate", "ultimate_diesel", "ultimate_unleaded", "unleaded_95"], "website": null, "watchlist_id": null, "formatted_address": "Florasingel 1\n1611 GA\nBOVENKARSPEL", "channel_of_trade": null}, {"id": "NL-4678", "name": "BP Boxtel", "lat": 51.59519, "lng": 5.3164038, "site_brand": "BP", "country_code": "NL", "address": "Baanderherenweg 7", "city": "BOXTEL", "state": null, "postcode": "5282 RC", "telephone": "+31 411 673 274", "facilities": ["car_wash", "toilet", "albert_heijn", "accepts_routex_cards", "open_saturday", "open_sunday", "mobile_enabled"], "products": ["ad_blue_cannister", "auto_gas", "diesel_on", "electricity", "lpg", "ultimate", "ultimate_diesel", "ultimate_unleaded", "unleaded_95"], "website": null, "watchlist_id": null, "formatted_address": "Baanderherenweg 7\n5282 RC\nBOXTEL", "channel_of_trade": null}, {"id": "NL-4679", "name": "BP Emerpark", "lat": 51.610914, "lng": 4.753625, "site_brand": "BP", "country_code": "NL", "address": "Emerparklaan 5", "city": "BREDA", "state": null, "postcode": "4824 EG", "telephone": "+31 76 542 2500", "facilities": ["car_wash", "high_speed_pump", "truck_suitable_site", "albert_heijn", "accepts_routex_cards", "open_saturday", "open_sunday", "mobile_enabled"], "products": ["ad_blue_cannister", "diesel_on", "electricity", "truck_diesel", "ultimate", "ultimate_diesel", "ultimate_unleaded", "unleaded_95"], "website": null, "watchlist_id": null, "formatted_address": "Emerparklaan 5\n4824 EG\nBREDA", "channel_of_trade": null}, {"id": "NL-4680", "name": "BP Heerbaan", "lat": 51.58351, "lng": 4.81835, "site_brand": "BP", "country_code": "NL", "address": "Heerbaan 190", "city": "BREDA", "state": null, "postcode": "4817 NL", "telephone": "+31 88 313 0155", "facilities": ["car_wash", "truck_suitable_site", "toilet", "accepts_routex_cards", "open_saturday", "open_sunday", "mobile_enabled"], "products": ["ad_blue_cannister", "auto_gas", "diesel_on", "lpg", "truck_diesel", "ultimate", "ultimate_diesel", "ultimate_unleaded", "unleaded_95"], "website": null, "watchlist_id": null, "formatted_address": "Heerbaan 190\n4817 NL\nBREDA", "channel_of_trade": null}, {"id": "NL-471599545", "name": "BP EXPRESS IJSSELSTEIN", "lat": 52.021072, "lng": 5.051967, "site_brand": "BP", "country_code": "NL", "address": "Utrechtseweg 36A", "city": "IJsselstein", "state": null, "postcode": "3402 PL", "telephone": "+31 88 313 0000", "facilities": ["open_24_hours", "accepts_routex_cards", "open_saturday", "open_sunday"], "products": ["diesel_on", "ultimate", "ultimate_unleaded", "unleaded_95"], "website": null, "watchlist_id": null, "formatted_address": "Utrechtseweg 36A\n3402 PL\nIJsselstein", "channel_of_trade": null}, {"id": "NL-473953211", "name": "BP Hellevoetsluis", "lat": 51.8413293, "lng": 4.1701514, "site_brand": "BP", "country_code": "NL", "address": "Nijverheidsweg 10", "city": "HELLEVOETSLUIS", "state": null, "postcode": "3225 LL", "telephone": "+31 181 320 724", "facilities": ["truck_suitable_site", "albert_heijn", "accepts_routex_cards", "open_saturday", "open_sunday", "mobile_enabled"], "products": ["ad_blue_cannister", "auto_gas", "diesel_on", "lpg", "truck_diesel", "ultimate", "ultimate_diesel", "ultimate_unleaded", "unleaded_95"], "website": null, "watchlist_id": null, "formatted_address": "Nijverheidsweg 10\n3225 LL\nHELLEVOETSLUIS", "channel_of_trade": null}, {"id": "NL-478150322", "name": "BP De Engh", "lat": 52.051598, "lng": 5.284025, "site_brand": "BP", "country_code": "NL", "address": "Hoofdstraat 129-131", "city": "DRIEBERGEN", "state": null, "postcode": "3971 KG", "telephone": "+31 343 515 186", "facilities": ["truck_suitable_site", "toilet", "albert_heijn", "accepts_routex_cards", "open_saturday", "open_sunday", "mobile_enabled"], "products": ["ad_blue_cannister", "diesel_on", "electricity", "truck_diesel", "ultimate", "ultimate_diesel", "ultimate_unleaded", "unleaded_95"], "website": null, "watchlist_id": null, "formatted_address": "Hoofdstraat 129-131\n3971 KG\nDRIEBERGEN", "channel_of_trade": null}, {"id": "NL-485265827", "name": "BP Coentunnel", "lat": 52.4429543, "lng": 4.8565253, "site_brand": "BP", "country_code": "NL", "address": "Rijksweg A8", "city": "OOSTZAAN", "state": null, "postcode": "1511 HX", "telephone": "+31 75 684 1888", "facilities": ["open_24_hours", "high_speed_pump", "truck_parking", "truck_suitable_site", "toilet", "motorway_site", "supermarket", "albert_heijn", "accepts_routex_cards", "shop_open_24_hours", "open_saturday", "open_sunday", "mobile_enabled"], "products": ["ad_blue_cannister", "ad_blue_pump", "auto_gas", "diesel_on", "lpg", "ultimate", "ultimate_diesel", "ultimate_unleaded", "unleaded_95", "ad_blue"], "website": null, "watchlist_id": null, "formatted_address": "Rijksweg A8\n1511 HX\nOOSTZAAN", "channel_of_trade": null}, {"id": "NL-4903", "name": "BP Rijnoord", "lat": 52.145461, "lng": 4.66111, "site_brand": "BP", "country_code": "NL", "address": "Burg. Bruinslotsingel 6", "city": "ALPHEN A/D RIJN", "state": null, "postcode": "2402 WD", "telephone": "+31 172 431 581", "facilities": ["albert_heijn", "accepts_routex_cards", "open_saturday", "open_sunday", "mobile_enabled"], "products": ["ad_blue_cannister", "diesel_on", "ultimate", "ultimate_diesel", "ultimate_unleaded", "unleaded_95"], "website": null, "watchlist_id": null, "formatted_address": "Burg. Bruinslotsingel 6\n2402 WD\nALPHEN A/D RIJN", "channel_of_trade": null}, {"id": "NL-4908", "name": "BP Parnassusweg", "lat": 52.3362994, "lng": 4.8685956, "site_brand": "BP", "country_code": "NL", "address": "Parnassusweg 850", "city": "AMSTERDAM", "state": null, "postcode": "1081 LC", "telephone": "+31 20 644 5869", "facilities": ["truck_suitable_site", "toilet", "albert_heijn", "accepts_routex_cards", "open_saturday", "open_sunday", "mobile_enabled"], "products": ["ad_blue_cannister", "ad_blue_pump", "diesel_on", "electricity", "truck_diesel", "ultimate", "ultimate_diesel", "ultimate_unleaded", "unleaded_95", "ad_blue"], "website": null, "watchlist_id": null, "formatted_address": "Parnassusweg 850\n1081 LC\nAMSTERDAM", "channel_of_trade": null}, {"id": "NL-4912", "name": "BP Noord", "lat": 52.40092, "lng": 4.90802, "site_brand": "BP", "country_code": "NL", "address": "Metaalbewerkerweg 3", "city": "AMSTERDAM", "state": null, "postcode": "1032 KW", "telephone": "+31 20 632 1313", "facilities": ["high_speed_pump", "truck_suitable_site", "toilet", "accepts_routex_cards", "open_saturday", "open_sunday", "mobile_enabled"], "products": ["ad_blue_cannister", "auto_gas", "diesel_on", "lpg", "ultimate", "ultimate_diesel", "ultimate_unleaded", "unleaded_95"], "website": null, "watchlist_id": null, "formatted_address": "Metaalbewerkerweg 3\n1032 KW\nAMSTERDAM", "channel_of_trade": null}, {"id": "NL-4916", "name": "BP Gaasperdam", "lat": 52.296508, "lng": 4.974248, "site_brand": "BP", "country_code": "NL", "address": "Reewijkplein 1", "city": "AMSTERDAM", "state": null, "postcode": "1106 AT", "telephone": "+31 20 697 6332", "facilities": ["truck_suitable_site", "toilet", "accepts_routex_cards", "open_saturday", "open_sunday"], "products": ["ad_blue_cannister", "diesel_on", "ultimate", "ultimate_diesel", "ultimate_unleaded", "unleaded_95"], "website": null, "watchlist_id": null, "formatted_address": "Reewijkplein 1\n1106 AT\nAMSTERDAM", "channel_of_trade": null}, {"id": "NL-4917", "name": "BP Sloterplas", "lat": 52.3739314, "lng": 4.8272025, "site_brand": "BP", "country_code": "NL", "address": "Burg. Rendorpstraat 2", "city": "AMSTERDAM", "state": null, "postcode": "1064 EL", "telephone": "+31 20 613 5226", "facilities": ["car_wash", "truck_suitable_site", "toilet", "albert_heijn", "accepts_routex_cards", "open_saturday", "open_sunday", "mobile_enabled"], "products": ["ad_blue_cannister", "diesel_on", "ultimate", "ultimate_diesel", "ultimate_unleaded", "unleaded_95"], "website": null, "watchlist_id": null, "formatted_address": "Burg. Rendorpstraat 2\n1064 EL\nAMSTERDAM", "channel_of_trade": null}, {"id": "NL-4926", "name": "BP Meinerswijk", "lat": 51.968763, "lng": 5.8907452, "site_brand": "BP", "country_code": "NL", "address": "Eldenseweg 2", "city": "ARNHEM", "state": null, "postcode": "6841 HP", "telephone": "+31 26 321 3111", "facilities": ["car_wash", "high_speed_pump", "truck_suitable_site", "toilet", "albert_heijn", "accepts_routex_cards", "open_saturday", "open_sunday", "mobile_enabled"], "products": ["ad_blue_cannister", "auto_gas", "diesel_on", "electricity", "lpg", "ultimate", "ultimate_diesel", "ultimate_unleaded", "unleaded_95"], "website": null, "watchlist_id": null, "formatted_address": "Eldenseweg 2\n6841 HP\nARNHEM", "channel_of_trade": null}, {"id": "NL-4927", "name": "BP express Elderveld", "lat": 51.9621402, "lng": 5.8615173, "site_brand": "BP", "country_code": "NL", "address": "Hollandweg 51", "city": "ARNHEM", "state": null, "postcode": "6843 JN", "telephone": "08002727270", "facilities": ["open_24_hours", "high_speed_pump", "truck_suitable_site", "accepts_routex_cards", "open_saturday", "open_sunday"], "products": ["diesel_on", "ultimate", "ultimate_diesel", "ultimate_unleaded", "unleaded_95"], "website": null, "watchlist_id": null, "formatted_address": "Hollandweg 51\n6843 JN\nARNHEM", "channel_of_trade": null}, {"id": "NL-4930", "name": "BP Baarn (Vulstations)", "lat": 52.2147133, "lng": 5.3020449, "site_brand": "BP", "country_code": "NL", "address": "Eemweg 25", "city": "BAARN", "state": null, "postcode": "3741 LA", "telephone": "+31 35 541 6270", "facilities": ["car_wash", "truck_suitable_site", "albert_heijn", "accepts_routex_cards", "open_saturday", "open_sunday"], "products": ["ad_blue_cannister", "auto_gas", "diesel_on", "lpg", "ultimate", "ultimate_diesel", "ultimate_unleaded", "unleaded_95"], "website": null, "watchlist_id": null, "formatted_address": "Eemweg 25\n3741 LA\nBAARN", "channel_of_trade": null}, {"id": "NL-4937", "name": "BP Kassing De Raaphof (Automaat-trucks)", "lat": 52.0589234, "lng": 5.217997, "site_brand": "BP", "country_code": "NL", "address": "Schoudermantel 52", "city": "BUNNIK", "state": null, "postcode": "3981 AG", "telephone": "08002727270", "facilities": ["open_24_hours", "high_speed_pump", "truck_suitable_site", "accepts_routex_cards", "automatic_site", "open_saturday", "open_sunday"], "products": ["ad_blue_pump", "auto_gas", "diesel_on", "ad_blue"], "website": null, "watchlist_id": null, "formatted_address": "Schoudermantel 52\n3981 AG\nBUNNIK", "channel_of_trade": null}, {"id": "NL-4941", "name": "BP Soomerwegh", "lat": 52.5508222, "lng": 4.6726398, "site_brand": "BP", "country_code": "NL", "address": "Soomerwegh 3", "city": "CASTRICUM", "state": null, "postcode": "1902 CE", "telephone": "+31 251 654 929", "facilities": ["car_wash", "truck_suitable_site", "toilet", "wild_bean_cafe", "accepts_routex_cards", "open_saturday", "open_sunday"], "products": ["ad_blue_cannister", "auto_gas", "diesel_on", "lpg", "ultimate", "ultimate_diesel", "ultimate_unleaded", "unleaded_95"], "website": null, "watchlist_id": null, "formatted_address": "Soomerwegh 3\n1902 CE\nCASTRICUM", "channel_of_trade": null}, {"id": "NL-4945", "name": "BP Buitenhof", "lat": 51.9876505, "lng": 4.3448877, "site_brand": "BP", "country_code": "NL", "address": "Vrijheidslaan 2", "city": "DELFT", "state": null, "postcode": "2625 RD", "telephone": "+31 15 240 0132", "facilities": ["car_wash", "truck_suitable_site", "albert_heijn", "accepts_routex_cards", "open_saturday", "open_sunday", "mobile_enabled"], "products": ["ad_blue_cannister", "auto_gas", "diesel_on", "lpg", "truck_diesel", "ultimate", "ultimate_diesel", "ultimate_unleaded", "unleaded_95"], "website": null, "watchlist_id": null, "formatted_address": "Vrijheidslaan 2\n2625 RD\nDELFT", "channel_of_trade": null}, {"id": "NL-4952", "name": "BP Koerhuis", "lat": 52.2385329, "lng": 6.1775162, "site_brand": "BP", "country_code": "NL", "address": "Zutphenseweg 51020", "city": "DEVENTER", "state": null, "postcode": "7418 AJ", "telephone": "+31 570 633 855", "facilities": ["open_24_hours", "high_speed_pump", "truck_suitable_site", "toilet", "supermarket", "albert_heijn", "accepts_routex_cards", "open_saturday", "open_sunday", "mobile_enabled"], "products": ["ad_blue_cannister", "ad_blue_pump", "auto_gas", "diesel_on", "lpg", "red_diesel", "ultimate", "ultimate_diesel", "ultimate_unleaded", "unleaded_95", "ad_blue"], "website": null, "watchlist_id": null, "formatted_address": "Zutphenseweg 51020\n7418 AJ\nDEVENTER", "channel_of_trade": null}, {"id": "NL-4961", "name": "BP De Leeuw", "lat": 51.7866876, "lng": 4.6850469, "site_brand": "BP", "country_code": "NL", "address": "Leeuwstraat 4", "city": "DORDRECHT", "state": null, "postcode": "3318 VD", "telephone": "+31 78 617 6007", "facilities": ["car_wash", "albert_heijn", "accepts_routex_cards", "open_saturday", "open_sunday", "mobile_enabled"], "products": ["ad_blue_cannister", "diesel_on", "electricity", "ultimate", "ultimate_diesel", "ultimate_unleaded", "unleaded_95"], "website": null, "watchlist_id": null, "formatted_address": "Leeuwstraat 4\n3318 VD\nDORDRECHT", "channel_of_trade": null}, {"id": "NL-4962", "name": "BP Dubbeldam", "lat": 51.8016921, "lng": 4.7000831, "site_brand": "BP", "country_code": "NL", "address": "Provincialeweg 11", "city": "DORDRECHT", "state": null, "postcode": "3319 LH", "telephone": "+31 78 621 2847", "facilities": ["open_24_hours", "car_wash", "high_speed_pump", "truck_suitable_site", "toilet", "albert_heijn", "accepts_routex_cards", "open_saturday", "open_sunday", "mobile_enabled"], "products": ["ad_blue_cannister", "auto_gas", "diesel_on", "electricity", "lpg", "truck_diesel", "ultimate", "ultimate_diesel", "ultimate_unleaded", "unleaded_95"], "website": null, "watchlist_id": null, "formatted_address": "Provincialeweg 11\n3319 LH\nDORDRECHT", "channel_of_trade": null}, {"id": "NL-4964", "name": "BP Drachten", "lat": 53.102563, "lng": 6.0821557, "site_brand": "BP", "country_code": "NL", "address": "Zuiderhogeweg 78", "city": "DRACHTEN", "state": null, "postcode": "9203 SZ", "telephone": "+31 512 514 004", "facilities": ["car_wash", "high_speed_pump", "truck_suitable_site", "toilet", "albert_heijn", "accepts_routex_cards", "shop_open_24_hours", "open_saturday", "open_sunday", "mobile_enabled"], "products": ["ad_blue_cannister", "ad_blue_pump", "auto_gas", "diesel_on", "lpg", "ultimate", "ultimate_diesel", "ultimate_unleaded", "unleaded_95", "ad_blue"], "website": null, "watchlist_id": null, "formatted_address": "Zuiderhogeweg 78\n9203 SZ\nDRACHTEN", "channel_of_trade": null}, {"id": "NL-4966", "name": "BP De Noord", "lat": 52.5354132, "lng": 5.7227048, "site_brand": "BP", "country_code": "NL", "address": "De Noord 70", "city": "DRONTEN", "state": null, "postcode": "8251 GL", "telephone": "+31 321 314 207", "facilities": ["car_wash", "high_speed_pump", "truck_suitable_site", "toilet", "albert_heijn", "accepts_routex_cards", "open_saturday", "open_sunday", "mobile_enabled"], "products": ["ad_blue_cannister", "auto_gas", "diesel_on", "electricity", "lpg", "ultimate", "ultimate_diesel", "ultimate_unleaded", "unleaded_95"], "website": null, "watchlist_id": null, "formatted_address": "De Noord 70\n8251 GL\nDRONTEN", "channel_of_trade": null}, {"id": "NL-4968", "name": "BP De Rietkampen", "lat": 52.0207802, "lng": 5.6486538, "site_brand": "BP", "country_code": "NL", "address": "Dr. W. Dreeslaan 25", "city": "EDE", "state": null, "postcode": "6716 AW", "telephone": "+31 318 630 386", "facilities": ["car_wash", "high_speed_pump", "truck_suitable_site", "toilet", "albert_heijn", "accepts_routex_cards", "shop_open_24_hours", "open_saturday", "open_sunday", "mobile_enabled"], "products": ["ad_blue_cannister", "auto_gas", "diesel_on", "lpg", "truck_diesel", "ultimate", "ultimate_diesel", "ultimate_unleaded", "unleaded_95"], "website": null, "watchlist_id": null, "formatted_address": "Dr. W. Dreeslaan 25\n6716 AW\nEDE", "channel_of_trade": null}, {"id": "NL-4971", "name": "BP Koot", "lat": 52.2492564, "lng": 5.250499, "site_brand": "BP", "country_code": "NL", "address": "Bramenberg 2", "city": "EEMNES", "state": null, "postcode": "3755 BX", "telephone": "+31 35 538 6438", "facilities": ["car_wash", "truck_suitable_site", "toilet", "accepts_routex_cards", "open_saturday", "open_sunday"], "products": ["ad_blue_cannister", "auto_gas", "diesel_on", "lpg", "truck_diesel", "ultimate", "ultimate_diesel", "ultimate_unleaded", "unleaded_95"], "website": null, "watchlist_id": null, "formatted_address": "Bramenberg 2\n3755 BX\nEEMNES", "channel_of_trade": null}, {"id": "NL-4988", "name": "BP Spoorzicht", "lat": 51.5753916, "lng": 4.638016, "site_brand": "BP", "country_code": "NL", "address": "Spoorlaan 129", "city": "ETTEN-LEUR", "state": null, "postcode": "4872 XM", "telephone": "+31 76 503 5778", "facilities": ["albert_heijn", "accepts_routex_cards", "open_saturday", "open_sunday", "mobile_enabled"], "products": ["ad_blue_cannister", "diesel_on", "ultimate", "ultimate_diesel", "ultimate_unleaded", "unleaded_95"], "website": null, "watchlist_id": null, "formatted_address": "Spoorlaan 129\n4872 XM\nETTEN-LEUR", "channel_of_trade": null}, {"id": "NL-4993", "name": "BP Middenweg", "lat": 50.9852518, "lng": 5.8440592, "site_brand": "BP", "country_code": "NL", "address": "Middenweg 100", "city": "Sittard", "state": null, "postcode": "6134 AT", "telephone": "+31 46 458 0338", "facilities": ["car_wash", "truck_suitable_site", "toilet", "accepts_routex_cards", "open_saturday", "open_sunday", "mobile_enabled"], "products": ["ad_blue_cannister", "ad_blue_pump", "auto_gas", "diesel_on", "lpg", "natural_gas", "truck_diesel", "ultimate", "ultimate_diesel", "ultimate_unleaded", "unleaded_95", "ad_blue"], "website": null, "watchlist_id": null, "formatted_address": "Middenweg 100\n6134 AT\nSittard", "channel_of_trade": null}, {"id": "NL-5006", "name": "BP Leyweg", "lat": 52.06164, "lng": 4.261021, "site_brand": "BP", "country_code": "NL", "address": "Leyweg/Volendamlaan 1", "city": "S-GRAVENHAGE", "state": null, "postcode": "2545 CB", "telephone": "+31 70 323 3147", "facilities": ["car_wash", "toilet", "albert_heijn", "accepts_routex_cards", "open_saturday", "open_sunday", "mobile_enabled"], "products": ["ad_blue_cannister", "diesel_on", "electricity", "ultimate", "ultimate_diesel", "ultimate_unleaded", "unleaded_95"], "website": null, "watchlist_id": null, "formatted_address": "Leyweg/Volendamlaan 1\n2545 CB\nS-GRAVENHAGE", "channel_of_trade": null}, {"id": "NL-501076576", "name": "BP LAAN DER VERENIGDE NATIES", "lat": 51.804078, "lng": 4.646391, "site_brand": "BP", "country_code": "NL", "address": "Laan der Verenigde Naties 113", "city": "Dordrecht", "state": null, "postcode": "3316 AK", "telephone": "+31 78 612 3535", "facilities": ["open_24_hours", "car_wash", "albert_heijn", "accepts_routex_cards", "open_saturday", "open_sunday", "mobile_enabled"], "products": ["ad_blue_cannister", "ad_blue_pump", "diesel_on", "electricity", "ultimate", "ultimate_diesel", "ultimate_unleaded", "unleaded_95", "ad_blue"], "website": null, "watchlist_id": null, "formatted_address": "Laan der Verenigde Naties 113\n3316 AK\nDordrecht", "channel_of_trade": null}, {"id": "NL-5014", "name": "BP Groningen - Winschoterdiep (Automaat-trucks)", "lat": 53.20635, "lng": 6.59794, "site_brand": "BP", "country_code": "NL", "address": "Bornholmstraat 60", "city": "GRONINGEN", "state": null, "postcode": "9723 AZ", "telephone": "08002727270", "facilities": ["open_24_hours", "high_speed_pump", "truck_suitable_site", "accepts_routex_cards", "automatic_site", "open_saturday", "open_sunday"], "products": ["ad_blue_pump", "diesel_on", "ad_blue"], "website": null, "watchlist_id": null, "formatted_address": "Bornholmstraat 60\n9723 AZ\nGRONINGEN", "channel_of_trade": null}, {"id": "NL-5015", "name": "BP Paddepoel", "lat": 53.229185, "lng": 6.545276, "site_brand": "BP", "country_code": "NL", "address": "Pleiadenlaan 4", "city": "GRONINGEN", "state": null, "postcode": "9742 NG", "telephone": "+31 50 577 5220", "facilities": ["car_wash", "albert_heijn", "accepts_routex_cards", "open_saturday", "open_sunday", "mobile_enabled"], "products": ["ad_blue_cannister", "diesel_on", "ultimate", "ultimate_diesel", "ultimate_unleaded", "unleaded_95"], "website": null, "watchlist_id": null, "formatted_address": "Pleiadenlaan 4\n9742 NG\nGRONINGEN", "channel_of_trade": null}, {"id": "NL-5017", "name": "BP Helvoirt", "lat": 51.6321577, "lng": 5.243912, "site_brand": "BP", "country_code": "NL", "address": "Rijksweg A24", "city": "HELVOIRT (GEM.HAAREN)", "state": null, "postcode": "5268 KJ", "telephone": "+31 88 313 0241", "facilities": ["truck_suitable_site", "toilet", "accepts_routex_cards", "open_saturday", "open_sunday"], "products": ["ad_blue_cannister", "ad_blue_pump", "auto_gas", "diesel_on", "lpg", "truck_diesel", "ultimate", "ultimate_diesel", "ultimate_unleaded", "unleaded_95", "ad_blue"], "website": null, "watchlist_id": null, "formatted_address": "Rijksweg A24\n5268 KJ\nHELVOIRT (GEM.HAAREN)", "channel_of_trade": null}, {"id": "NL-5018", "name": "BP Haarlem (Automaat-trucks)", "lat": 52.39385, "lng": 4.65617, "site_brand": "BP", "country_code": "NL", "address": "Heringaweg 4", "city": "HAARLEM", "state": null, "postcode": "2031 BW", "telephone": "08002727270", "facilities": ["high_speed_pump", "truck_suitable_site", "accepts_routex_cards", "automatic_site", "open_saturday", "open_sunday"], "products": ["diesel_on"], "website": null, "watchlist_id": null, "formatted_address": "Heringaweg 4\n2031 BW\nHAARLEM", "channel_of_trade": null}, {"id": "NL-5019", "name": "BP Het Spaarne", "lat": 52.394713, "lng": 4.650202, "site_brand": "BP", "country_code": "NL", "address": "Spaarndamseweg 302", "city": "HAARLEM", "state": null, "postcode": "2021 KC", "telephone": "+31 23 525 1581", "facilities": ["car_wash", "truck_suitable_site", "toilet", "albert_heijn", "accepts_routex_cards", "open_saturday", "open_sunday", "mobile_enabled"], "products": ["ad_blue_cannister", "diesel_on", "ultimate", "ultimate_diesel", "ultimate_unleaded", "unleaded_95"], "website": null, "watchlist_id": null, "formatted_address": "Spaarndamseweg 302\n2021 KC\nHAARLEM", "channel_of_trade": null}, {"id": "NL-5020", "name": "BP Halfweg", "lat": 52.386591, "lng": 4.740334, "site_brand": "BP", "country_code": "NL", "address": "Haarlemmerstr.w./Suikerfabr. A 200", "city": "HALFWEG", "state": null, "postcode": "1165 MJ", "telephone": "+31 20 497 5047", "facilities": ["truck_suitable_site", "toilet", "albert_heijn", "accepts_routex_cards", "open_saturday", "open_sunday", "mobile_enabled"], "products": ["ad_blue_cannister", "auto_gas", "diesel_on", "electricity", "lpg", "ultimate", "ultimate_diesel", "ultimate_unleaded", "unleaded_95"], "website": null, "watchlist_id": null, "formatted_address": "Haarlemmerstr.w./Suikerfabr. A 200\n1165 MJ\nHALFWEG", "channel_of_trade": null}, {"id": "NL-5025", "name": "BP De Horne", "lat": 52.9585209, "lng": 5.8462017, "site_brand": "BP", "country_code": "NL", "address": "Rijksweg A7", "city": "HASKERHORNE", "state": null, "postcode": "8506 AA", "telephone": "+31 513 677 457", "facilities": ["open_24_hours", "high_speed_pump", "truck_parking", "truck_suitable_site", "toilet", "motorway_site", "albert_heijn", "accepts_routex_cards", "shop_open_24_hours", "open_saturday", "open_sunday", "mobile_enabled"], "products": ["ad_blue_cannister", "ad_blue_pump", "auto_gas", "diesel_on", "lpg", "truck_diesel", "ultimate", "ultimate_diesel", "ultimate_unleaded", "unleaded_95", "ad_blue"], "website": null, "watchlist_id": null, "formatted_address": "Rijksweg A7\n8506 AA\nHASKERHORNE", "channel_of_trade": null}, {"id": "NL-5033", "name": "BP Middenwaard", "lat": 52.66435, "lng": 4.828375, "site_brand": "BP", "country_code": "NL", "address": "Zuid Tangent 1", "city": "HEERHUGOWAARD", "state": null, "postcode": "1703 SG", "telephone": "+31 72 571 7500", "facilities": ["car_wash", "albert_heijn", "accepts_routex_cards", "open_saturday", "open_sunday", "mobile_enabled"], "products": ["ad_blue_cannister", "diesel_on", "electricity", "ultimate", "ultimate_diesel", "ultimate_unleaded", "unleaded_95"], "website": null, "watchlist_id": null, "formatted_address": "Zuid Tangent 1\n1703 SG\nHEERHUGOWAARD", "channel_of_trade": null}, {"id": "NL-5035", "name": "BP Westerweg", "lat": 52.644501, "lng": 4.792876, "site_brand": "BP", "country_code": "NL", "address": "Westerweg 2", "city": "HEERHUGOWAARD", "state": null, "postcode": "1704 PC", "telephone": "+31 72 574 3647", "facilities": ["high_speed_pump", "truck_suitable_site", "toilet", "albert_heijn", "accepts_routex_cards", "shop_open_24_hours", "open_saturday", "open_sunday", "mobile_enabled"], "products": ["ad_blue_cannister", "ad_blue_pump", "auto_gas", "diesel_on", "electricity", "lpg", "ultimate", "ultimate_diesel", "ultimate_unleaded", "unleaded_95", "ad_blue"], "website": null, "watchlist_id": null, "formatted_address": "Westerweg 2\n1704 PC\nHEERHUGOWAARD", "channel_of_trade": null}, {"id": "NL-5039", "name": "BP express Heiloo", "lat": 52.601379, "lng": 4.699423, "site_brand": "BP", "country_code": "NL", "address": "Westerweg 251", "city": "HEILOO", "state": null, "postcode": "1852 AG", "telephone": "08002727270", "facilities": ["accepts_routex_cards", "open_saturday", "open_sunday"], "products": ["diesel_on", "ultimate", "ultimate_diesel", "ultimate_unleaded", "unleaded_95"], "website": null, "watchlist_id": null, "formatted_address": "Westerweg 251\n1852 AG\nHEILOO", "channel_of_trade": null}, {"id": "NL-5042", "name": "BP Wenting", "lat": 52.040469, "lng": 6.305498, "site_brand": "BP", "country_code": "NL", "address": "Molenenk 2", "city": "HENGELO (Gld.)", "state": null, "postcode": "7255 AX", "telephone": "057546330", "facilities": ["high_speed_pump", "truck_suitable_site", "toilet", "accepts_routex_cards", "open_saturday", "open_sunday", "mobile_enabled"], "products": ["ad_blue_cannister", "ad_blue_pump", "auto_gas", "diesel_on", "lpg", "ultimate", "ultimate_diesel", "ultimate_unleaded", "unleaded_95", "ad_blue"], "website": null, "watchlist_id": null, "formatted_address": "Molenenk 2\n7255 AX\nHENGELO (Gld.)", "channel_of_trade": null}, {"id": "NL-506008701", "name": "BP Spaanse Polder", "lat": 51.931313, "lng": 4.414744, "site_brand": "BP", "country_code": "NL", "address": "Vlaardingweg 64", "city": "ROTTERDAM", "state": null, "postcode": "3044 CK", "telephone": "+31 10 415 6961", "facilities": ["car_wash", "high_speed_pump", "truck_suitable_site", "toilet", "wild_bean_cafe", "accepts_routex_cards", "open_saturday"], "products": ["ad_blue_cannister", "ad_blue_pump", "auto_gas", "diesel_on", "electricity", "hvo", "lpg", "truck_diesel", "ultimate", "ultimate_diesel", "ultimate_unleaded", "unleaded_95", "ad_blue"], "website": null, "watchlist_id": null, "formatted_address": "Vlaardingweg 64\n3044 CK\nROTTERDAM", "channel_of_trade": null}, {"id": "NL-5062", "name": "BP Jouster Poort", "lat": 52.960168, "lng": 5.81166, "site_brand": "BP", "country_code": "NL", "address": "Geert Knolweg 64", "city": "JOURE", "state": null, "postcode": "8501 ZN", "telephone": "+31 513 413 744", "facilities": ["car_wash", "high_speed_pump", "truck_suitable_site", "toilet", "albert_heijn", "accepts_routex_cards", "open_saturday", "open_sunday", "mobile_enabled"], "products": ["ad_blue_cannister", "auto_gas", "diesel_on", "lpg", "ultimate", "ultimate_diesel", "ultimate_unleaded", "unleaded_95"], "website": null, "watchlist_id": null, "formatted_address": "Geert Knolweg 64\n8501 ZN\nJOURE", "channel_of_trade": null}, {"id": "NL-5064", "name": "BP express Kampen", "lat": 52.556583, "lng": 5.903112, "site_brand": "BP", "country_code": "NL", "address": "Flevoweg 61", "city": "KAMPEN", "state": null, "postcode": "8264 PA", "telephone": "08002727270", "facilities": ["open_24_hours", "accepts_routex_cards", "open_saturday", "open_sunday"], "products": ["diesel_on", "electricity", "ultimate", "ultimate_diesel", "ultimate_unleaded", "unleaded_95"], "website": null, "watchlist_id": null, "formatted_address": "Flevoweg 61\n8264 PA\nKAMPEN", "channel_of_trade": null}, {"id": "NL-5067", "name": "BP Keizershof", "lat": 51.6417837, "lng": 4.555335, "site_brand": "BP", "country_code": "NL", "address": "Rijksweg A17 nr.1", "city": "KLUNDERT", "state": null, "postcode": "4791 SZ", "telephone": "+31 168 324 035", "facilities": ["open_24_hours", "high_speed_pump", "truck_parking", "truck_suitable_site", "toilet", "motorway_site", "wild_bean_cafe", "accepts_routex_cards", "shop_open_24_hours", "open_saturday", "open_sunday", "mobile_enabled"], "products": ["ad_blue_cannister", "ad_blue_pump", "auto_gas", "diesel_on", "lpg", "truck_diesel", "ultimate", "ultimate_diesel", "ultimate_unleaded", "unleaded_95", "ad_blue"], "website": null, "watchlist_id": null, "formatted_address": "Rijksweg A17 nr.1\n4791 SZ\nKLUNDERT", "channel_of_trade": null}, {"id": "NL-5068", "name": "BP De Voetpomp", "lat": 51.4252347, "lng": 4.0882444, "site_brand": "BP", "country_code": "NL", "address": "Rijksweg 1 ZZ /Rijksweg A58", "city": "KRABBENDIJKE", "state": null, "postcode": "4413 RZ", "telephone": "+31 113 502 047", "facilities": ["high_speed_pump", "truck_parking", "truck_suitable_site", "toilet", "wifi", "motorway_site", "albert_heijn", "accepts_routex_cards", "shop_open_24_hours", "open_saturday", "open_sunday", "mobile_enabled"], "products": ["ad_blue_cannister", "ad_blue_pump", "auto_gas", "diesel_on", "lpg", "truck_diesel", "ultimate", "ultimate_diesel", "ultimate_unleaded", "unleaded_95", "ad_blue"], "website": null, "watchlist_id": null, "formatted_address": "Rijksweg 1 ZZ /Rijksweg A58\n4413 RZ\nKRABBENDIJKE", "channel_of_trade": null}, {"id": "NL-5069", "name": "BP de Vliete", "lat": 51.4225085, "lng": 4.0973478, "site_brand": "BP", "country_code": "NL", "address": "Vliete 1 / Rijksweg A58", "city": "KRABBENDIJKE", "state": null, "postcode": "4413 RX", "telephone": "+31 113 502 106", "facilities": ["high_speed_pump", "truck_parking", "truck_suitable_site", "toilet", "motorway_site", "albert_heijn", "accepts_routex_cards", "open_saturday", "open_sunday", "mobile_enabled"], "products": ["ad_blue_cannister", "ad_blue_pump", "auto_gas", "diesel_on", "electricity", "lpg", "ultimate", "ultimate_diesel", "ultimate_unleaded", "unleaded_95", "ad_blue"], "website": null, "watchlist_id": null, "formatted_address": "Vliete 1 / Rijksweg A58\n4413 RX\nKRABBENDIJKE", "channel_of_trade": null}, {"id": "NL-5075", "name": "BP Huizum", "lat": 53.194316, "lng": 5.816198, "site_brand": "BP", "country_code": "NL", "address": "Drachtsterweg 4", "city": "LEEUWARDEN", "state": null, "postcode": "8934 BV", "telephone": "+31 58 288 4644", "facilities": ["truck_suitable_site", "toilet", "albert_heijn", "accepts_routex_cards", "open_saturday", "open_sunday", "mobile_enabled"], "products": ["ad_blue_cannister", "ad_blue_pump", "auto_gas", "diesel_on", "lpg", "ultimate", "ultimate_diesel", "ultimate_unleaded", "unleaded_95", "ad_blue"], "website": null, "watchlist_id": null, "formatted_address": "Drachtsterweg 4\n8934 BV\nLEEUWARDEN", "channel_of_trade": null}, {"id": "NL-5077", "name": "BP Larserdreef", "lat": 52.4884, "lng": 5.491861, "site_brand": "BP", "country_code": "NL", "address": "Ketelmeerstraat 220", "city": "LELYSTAD", "state": null, "postcode": "8226 JX", "telephone": "+31 320 820 992", "facilities": ["car_wash", "high_speed_pump", "truck_suitable_site", "toilet", "albert_heijn", "accepts_routex_cards", "shop_open_24_hours", "open_saturday", "open_sunday", "mobile_enabled"], "products": ["ad_blue_cannister", "ad_blue_pump", "auto_gas", "diesel_on", "electricity", "lpg", "ultimate", "ultimate_diesel", "ultimate_unleaded", "unleaded_95", "ad_blue"], "website": null, "watchlist_id": null, "formatted_address": "Ketelmeerstraat 220\n8226 JX\nLELYSTAD", "channel_of_trade": null}, {"id": "NL-5084", "name": "BP Maarssenbroek", "lat": 52.1229, "lng": 5.03365, "site_brand": "BP", "country_code": "NL", "address": "Floraweg 2", "city": "MAARSSEN", "state": null, "postcode": "3608 BW", "telephone": "+31 346 568 586", "facilities": ["car_wash", "high_speed_pump", "truck_suitable_site", "albert_heijn", "accepts_routex_cards", "open_saturday", "open_sunday", "mobile_enabled"], "products": ["ad_blue_cannister", "ad_blue_pump", "auto_gas", "diesel_on", "hvo", "lpg", "truck_diesel", "ultimate", "ultimate_unleaded", "unleaded_95", "ad_blue"], "website": null, "watchlist_id": null, "formatted_address": "Floraweg 2\n3608 BW\nMAARSSEN", "channel_of_trade": null}, {"id": "NL-5085", "name": "BP Voordaan", "lat": 52.1286449, "lng": 5.149849, "site_brand": "BP", "country_code": "NL", "address": "Rijksweg A27", "city": "GROENEKAN", "state": null, "postcode": "3737 MM", "telephone": "+31 346 210 078", "facilities": ["open_24_hours", "tobacco", "high_speed_pump", "truck_parking", "truck_suitable_site", "toilet", "motorway_site", "albert_heijn", "accepts_routex_cards", "shop_open_24_hours", "open_saturday", "open_sunday", "mobile_enabled"], "products": ["ad_blue_cannister", "ad_blue_pump", "auto_gas", "diesel_on", "electricity", "lpg", "truck_diesel", "ultimate", "ultimate_diesel", "ultimate_unleaded", "unleaded_95", "ad_blue"], "website": null, "watchlist_id": null, "formatted_address": "Rijksweg A27\n3737 MM\nGROENEKAN", "channel_of_trade": null}, {"id": "NL-5087", "name": "BP De Heeg", "lat": 50.8315, "lng": 5.7215, "site_brand": "BP", "country_code": "NL", "address": "Oeslingerbaan 100", "city": "MAASTRICHT", "state": null, "postcode": "6228 LK", "telephone": "+31 88 313 0039", "facilities": ["car_wash", "truck_suitable_site", "accepts_routex_cards", "open_saturday", "open_sunday", "mobile_enabled"], "products": ["ad_blue_cannister", "diesel_on", "truck_diesel", "ultimate", "ultimate_diesel", "ultimate_unleaded", "unleaded_95"], "website": null, "watchlist_id": null, "formatted_address": "Oeslingerbaan 100\n6228 LK\nMAASTRICHT", "channel_of_trade": null}, {"id": "NL-5088", "name": "BP Maasbree", "lat": 51.355112, "lng": 6.050134, "site_brand": "BP", "country_code": "NL", "address": "Provincialeweg 19", "city": "MAASBREE", "state": null, "postcode": "5993 RG", "telephone": "+31 77 465 1459", "facilities": ["car_wash", "truck_suitable_site", "toilet", "accepts_routex_cards", "open_saturday", "open_sunday", "mobile_enabled"], "products": ["ad_blue_cannister", "auto_gas", "diesel_on", "lpg", "truck_diesel", "unleaded_95"], "website": null, "watchlist_id": null, "formatted_address": "Provincialeweg 19\n5993 RG\nMAASBREE", "channel_of_trade": null}, {"id": "NL-5089", "name": "BP De Geusselt", "lat": 50.855831, "lng": 5.715516, "site_brand": "BP", "country_code": "NL", "address": "Dr. Schaepmanstraat 75", "city": "MAASTRICHT", "state": null, "postcode": "6225 XW", "telephone": "+31 43 362 3460", "facilities": ["open_24_hours", "car_wash", "high_speed_pump", "truck_suitable_site", "toilet", "albert_heijn", "accepts_routex_cards", "shop_open_24_hours", "open_saturday", "open_sunday", "mobile_enabled"], "products": ["ad_blue_cannister", "auto_gas", "diesel_on", "lpg", "truck_diesel", "ultimate", "ultimate_diesel", "ultimate_unleaded", "unleaded_95"], "website": null, "watchlist_id": null, "formatted_address": "Dr. Schaepmanstraat 75\n6225 XW\nMAASTRICHT", "channel_of_trade": null}, {"id": "NL-5091", "name": "BP express Medemblik", "lat": 52.7688208, "lng": 5.0920518, "site_brand": "BP", "country_code": "NL", "address": "Westerzeedijk 1", "city": "MEDEMBLIK", "state": null, "postcode": "1671 GX", "telephone": "08002727270", "facilities": ["open_24_hours", "accepts_routex_cards", "open_saturday", "open_sunday"], "products": ["diesel_on", "electricity", "ultimate", "ultimate_diesel", "ultimate_unleaded", "unleaded_95"], "website": null, "watchlist_id": null, "formatted_address": "Westerzeedijk 1\n1671 GX\nMEDEMBLIK", "channel_of_trade": null}, {"id": "NL-5092", "name": "BP De Meern", "lat": 52.076413, "lng": 5.032081, "site_brand": "BP", "country_code": "NL", "address": "Meerndijk (westzijde) 124", "city": "DE MEERN", "state": null, "postcode": "3454 HV", "telephone": "+31 30 666 4607", "facilities": ["albert_heijn", "accepts_routex_cards", "open_saturday", "open_sunday", "mobile_enabled"], "products": ["ad_blue_cannister", "auto_gas", "diesel_on", "lpg", "ultimate", "ultimate_diesel", "ultimate_unleaded", "unleaded_95"], "website": null, "watchlist_id": null, "formatted_address": "Meerndijk (westzijde) 124\n3454 HV\nDE MEERN", "channel_of_trade": null}, {"id": "NL-5102", "name": "BP Naarden", "lat": 52.2834, "lng": 5.161525, "site_brand": "BP", "country_code": "NL", "address": "Lamb. Hortensiuslaan 23", "city": "NAARDEN", "state": null, "postcode": "1412 GV", "telephone": "+31 35 694 6176", "facilities": ["car_wash", "toilet", "albert_heijn", "accepts_routex_cards", "open_saturday", "open_sunday", "mobile_enabled"], "products": ["ad_blue_cannister", "auto_gas", "diesel_on", "lpg", "ultimate", "ultimate_diesel", "ultimate_unleaded", "unleaded_95"], "website": null, "watchlist_id": null, "formatted_address": "Lamb. Hortensiuslaan 23\n1412 GV\nNAARDEN", "channel_of_trade": null}, {"id": "NL-5105", "name": "BP Jutphaas", "lat": 52.033508, "lng": 5.083347, "site_brand": "BP", "country_code": "NL", "address": "Richterslaan 1", "city": "NIEUWEGEIN", "state": null, "postcode": "3431 AD", "telephone": "+31 30 603 2469", "facilities": ["car_wash", "albert_heijn", "accepts_routex_cards", "open_saturday", "open_sunday", "mobile_enabled"], "products": ["ad_blue_cannister", "diesel_on", "ultimate", "ultimate_diesel", "ultimate_unleaded", "unleaded_95"], "website": null, "watchlist_id": null, "formatted_address": "Richterslaan 1\n3431 AD\nNIEUWEGEIN", "channel_of_trade": null}, {"id": "NL-5117", "name": "BP Elsgeest", "lat": 52.197651, "lng": 4.469858, "site_brand": "BP", "country_code": "NL", "address": "Rijksweg A44", "city": "OEGSTGEEST", "state": null, "postcode": "2343 ZZ", "telephone": "+31 71 517 4054", "facilities": ["open_24_hours", "high_speed_pump", "truck_parking", "truck_suitable_site", "toilet", "motorway_site", "albert_heijn", "accepts_routex_cards", "shop_open_24_hours", "open_saturday", "open_sunday", "mobile_enabled"], "products": ["ad_blue_cannister", "ad_blue_pump", "auto_gas", "diesel_on", "hvo", "lpg", "ultimate", "ultimate_diesel", "ultimate_unleaded", "unleaded_95", "ad_blue"], "website": null, "watchlist_id": null, "formatted_address": "Rijksweg A44\n2343 ZZ\nOEGSTGEEST", "channel_of_trade": null}, {"id": "NL-5118", "name": "BP Oirschot", "lat": 51.4960649, "lng": 5.3140488, "site_brand": "BP", "country_code": "NL", "address": "Kempenweg 5", "city": "OIRSCHOT", "state": null, "postcode": "5688 MZ", "telephone": "+31 499 578 858", "facilities": ["car_wash", "high_speed_pump", "truck_suitable_site", "toilet", "albert_heijn", "accepts_routex_cards", "shop_open_24_hours", "open_saturday", "open_sunday", "mobile_enabled"], "products": ["ad_blue_cannister", "ad_blue_pump", "auto_gas", "diesel_on", "hvo", "lpg", "ultimate", "ultimate_unleaded", "unleaded_95", "ad_blue"], "website": null, "watchlist_id": null, "formatted_address": "Kempenweg 5\n5688 MZ\nOIRSCHOT", "channel_of_trade": null}, {"id": "NL-5119", "name": "BP Vieveen Oisterwijk B.V.", "lat": 51.578533, "lng": 5.204601, "site_brand": "BP", "country_code": "NL", "address": "Gemullehoekenweg 79", "city": "OISTERWIJK", "state": null, "postcode": "5062 CA", "telephone": "+31 13 528 5080", "facilities": ["car_wash", "toilet", "accepts_routex_cards", "open_saturday", "open_sunday", "mobile_enabled"], "products": ["ad_blue_cannister", "diesel_on", "ultimate", "ultimate_diesel", "ultimate_unleaded", "unleaded_95"], "website": null, "watchlist_id": null, "formatted_address": "Gemullehoekenweg 79\n5062 CA\nOISTERWIJK", "channel_of_trade": null}, {"id": "NL-5123", "name": "BP express Oosterhout", "lat": 51.65003, "lng": 4.86898, "site_brand": "BP", "country_code": "NL", "address": "Pasteurlaan 4", "city": "OOSTERHOUT", "state": null, "postcode": "4901 DJ", "telephone": "08002727270", "facilities": ["open_24_hours", "high_speed_pump", "truck_suitable_site", "accepts_routex_cards", "open_saturday", "open_sunday"], "products": ["diesel_on", "ultimate", "ultimate_diesel", "ultimate_unleaded", "unleaded_95"], "website": null, "watchlist_id": null, "formatted_address": "Pasteurlaan 4\n4901 DJ\nOOSTERHOUT", "channel_of_trade": null}, {"id": "NL-5126", "name": "BP Ussen", "lat": 51.766478, "lng": 5.508688, "site_brand": "BP", "country_code": "NL", "address": "Leygraaf 9", "city": "OSS", "state": null, "postcode": "5345 SM", "telephone": "+31 412 639 480", "facilities": ["toilet", "albert_heijn", "accepts_routex_cards", "open_saturday", "open_sunday", "mobile_enabled"], "products": ["ad_blue_cannister", "diesel_on", "electricity", "lpg", "ultimate", "ultimate_diesel", "ultimate_unleaded", "unleaded_95"], "website": null, "watchlist_id": null, "formatted_address": "Leygraaf 9\n5345 SM\nOSS", "channel_of_trade": null}, {"id": "NL-5128", "name": "BP De Ketel", "lat": 51.827682, "lng": 4.733111, "site_brand": "BP", "country_code": "NL", "address": "Ketelweg 91", "city": "PAPENDRECHT", "state": null, "postcode": "3356 LD", "telephone": "+31 78 615 9154", "facilities": ["car_wash", "high_speed_pump", "truck_suitable_site", "toilet", "accepts_routex_cards", "open_saturday", "open_sunday", "mobile_enabled"], "products": ["ad_blue_cannister", "auto_gas", "diesel_on", "electricity", "lpg", "ultimate", "ultimate_diesel", "ultimate_unleaded", "unleaded_95"], "website": null, "watchlist_id": null, "formatted_address": "Ketelweg 91\n3356 LD\nPAPENDRECHT", "channel_of_trade": null}, {"id": "NL-5135", "name": "BP express Rhenen", "lat": 51.96092, "lng": 5.5583, "site_brand": "BP", "country_code": "NL", "address": "Utrechtsestraatweg 58 N225", "city": "RHENEN", "state": null, "postcode": "3911 TW", "telephone": "08002727270", "facilities": ["open_24_hours", "high_speed_pump", "truck_suitable_site", "accepts_routex_cards", "open_saturday", "open_sunday"], "products": ["diesel_on", "ultimate", "ultimate_diesel", "ultimate_unleaded", "unleaded_95"], "website": null, "watchlist_id": null, "formatted_address": "Utrechtsestraatweg 58 N225\n3911 TW\nRHENEN", "channel_of_trade": null}, {"id": "NL-5137", "name": "BP Langdonk", "lat": 51.5222959, "lng": 4.4736027, "site_brand": "BP", "country_code": "NL", "address": "Burg. Schneiderlaan 10", "city": "ROOSENDAAL", "state": null, "postcode": "4707 XC", "telephone": "+31 165 540 819", "facilities": ["car_wash", "truck_suitable_site", "albert_heijn", "accepts_routex_cards", "open_saturday", "open_sunday", "mobile_enabled"], "products": ["ad_blue_cannister", "auto_gas", "diesel_on", "lpg", "ultimate", "ultimate_diesel", "ultimate_unleaded", "unleaded_95"], "website": null, "watchlist_id": null, "formatted_address": "Burg. Schneiderlaan 10\n4707 XC\nROOSENDAAL", "channel_of_trade": null}, {"id": "NL-51383587", "name": "BP Epe", "lat": 52.350736, "lng": 5.989533, "site_brand": "BP", "country_code": "NL", "address": "Paasvuurweg 9", "city": "EPE", "state": null, "postcode": "8161 CA", "telephone": "+31 578 612 456", "facilities": ["car_wash", "high_speed_pump", "truck_suitable_site", "toilet", "accepts_routex_cards", "open_saturday", "mobile_enabled"], "products": ["ad_blue_cannister", "auto_gas", "diesel_on", "lpg", "ultimate", "ultimate_unleaded", "unleaded_95"], "website": null, "watchlist_id": "51383587", "formatted_address": "Paasvuurweg 9\n8161 CA\nEPE", "channel_of_trade": null}, {"id": "NL-5140", "name": "BP Hazeldonk (Automaat-trucks)", "lat": 51.49035, "lng": 4.74458, "site_brand": "BP", "country_code": "NL", "address": "Hazeldonk 1004-1", "city": "RIJSBERGEN", "state": null, "postcode": "4891 LC", "telephone": "08002727270", "facilities": ["open_24_hours", "high_speed_pump", "truck_parking", "truck_suitable_site", "accepts_routex_cards", "automatic_site", "open_saturday", "open_sunday"], "products": ["ad_blue_pump", "auto_gas", "diesel_on", "ad_blue"], "website": null, "watchlist_id": null, "formatted_address": "Hazeldonk 1004-1\n4891 LC\nRIJSBERGEN", "channel_of_trade": null}, {"id": "NL-5145", "name": "BP Capelseweg", "lat": 51.958038, "lng": 4.562062, "site_brand": "BP", "country_code": "NL", "address": "Capelseweg 355", "city": "ROTTERDAM", "state": null, "postcode": "3068 AX", "telephone": "+31 10 456 3473", "facilities": ["open_24_hours", "truck_suitable_site", "toilet", "albert_heijn", "accepts_routex_cards", "shop_open_24_hours", "open_saturday", "open_sunday", "mobile_enabled"], "products": ["ad_blue_cannister", "auto_gas", "diesel_on", "electricity", "lpg", "ultimate", "ultimate_diesel", "ultimate_unleaded", "unleaded_95"], "website": null, "watchlist_id": null, "formatted_address": "Capelseweg 355\n3068 AX\nROTTERDAM", "channel_of_trade": null}, {"id": "NL-5153", "name": "BP Tjalklaan", "lat": 51.92219, "lng": 4.421203, "site_brand": "BP", "country_code": "NL", "address": "Tjalklaan 12", "city": "ROTTERDAM", "state": null, "postcode": "3044 AZ", "telephone": "+31 10 462 1072", "facilities": ["open_24_hours", "truck_suitable_site", "albert_heijn", "accepts_routex_cards", "shop_open_24_hours", "open_saturday", "open_sunday", "mobile_enabled"], "products": ["ad_blue_cannister", "ad_blue_pump", "diesel_on", "electricity", "lpg", "ultimate", "ultimate_diesel", "ultimate_unleaded", "unleaded_95", "ad_blue"], "website": null, "watchlist_id": null, "formatted_address": "Tjalklaan 12\n3044 AZ\nROTTERDAM", "channel_of_trade": null}, {"id": "NL-5168", "name": "BP Soest", "lat": 52.17815, "lng": 5.27079, "site_brand": "BP", "country_code": "NL", "address": "Koningsweg 17", "city": "SOEST", "state": null, "postcode": "3762 EA", "telephone": "+31 88 313 0084", "facilities": ["car_wash", "high_speed_pump", "truck_suitable_site", "wifi", "wild_bean_cafe", "accepts_routex_cards", "shop_open_24_hours", "open_saturday", "open_sunday", "mobile_enabled"], "products": ["ad_blue_cannister", "auto_gas", "diesel_on", "lpg", "ultimate", "ultimate_diesel", "ultimate_unleaded", "unleaded_95"], "website": null, "watchlist_id": null, "formatted_address": "Koningsweg 17\n3762 EA\nSOEST", "channel_of_trade": null}, {"id": "NL-5173", "name": "BP Ter Apelkanaal (Automaat-trucks)", "lat": 52.9251454, "lng": 7.0406801, "site_brand": "BP", "country_code": "NL", "address": "Handelsweg 3", "city": "TER APELKANAAL", "state": null, "postcode": "9563 TR", "telephone": "+31 513 657 010", "facilities": ["open_24_hours", "high_speed_pump", "truck_suitable_site", "accepts_routex_cards", "automatic_site", "open_saturday", "open_sunday"], "products": ["ad_blue_pump", "diesel_on", "red_diesel", "ad_blue"], "website": null, "watchlist_id": null, "formatted_address": "Handelsweg 3\n9563 TR\nTER APELKANAAL", "channel_of_trade": null}, {"id": "NL-5178", "name": "BP Kempenbaan I (Uitgaand)", "lat": 51.548816, "lng": 5.110391, "site_brand": "BP", "country_code": "NL", "address": "Kempenbaan 35", "city": "TILBURG", "state": null, "postcode": "5022 KC", "telephone": "+31 13 536 0201", "facilities": ["high_speed_pump", "truck_suitable_site", "toilet", "albert_heijn", "accepts_routex_cards", "shop_open_24_hours", "open_saturday", "open_sunday", "mobile_enabled"], "products": ["ad_blue_cannister", "auto_gas", "diesel_on", "electricity", "lpg", "ultimate", "ultimate_diesel", "ultimate_unleaded", "unleaded_95"], "website": null, "watchlist_id": null, "formatted_address": "Kempenbaan 35\n5022 KC\nTILBURG", "channel_of_trade": null}, {"id": "NL-5190", "name": "BP Express Utrecht", "lat": 52.120664, "lng": 5.121667, "site_brand": "BP", "country_code": "NL", "address": "Alb. Schweitzerdreef 12", "city": "UTRECHT", "state": null, "postcode": "3562 MA", "telephone": "08002727270", "facilities": ["open_24_hours", "high_speed_pump", "truck_suitable_site", "accepts_routex_cards", "open_saturday", "open_sunday"], "products": ["diesel_on", "electricity", "lpg", "ultimate", "ultimate_diesel", "ultimate_unleaded", "unleaded_95"], "website": null, "watchlist_id": null, "formatted_address": "Alb. Schweitzerdreef 12\n3562 MA\nUTRECHT", "channel_of_trade": null}, {"id": "NL-5193", "name": "BP Cartesiusweg", "lat": 52.0982344, "lng": 5.0863373, "site_brand": "BP", "country_code": "NL", "address": "Cartesiusweg 140", "city": "UTRECHT", "state": null, "postcode": "3534 BD", "telephone": "+31 88 313 0264", "facilities": ["car_wash", "high_speed_pump", "truck_suitable_site", "toilet", "wild_bean_cafe", "accepts_routex_cards", "shop_open_24_hours", "open_saturday", "open_sunday", "mobile_enabled"], "products": ["ad_blue_cannister", "auto_gas", "diesel_on", "lpg", "truck_diesel", "ultimate", "ultimate_diesel", "ultimate_unleaded", "unleaded_95"], "website": null, "watchlist_id": null, "formatted_address": "Cartesiusweg 140\n3534 BD\nUTRECHT", "channel_of_trade": null}, {"id": "NL-5194", "name": "BP Galgenwaard", "lat": 52.0786175, "lng": 5.1428139, "site_brand": "BP", "country_code": "NL", "address": "Herculesplein 300", "city": "UTRECHT", "state": null, "postcode": "3584 AA", "telephone": "+31 30 251 3075", "facilities": ["car_wash", "truck_suitable_site", "wifi", "wild_bean_cafe", "accepts_routex_cards", "open_saturday", "open_sunday", "mobile_enabled"], "products": ["ad_blue_cannister", "auto_gas", "diesel_on", "lpg", "ultimate", "ultimate_diesel", "ultimate_unleaded", "unleaded_95"], "website": null, "watchlist_id": null, "formatted_address": "Herculesplein 300\n3584 AA\nUTRECHT", "channel_of_trade": null}, {"id": "NL-5198", "name": "BP Veghel", "lat": 51.619221, "lng": 5.5636523, "site_brand": "BP", "country_code": "NL", "address": "Udenseweg 3", "city": "VEGHEL", "state": null, "postcode": "5464 VA", "telephone": "+31 413 364 848", "facilities": ["car_wash", "truck_parking", "truck_suitable_site", "toilet", "albert_heijn", "accepts_routex_cards", "shop_open_24_hours", "open_saturday", "open_sunday", "mobile_enabled"], "products": ["ad_blue_cannister", "auto_gas", "diesel_on", "electricity", "lpg", "ultimate", "ultimate_diesel", "ultimate_unleaded", "unleaded_95"], "website": null, "watchlist_id": null, "formatted_address": "Udenseweg 3\n5464 VA\nVEGHEL", "channel_of_trade": null}, {"id": "NL-5202", "name": "BP Klaver 2", "lat": 51.372788, "lng": 6.1362042, "site_brand": "BP", "country_code": "NL", "address": "Henr. Roland Holstlaan 50", "city": "VENLO", "state": null, "postcode": "5925 AA", "telephone": "+31 77 387 0740", "facilities": ["truck_suitable_site", "accepts_routex_cards", "open_saturday", "open_sunday", "mobile_enabled"], "products": ["ad_blue_cannister", "diesel_on", "truck_diesel", "ultimate", "ultimate_diesel", "ultimate_unleaded", "unleaded_95"], "website": null, "watchlist_id": null, "formatted_address": "Henr. Roland Holstlaan 50\n5925 AA\nVENLO", "channel_of_trade": null}, {"id": "NL-5207", "name": "BP Marathonweg", "lat": 51.9162179, "lng": 4.3302977, "site_brand": "BP", "country_code": "NL", "address": "Marathonweg 18", "city": "VLAARDINGEN", "state": null, "postcode": "3132 LA", "telephone": "+31 10 234 0030", "facilities": ["car_wash", "truck_parking", "truck_suitable_site", "toilet", "albert_heijn", "accepts_routex_cards", "open_saturday", "open_sunday", "mobile_enabled"], "products": ["ad_blue_cannister", "auto_gas", "diesel_on", "electricity", "lpg", "truck_diesel", "ultimate", "ultimate_diesel", "ultimate_unleaded", "unleaded_95"], "website": null, "watchlist_id": null, "formatted_address": "Marathonweg 18\n3132 LA\nVLAARDINGEN", "channel_of_trade": null}, {"id": "NL-5208", "name": "BP Maassluis", "lat": 51.9187359, "lng": 4.3158727, "site_brand": "BP", "country_code": "NL", "address": "Rijksweg A20", "city": "VLAARDINGEN", "state": null, "postcode": "3138 HB", "telephone": "+31 10 475 0643", "facilities": ["open_24_hours", "high_speed_pump", "truck_parking", "truck_suitable_site", "toilet", "motorway_site", "albert_heijn", "accepts_routex_cards", "shop_open_24_hours", "open_saturday", "open_sunday", "mobile_enabled"], "products": ["ad_blue_cannister", "ad_blue_pump", "auto_gas", "diesel_on", "hvo", "lpg", "ultimate", "ultimate_diesel", "ultimate_unleaded", "unleaded_95", "ad_blue"], "website": null, "watchlist_id": null, "formatted_address": "Rijksweg A20\n3138 HB\nVLAARDINGEN", "channel_of_trade": null}, {"id": "NL-5212", "name": "BP Tankstation Molenaar BV", "lat": 52.49198, "lng": 5.06189, "site_brand": "BP", "country_code": "NL", "address": "Julianaweg 1", "city": "VOLENDAM", "state": null, "postcode": "1131 CX", "telephone": "+31 88 313 0198", "facilities": ["car_wash", "truck_suitable_site", "toilet", "accepts_routex_cards", "open_saturday", "open_sunday", "mobile_enabled"], "products": ["ad_blue_cannister", "ad_blue_pump", "auto_gas", "diesel_on", "lpg", "truck_diesel", "ultimate", "ultimate_diesel", "ultimate_unleaded", "unleaded_95", "ad_blue"], "website": null, "watchlist_id": null, "formatted_address": "Julianaweg 1\n1131 CX\nVOLENDAM", "channel_of_trade": null}, {"id": "NL-5213", "name": "BP express Voorschoten", "lat": 52.1348882, "lng": 4.4660644, "site_brand": "BP", "country_code": "NL", "address": "Voorschoterweg 20", "city": "VOORSCHOTEN", "state": null, "postcode": "2251 LS", "telephone": "08002727270", "facilities": ["open_24_hours", "accepts_routex_cards", "open_saturday", "open_sunday"], "products": ["diesel_on", "electricity", "ultimate", "ultimate_diesel", "ultimate_unleaded", "unleaded_95"], "website": null, "watchlist_id": null, "formatted_address": "Voorschoterweg 20\n2251 LS\nVOORSCHOTEN", "channel_of_trade": null}, {"id": "NL-5239", "name": "BP Palenstein", "lat": 52.0559919, "lng": 4.5106857, "site_brand": "BP", "country_code": "NL", "address": "Van Aalstlaan 380", "city": "ZOETERMEER", "state": null, "postcode": "2722 RX", "telephone": "+31 79 331 0184", "facilities": ["car_wash", "toilet", "albert_heijn", "accepts_routex_cards", "open_saturday", "open_sunday", "mobile_enabled"], "products": ["ad_blue_cannister", "diesel_on", "electricity", "ultimate", "ultimate_diesel", "ultimate_unleaded", "unleaded_95"], "website": null, "watchlist_id": null, "formatted_address": "Van Aalstlaan 380\n2722 RX\nZOETERMEER", "channel_of_trade": null}, {"id": "NL-5246", "name": "BP IJsselallee", "lat": 52.4996033, "lng": 6.1046272, "site_brand": "BP", "country_code": "NL", "address": "IJsselallee 1", "city": "ZWOLLE", "state": null, "postcode": "8017 ZA", "telephone": "+31 38 466 0073", "facilities": ["open_24_hours", "car_wash", "high_speed_pump", "truck_parking", "truck_suitable_site", "toilet", "albert_heijn", "accepts_routex_cards", "shop_open_24_hours", "open_saturday", "open_sunday", "mobile_enabled"], "products": ["ad_blue_cannister", "ad_blue_pump", "auto_gas", "diesel_on", "lpg", "ultimate", "ultimate_diesel", "ultimate_unleaded", "unleaded_95", "ad_blue"], "website": null, "watchlist_id": null, "formatted_address": "IJsselallee 1\n8017 ZA\nZWOLLE", "channel_of_trade": null}, {"id": "NL-5249", "name": "BP Munnikensteeg", "lat": 51.822523, "lng": 4.602788, "site_brand": "BP", "country_code": "NL", "address": "Munnikensteeg 26", "city": "ZWIJNDRECHT", "state": null, "postcode": "3335 LJ", "telephone": "+31 78 610 3035", "facilities": ["car_wash", "truck_suitable_site", "toilet", "albert_heijn", "accepts_routex_cards", "open_saturday", "open_sunday", "mobile_enabled"], "products": ["ad_blue_cannister", "auto_gas", "diesel_on", "electricity", "lpg", "ultimate", "ultimate_diesel", "ultimate_unleaded", "unleaded_95"], "website": null, "watchlist_id": null, "formatted_address": "Munnikensteeg 26\n3335 LJ\nZWIJNDRECHT", "channel_of_trade": null}, {"id": "NL-537135029", "name": "BP Maas Nieuwkoop BV", "lat": 52.15501, "lng": 4.78207, "site_brand": "BP", "country_code": "NL", "address": "Nieuwveenseweg 7", "city": "NIEUWKOOP", "state": null, "postcode": "2421 LA", "telephone": "+31 172 423 200", "facilities": ["open_24_hours", "high_speed_pump", "truck_suitable_site", "toilet", "accepts_routex_cards", "open_saturday", "open_sunday"], "products": ["diesel_on", "truck_diesel", "ultimate", "ultimate_diesel", "ultimate_unleaded", "unleaded_95"], "website": null, "watchlist_id": null, "formatted_address": "Nieuwveenseweg 7\n2421 LA\nNIEUWKOOP", "channel_of_trade": null}, {"id": "NL-545952693", "name": "BP de Roode Til", "lat": 53.182396, "lng": 6.932881, "site_brand": "BP", "country_code": "NL", "address": "Rijksweg A7 nr. 1", "city": "Scheemda", "state": null, "postcode": "9679 TN", "telephone": "+31 597 726 801", "facilities": ["high_speed_pump", "lorry_and_truck_terminal", "truck_parking", "truck_suitable_site", "toilet", "motorway_site", "accepts_routex_cards", "open_saturday", "open_sunday", "mobile_enabled"], "products": ["ad_blue_cannister", "ad_blue_pump", "diesel_on", "truck_diesel", "ultimate", "ultimate_diesel", "ultimate_unleaded", "unleaded_95", "ad_blue"], "website": null, "watchlist_id": null, "formatted_address": "Rijksweg A7 nr. 1\n9679 TN\nScheemda", "channel_of_trade": null}, {"id": "NL-546046888", "name": "BP Zeyerveen", "lat": 53.016951, "lng": 6.545668, "site_brand": "BP", "country_code": "NL", "address": "Verzorgingsplaats 2", "city": "ASSEN", "state": null, "postcode": "9489 TZ", "telephone": "+31 88 313 0275", "facilities": ["open_24_hours", "high_speed_pump", "lorry_and_truck_terminal", "truck_parking", "truck_suitable_site", "motorway_site", "wild_bean_cafe", "accepts_routex_cards", "open_saturday", "open_sunday", "mobile_enabled"], "products": ["ad_blue_cannister", "ad_blue_pump", "auto_gas", "diesel_on", "lpg", "truck_diesel", "ultimate", "ultimate_diesel", "ultimate_unleaded", "unleaded_95", "ad_blue"], "website": null, "watchlist_id": null, "formatted_address": "Verzorgingsplaats 2\n9489 TZ\nASSEN", "channel_of_trade": null}, {"id": "NL-547430512", "name": "BP AUTOMAAT BOLSWARD", "lat": 53.06938, "lng": 5.49839, "site_brand": "BP", "country_code": "NL", "address": "de Marne 224", "city": "Bolsward", "state": null, "postcode": "8701 MH", "telephone": "+31 513 657 010", "facilities": ["high_speed_pump", "truck_suitable_site", "accepts_routex_cards", "automatic_site", "open_saturday", "open_sunday"], "products": ["ad_blue_pump", "diesel_on", "unleaded_95", "ad_blue"], "website": null, "watchlist_id": null, "formatted_address": "de Marne 224\n8701 MH\nBolsward", "channel_of_trade": null}, {"id": "NL-552591810", "name": "BP Veenendaal (Automaat-trucks)", "lat": 52.039895, "lng": 5.557879, "site_brand": "BP", "country_code": "NL", "address": "Plesmanstraat 9", "city": "VEENENDAAL", "state": null, "postcode": "3905 KZ", "telephone": "+31 318 541 041", "facilities": ["open_24_hours", "high_speed_pump", "truck_parking", "truck_suitable_site", "accepts_routex_cards", "automatic_site", "open_saturday", "open_sunday"], "products": ["ad_blue_pump", "diesel_on", "ultimate", "ultimate_diesel", "ultimate_unleaded", "unleaded_95", "ad_blue"], "website": null, "watchlist_id": null, "formatted_address": "Plesmanstraat 9\n3905 KZ\nVEENENDAAL", "channel_of_trade": null}, {"id": "NL-552992388", "name": "BP Cornelis Douwesweg", "lat": 52.4152778, "lng": 4.8748075, "site_brand": "BP", "country_code": "NL", "address": "Corn. Douwesweg 15", "city": "AMSTERDAM", "state": null, "postcode": "1033 NP", "telephone": "+31 20 631 3333", "facilities": ["car_wash", "high_speed_pump", "truck_suitable_site", "albert_heijn", "accepts_routex_cards", "open_saturday", "open_sunday", "mobile_enabled"], "products": ["ad_blue_cannister", "auto_gas", "diesel_on", "lpg", "ultimate", "ultimate_diesel", "ultimate_unleaded", "unleaded_95"], "website": null, "watchlist_id": null, "formatted_address": "Corn. Douwesweg 15\n1033 NP\nAMSTERDAM", "channel_of_trade": null}, {"id": "NL-563273615", "name": "BP Middellaan", "lat": 51.6290034, "lng": 4.9280413, "site_brand": "BP", "country_code": "NL", "address": "Middellaan 14", "city": "DONGEN", "state": null, "postcode": "5102 DA", "telephone": "+31 162 371 958", "facilities": ["toilet", "albert_heijn", "accepts_routex_cards", "open_saturday", "open_sunday", "mobile_enabled"], "products": ["ad_blue_cannister", "auto_gas", "diesel_on", "lpg", "ultimate", "ultimate_diesel", "ultimate_unleaded", "unleaded_95"], "website": null, "watchlist_id": null, "formatted_address": "Middellaan 14\n5102 DA\nDONGEN", "channel_of_trade": null}, {"id": "NL-571342566", "name": "BP Bovenboer", "lat": 52.753344, "lng": 6.186891, "site_brand": "BP", "country_code": "NL", "address": "Rijksweg A32 (westzijde)", "city": "NIJEVEEN", "state": null, "postcode": "7973 KT", "telephone": "+31 522 492 536", "facilities": ["high_speed_pump", "truck_parking", "truck_suitable_site", "toilet", "motorway_site", "wild_bean_cafe", "accepts_routex_cards", "open_saturday", "open_sunday", "mobile_enabled"], "products": ["ad_blue_cannister", "ad_blue_pump", "auto_gas", "diesel_on", "lpg", "truck_diesel", "ultimate", "ultimate_diesel", "ultimate_unleaded", "unleaded_95", "ad_blue"], "website": null, "watchlist_id": null, "formatted_address": "Rijksweg A32 (westzijde)\n7973 KT\nNIJEVEEN", "channel_of_trade": null}, {"id": "NL-571735352", "name": "BP DE PARCKELAER", "lat": 52.241311, "lng": 6.101087, "site_brand": "BP", "country_code": "NL", "address": "Rijksstraatweg 106", "city": "Twello", "state": null, "postcode": "7391 MV", "telephone": "+31 571 274 950", "facilities": ["high_speed_pump", "truck_suitable_site", "accepts_routex_cards", "open_saturday", "open_sunday", "mobile_enabled"], "products": ["ad_blue_cannister", "diesel_on", "red_diesel", "ultimate", "ultimate_unleaded", "unleaded_95"], "website": null, "watchlist_id": null, "formatted_address": "Rijksstraatweg 106\n7391 MV\nTwello", "channel_of_trade": null}, {"id": "NL-573547157", "name": "BP Express Schiermonnikoog", "lat": 53.4752117, "lng": 6.191154, "site_brand": "BP", "country_code": "NL", "address": "Veerweg 4", "city": "SCHIERMONNIKOOG", "state": null, "postcode": "9166 SL", "telephone": "+31 513 657 010", "facilities": ["open_24_hours", "accepts_routex_cards", "open_saturday", "open_sunday"], "products": ["diesel_on", "unleaded_95"], "website": null, "watchlist_id": null, "formatted_address": "Veerweg 4\n9166 SL\nSCHIERMONNIKOOG", "channel_of_trade": null}, {"id": "NL-575587290", "name": "BP Laren (GLD)", "lat": 52.1852612, "lng": 6.3774966, "site_brand": "BP", "country_code": "NL", "address": "Rengersweg 18", "city": "LAREN GLD", "state": null, "postcode": "7245 NA", "telephone": "+31 573 401 282", "facilities": ["truck_suitable_site", "toilet", "accepts_routex_cards", "open_saturday", "mobile_enabled"], "products": ["ad_blue_cannister", "diesel_on", "lpg", "truck_diesel", "ultimate", "ultimate_diesel", "ultimate_unleaded", "unleaded_95"], "website": null, "watchlist_id": null, "formatted_address": "Rengersweg 18\n7245 NA\nLAREN GLD", "channel_of_trade": null}, {"id": "NL-576544857", "name": "BP Balkenkolk", "lat": 52.994509, "lng": 6.535342, "site_brand": "BP", "country_code": "NL", "address": "Balkenweg 2", "city": "ASSEN", "state": null, "postcode": "9405 CC", "telephone": "+31 592 333 011", "facilities": ["car_wash", "high_speed_pump", "truck_suitable_site", "toilet", "albert_heijn", "accepts_routex_cards", "shop_open_24_hours", "open_saturday", "open_sunday", "mobile_enabled"], "products": ["ad_blue_cannister", "auto_gas", "diesel_on", "lpg", "ultimate", "ultimate_diesel", "ultimate_unleaded", "unleaded_95"], "website": null, "watchlist_id": null, "formatted_address": "Balkenweg 2\n9405 CC\nASSEN", "channel_of_trade": null}, {"id": "NL-577643925", "name": "BP Putten", "lat": 52.2730518, "lng": 5.6173825, "site_brand": "BP", "country_code": "NL", "address": "Oude Rijksweg 9", "city": "Putten", "state": null, "postcode": "3881 EH", "telephone": "+31 341 351 435", "facilities": ["truck_suitable_site", "toilet", "accepts_routex_cards", "open_saturday", "open_sunday", "mobile_enabled"], "products": ["ad_blue_cannister", "ad_blue_pump", "auto_gas", "diesel_on", "lpg", "truck_diesel", "ultimate", "ultimate_diesel", "ultimate_unleaded", "unleaded_95", "ad_blue"], "website": null, "watchlist_id": null, "formatted_address": "Oude Rijksweg 9\n3881 EH\nPutten", "channel_of_trade": null}, {"id": "NL-582877450", "name": "BP Westerspoor-Zuid (Automaat-trucks)", "lat": 52.4307535, "lng": 4.8038332, "site_brand": "BP", "country_code": "NL", "address": "Rechte Tocht 12", "city": "ZAANDAM", "state": null, "postcode": "1507 BZ", "telephone": "08002727270", "facilities": ["open_24_hours", "high_speed_pump", "truck_suitable_site", "accepts_routex_cards", "automatic_site", "open_saturday", "open_sunday"], "products": ["ad_blue_pump", "diesel_on", "ad_blue"], "website": null, "watchlist_id": null, "formatted_address": "Rechte Tocht 12\n1507 BZ\nZAANDAM", "channel_of_trade": null}, {"id": "NL-585108953", "name": "BP Dalhuisen 't Harde", "lat": 52.409251, "lng": 5.891229, "site_brand": "BP", "country_code": "NL", "address": "Eperweg 105", "city": "T HARDE", "state": null, "postcode": "8084 HD", "telephone": "+31 525 653 355", "facilities": ["car_wash", "high_speed_pump", "truck_suitable_site", "toilet", "accepts_routex_cards", "shop_open_24_hours", "open_saturday", "mobile_enabled"], "products": ["ad_blue_cannister", "ad_blue_pump", "auto_gas", "diesel_on", "lpg", "truck_diesel", "ultimate", "ultimate_diesel", "ultimate_unleaded", "unleaded_95", "ad_blue"], "website": null, "watchlist_id": null, "formatted_address": "Eperweg 105\n8084 HD\nT HARDE", "channel_of_trade": null}, {"id": "NL-585179318", "name": "BP 't Ambacht", "lat": 51.958085, "lng": 5.98188, "site_brand": "BP", "country_code": "NL", "address": "Het Ambacht 35", "city": "WESTERVOORT", "state": null, "postcode": "6931 EZ", "telephone": "+31 88 313 0268", "facilities": ["car_wash", "truck_suitable_site", "toilet", "accepts_routex_cards", "shop_open_24_hours", "open_saturday", "open_sunday"], "products": ["ad_blue_cannister", "auto_gas", "diesel_on", "lpg", "truck_diesel", "ultimate", "ultimate_diesel", "ultimate_unleaded", "unleaded_95"], "website": null, "watchlist_id": null, "formatted_address": "Het Ambacht 35\n6931 EZ\nWESTERVOORT", "channel_of_trade": null}, {"id": "NL-58661985", "name": "BP EDE", "lat": 52.033538, "lng": 5.612009, "site_brand": "BP", "country_code": "NL", "address": "Bonnetstraat 43", "city": "Ede", "state": null, "postcode": "6718 XN", "telephone": "", "facilities": ["truck_suitable_site", "accepts_routex_cards", "open_saturday", "open_sunday"], "products": ["diesel_on", "truck_diesel", "ultimate", "ultimate_diesel", "ultimate_unleaded", "unleaded_95"], "website": null, "watchlist_id": "58661985", "formatted_address": "Bonnetstraat 43\n6718 XN\nEde", "channel_of_trade": null}, {"id": "NL-607096014", "name": "BP EXPRESS SEVENUM", "lat": 51.41955, "lng": 6.03506, "site_brand": "BP", "country_code": "NL", "address": "Horsterweg 17", "city": "Sevenum", "state": null, "postcode": "5975 NA", "telephone": "", "facilities": ["accepts_routex_cards", "automatic_site"], "products": ["diesel_on", "unleaded_95"], "website": null, "watchlist_id": null, "formatted_address": "Horsterweg 17\n5975 NA\nSevenum", "channel_of_trade": null}, {"id": "NL-638436322", "name": "BP De Laarberg", "lat": 52.056361, "lng": 6.627111, "site_brand": "BP", "country_code": "NL", "address": "Eibergseweg 15", "city": "GROENLO", "state": null, "postcode": "7141 CD", "telephone": "08002727270", "facilities": ["open_24_hours", "truck_suitable_site", "toilet", "accepts_routex_cards", "open_saturday", "open_sunday", "mobile_enabled"], "products": ["ad_blue_cannister", "ad_blue_pump", "diesel_on", "lpg", "truck_diesel", "ultimate", "ultimate_diesel", "ultimate_unleaded", "unleaded_95", "ad_blue"], "website": null, "watchlist_id": null, "formatted_address": "Eibergseweg 15\n7141 CD\nGROENLO", "channel_of_trade": null}, {"id": "NL-640826470", "name": "BP Express Eindhoven", "lat": 51.4450248, "lng": 5.4477487, "site_brand": "BP", "country_code": "NL", "address": "Noord Brabantlaan 4A", "city": "EINDHOVEN", "state": null, "postcode": "5651 LX", "telephone": "08002727270", "facilities": ["accepts_routex_cards", "open_saturday", "open_sunday"], "products": ["diesel_on", "ultimate", "ultimate_diesel", "ultimate_unleaded", "unleaded_95"], "website": null, "watchlist_id": null, "formatted_address": "Noord Brabantlaan 4A\n5651 LX\nEINDHOVEN", "channel_of_trade": null}, {"id": "NL-650123417", "name": "BP  Express veenoord", "lat": 52.723676, "lng": 6.842776, "site_brand": "BP", "country_code": "NL", "address": "Boerdijk 42", "city": "VEENOORD", "state": null, "postcode": "7844 TD", "telephone": "+31 513 657 010", "facilities": ["open_24_hours", "high_speed_pump", "truck_suitable_site", "accepts_routex_cards", "open_saturday", "open_sunday"], "products": ["ad_blue_pump", "diesel_on", "red_diesel", "truck_diesel", "unleaded_95", "ad_blue"], "website": null, "watchlist_id": null, "formatted_address": "Boerdijk 42\n7844 TD\nVEENOORD", "channel_of_trade": null}, {"id": "NL-650346869", "name": "BP Slump On Heerenveen (Automaat)", "lat": 52.9698134, "lng": 5.9379146, "site_brand": "BP", "country_code": "NL", "address": "Venus 3", "city": "HEERENVEEN", "state": null, "postcode": "8440 AH", "telephone": "08002727270", "facilities": ["open_24_hours", "high_speed_pump", "truck_suitable_site", "accepts_routex_cards", "automatic_site", "open_saturday", "open_sunday"], "products": ["ad_blue_pump", "diesel_on", "red_diesel", "truck_diesel", "ultimate", "ultimate_unleaded", "ad_blue"], "website": null, "watchlist_id": null, "formatted_address": "Venus 3\n8440 AH\nHEERENVEEN", "channel_of_trade": null}, {"id": "NL-650365587", "name": "BP De Rompert", "lat": 51.7120948, "lng": 5.3152182, "site_brand": "BP", "country_code": "NL", "address": "St. Teunislaan 84", "city": "S-HERTOGENBOSCH", "state": null, "postcode": "5231 BR", "telephone": "+31 73 641 5982", "facilities": ["car_wash", "albert_heijn", "accepts_routex_cards", "open_saturday", "open_sunday", "mobile_enabled"], "products": ["ad_blue_cannister", "diesel_on", "ultimate", "ultimate_diesel", "ultimate_unleaded", "unleaded_95"], "website": null, "watchlist_id": null, "formatted_address": "St. Teunislaan 84\n5231 BR\nS-HERTOGENBOSCH", "channel_of_trade": null}, {"id": "NL-65139289", "name": "BP express Purmerend", "lat": 52.520883, "lng": 4.9627357, "site_brand": "BP", "country_code": "NL", "address": "Leeuwerikplein 1", "city": "PURMEREND", "state": null, "postcode": "1444 HW", "telephone": "08002727270", "facilities": ["accepts_routex_cards", "open_saturday", "open_sunday"], "products": ["diesel_on", "ultimate", "ultimate_diesel", "ultimate_unleaded", "unleaded_95"], "website": null, "watchlist_id": "65139289", "formatted_address": "Leeuwerikplein 1\n1444 HW\nPURMEREND", "channel_of_trade": null}, {"id": "NL-656734169", "name": "BP Klaassens Emmeloord", "lat": 52.6992914, "lng": 5.7295676, "site_brand": "BP", "country_code": "NL", "address": "Urkerweg 12", "city": "EMMELOORD", "state": null, "postcode": "8303 BX", "telephone": "+31 527 616 710", "facilities": ["car_wash", "truck_suitable_site", "toilet", "accepts_routex_cards", "open_saturday", "open_sunday", "mobile_enabled"], "products": ["ad_blue_cannister", "ad_blue_pump", "auto_gas", "diesel_on", "lpg", "truck_diesel", "ultimate", "ultimate_diesel", "ultimate_unleaded", "unleaded_95", "ad_blue"], "website": null, "watchlist_id": null, "formatted_address": "Urkerweg 12\n8303 BX\nEMMELOORD", "channel_of_trade": null}, {"id": "NL-659555990", "name": "BP Bosdreef (Uitgaand)", "lat": 51.94585, "lng": 4.52345, "site_brand": "BP", "country_code": "NL", "address": "Bosdreef 12", "city": "ROTTERDAM", "state": null, "postcode": "3062 CA", "telephone": "+31 341 439 000", "facilities": ["open_24_hours", "truck_suitable_site", "toilet", "accepts_routex_cards", "open_saturday", "open_sunday"], "products": ["ad_blue_cannister", "auto_gas", "diesel_on", "lpg", "truck_diesel", "ultimate", "ultimate_diesel", "ultimate_unleaded", "unleaded_95"], "website": null, "watchlist_id": null, "formatted_address": "Bosdreef 12\n3062 CA\nROTTERDAM", "channel_of_trade": null}, {"id": "NL-665926471", "name": "BP Lunetten", "lat": 52.0647306, "lng": 5.130009, "site_brand": "BP", "country_code": "NL", "address": "Lunettenbaan 100", "city": "UTRECHT", "state": null, "postcode": "3524 GA", "telephone": "+31 30 280 1272", "facilities": ["car_wash", "albert_heijn", "accepts_routex_cards", "open_saturday", "open_sunday", "mobile_enabled"], "products": ["ad_blue_cannister", "diesel_on", "ultimate", "ultimate_diesel", "ultimate_unleaded", "unleaded_95"], "website": null, "watchlist_id": null, "formatted_address": "Lunettenbaan 100\n3524 GA\nUTRECHT", "channel_of_trade": null}, {"id": "NL-667909548", "name": "BP Pol", "lat": 52.297247, "lng": 6.734142, "site_brand": "BP", "country_code": "NL", "address": "Azelosestraat 101", "city": "BORNE", "state": null, "postcode": "7621 BA", "telephone": "+31 74 266 1806", "facilities": ["car_wash", "high_speed_pump", "truck_suitable_site", "toilet", "accepts_routex_cards", "shop_open_24_hours", "open_saturday", "open_sunday"], "products": ["ad_blue_cannister", "ad_blue_pump", "auto_gas", "diesel_on", "lpg", "truck_diesel", "ultimate", "ultimate_diesel", "ultimate_unleaded", "unleaded_95", "ad_blue"], "website": null, "watchlist_id": null, "formatted_address": "Azelosestraat 101\n7621 BA\nBORNE", "channel_of_trade": null}, {"id": "NL-689687912", "name": "BP Mastpolder", "lat": 51.5474292, "lng": 4.528191, "site_brand": "BP", "country_code": "NL", "address": "Rijksweg Zuid", "city": "RUCPHEN", "state": null, "postcode": "4715 TA", "telephone": "+31 165 348 930", "facilities": ["open_24_hours", "high_speed_pump", "truck_parking", "truck_suitable_site", "toilet", "motorway_site", "albert_heijn", "accepts_routex_cards", "shop_open_24_hours", "open_saturday", "open_sunday", "mobile_enabled"], "products": ["ad_blue_cannister", "ad_blue_pump", "auto_gas", "diesel_on", "electricity", "lpg", "ultimate", "ultimate_diesel", "ultimate_unleaded", "unleaded_95", "ad_blue"], "website": null, "watchlist_id": null, "formatted_address": "Rijksweg Zuid\n4715 TA\nRUCPHEN", "channel_of_trade": null}, {"id": "NL-693249465", "name": "BP Stadspolders", "lat": 51.7994796, "lng": 4.7068139, "site_brand": "BP", "country_code": "NL", "address": "Provincialeweg 32", "city": "DORDRECHT", "state": null, "postcode": "3329 KP", "telephone": "+31 78 621 4460", "facilities": ["car_wash", "truck_suitable_site", "toilet", "wild_bean_cafe", "accepts_routex_cards", "open_saturday", "open_sunday", "mobile_enabled"], "products": ["ad_blue_cannister", "auto_gas", "diesel_on", "lpg", "ultimate", "ultimate_diesel", "ultimate_unleaded", "unleaded_95"], "website": null, "watchlist_id": null, "formatted_address": "Provincialeweg 32\n3329 KP\nDORDRECHT", "channel_of_trade": null}, {"id": "NL-7340133", "name": "BP MIDDELSLOOT", "lat": 52.546873, "lng": 4.957532, "site_brand": "BP", "country_code": "NL", "address": "Rijksweg A7 OZ", "city": "Middenbeemster", "state": null, "postcode": "1462 MZ", "telephone": "+31 299 439 479", "facilities": ["open_24_hours", "motorway_site", "albert_heijn", "accepts_routex_cards", "open_saturday", "open_sunday", "mobile_enabled"], "products": ["ad_blue_cannister", "ad_blue_pump", "auto_gas", "diesel_on", "lpg", "ultimate", "ultimate_diesel", "ultimate_unleaded", "unleaded_95", "ad_blue"], "website": null, "watchlist_id": null, "formatted_address": "Rijksweg A7 OZ\n1462 MZ\nMiddenbeemster", "channel_of_trade": null}, {"id": "NL-741475084", "name": "BP Rondweg", "lat": 52.5094012, "lng": 6.2632325, "site_brand": "BP", "country_code": "NL", "address": "Rondweg 20-22", "city": "DALFSEN", "state": null, "postcode": "7721 AA", "telephone": "+31 88 313 0233", "facilities": ["car_wash", "truck_suitable_site", "toilet", "accepts_routex_cards", "shop_open_24_hours", "open_saturday", "open_sunday", "mobile_enabled"], "products": ["ad_blue_cannister", "ad_blue_pump", "auto_gas", "diesel_on", "lpg", "truck_diesel", "ultimate", "ultimate_diesel", "ultimate_unleaded", "unleaded_95", "ad_blue"], "website": null, "watchlist_id": null, "formatted_address": "Rondweg 20-22\n7721 AA\nDALFSEN", "channel_of_trade": null}, {"id": "NL-745280370", "name": "BP express Beekbergen", "lat": 52.1601386, "lng": 5.9852689, "site_brand": "BP", "country_code": "NL", "address": "Dorpstraat 193", "city": "BEEKBERGEN", "state": null, "postcode": "7361 AT", "telephone": "08002727270", "facilities": ["open_24_hours", "high_speed_pump", "truck_suitable_site", "accepts_routex_cards", "open_saturday", "open_sunday"], "products": ["diesel_on", "ultimate", "ultimate_unleaded", "unleaded_95"], "website": null, "watchlist_id": null, "formatted_address": "Dorpstraat 193\n7361 AT\nBEEKBERGEN", "channel_of_trade": null}, {"id": "NL-748691811", "name": "BP express Bergschenhoek", "lat": 51.9796334, "lng": 4.4976246, "site_brand": "BP", "country_code": "NL", "address": "Bergweg Zuid 70", "city": "BERGSCHENHOEK", "state": null, "postcode": "2661 CV", "telephone": "08002727270", "facilities": ["open_24_hours", "high_speed_pump", "truck_suitable_site", "accepts_routex_cards", "open_saturday", "open_sunday"], "products": ["diesel_on", "electricity", "ultimate", "ultimate_diesel", "ultimate_unleaded", "unleaded_95"], "website": null, "watchlist_id": null, "formatted_address": "Bergweg Zuid 70\n2661 CV\nBERGSCHENHOEK", "channel_of_trade": null}, {"id": "NL-758117338", "name": "BP Vaassen", "lat": 52.283354, "lng": 5.973057, "site_brand": "BP", "country_code": "NL", "address": "Laan van Fasna 60", "city": "VAASSEN", "state": null, "postcode": "8171 KH", "telephone": "+31 578 574 861", "facilities": ["car_wash", "truck_parking", "truck_suitable_site", "toilet", "accepts_routex_cards", "shop_open_24_hours", "open_saturday", "open_sunday", "mobile_enabled"], "products": ["ad_blue_cannister", "ad_blue_pump", "auto_gas", "diesel_on", "lpg", "truck_diesel", "ultimate", "ultimate_diesel", "ultimate_unleaded", "unleaded_95", "ad_blue"], "website": null, "watchlist_id": null, "formatted_address": "Laan van Fasna 60\n8171 KH\nVAASSEN", "channel_of_trade": null}, {"id": "NL-766456332", "name": "BP De Zandsloot", "lat": 52.7076491, "lng": 5.2749919, "site_brand": "BP", "country_code": "NL", "address": "Lindenlaan 1", "city": "ENKHUIZEN", "state": null, "postcode": "1602 RA", "telephone": "+31 228 312 598", "facilities": ["toilet", "albert_heijn", "accepts_routex_cards", "open_saturday", "open_sunday", "mobile_enabled"], "products": ["ad_blue_cannister", "auto_gas", "diesel_on", "lpg", "ultimate", "ultimate_diesel", "ultimate_unleaded", "unleaded_95"], "website": null, "watchlist_id": null, "formatted_address": "Lindenlaan 1\n1602 RA\nENKHUIZEN", "channel_of_trade": null}, {"id": "NL-768609446", "name": "BP Express Burgum", "lat": 53.1889457, "lng": 5.9924814, "site_brand": "BP", "country_code": "NL", "address": "Mr. W M Oppedijk van Veenweg 2", "city": "BURGUM", "state": null, "postcode": "9251 GA", "telephone": "08002727270", "facilities": ["open_24_hours", "accepts_routex_cards", "open_saturday", "open_sunday"], "products": ["diesel_on", "unleaded_95"], "website": null, "watchlist_id": null, "formatted_address": "Mr. W M Oppedijk van Veenweg 2\n9251 GA\nBURGUM", "channel_of_trade": null}, {"id": "NL-776826977", "name": "BP Ramelle", "lat": 51.660129, "lng": 5.627736, "site_brand": "BP", "country_code": "NL", "address": "Pres. Kennedylaan 24", "city": "UDEN", "state": null, "postcode": "5402 KD", "telephone": "+31 413 264 842", "facilities": ["car_wash", "high_speed_pump", "truck_suitable_site", "toilet", "albert_heijn", "accepts_routex_cards", "open_saturday", "open_sunday", "mobile_enabled"], "products": ["ad_blue_cannister", "auto_gas", "diesel_on", "lpg", "ultimate", "ultimate_diesel", "ultimate_unleaded", "unleaded_95"], "website": null, "watchlist_id": null, "formatted_address": "Pres. Kennedylaan 24\n5402 KD\nUDEN", "channel_of_trade": null}, {"id": "NL-778870191", "name": "BP De Huesmolen", "lat": 52.655377, "lng": 5.0607517, "site_brand": "BP", "country_code": "NL", "address": "Zwaagmergouw 1", "city": "HOORN", "state": null, "postcode": "1625 PA", "telephone": "+31 229 233 497", "facilities": ["high_speed_pump", "truck_suitable_site", "toilet", "albert_heijn", "accepts_routex_cards", "open_saturday", "open_sunday", "mobile_enabled"], "products": ["ad_blue_cannister", "diesel_on", "electricity", "ultimate", "ultimate_diesel", "ultimate_unleaded", "unleaded_95"], "website": null, "watchlist_id": null, "formatted_address": "Zwaagmergouw 1\n1625 PA\nHOORN", "channel_of_trade": null}, {"id": "NL-781045872", "name": "BP SPIK", "lat": 51.190744, "lng": 6.031134, "site_brand": "BP", "country_code": "NL", "address": "Rijksweg A73 - 49", "city": "ROERMOND", "state": null, "postcode": "6042 WZ", "telephone": "+31 475 530 291", "facilities": ["motorway_site", "albert_heijn", "accepts_routex_cards", "open_saturday", "open_sunday", "mobile_enabled"], "products": ["ad_blue_cannister", "ad_blue_pump", "auto_gas", "diesel_on", "electricity", "lpg", "ultimate", "ultimate_diesel", "ultimate_unleaded", "unleaded_95", "ad_blue"], "website": null, "watchlist_id": null, "formatted_address": "Rijksweg A73 - 49\n6042 WZ\nROERMOND", "channel_of_trade": null}, {"id": "NL-782098811", "name": "BP EXPRESS WOERDEN", "lat": 52.073913, "lng": 4.902361, "site_brand": "BP", "country_code": "NL", "address": "Europabaan 1", "city": "WOERDEN", "state": null, "postcode": "3446 CE", "telephone": "+31 348 434 234", "facilities": ["open_24_hours", "truck_suitable_site", "accepts_routex_cards", "open_saturday", "open_sunday"], "products": ["ad_blue_pump", "auto_gas", "diesel_on", "lpg", "truck_diesel", "ultimate", "ultimate_unleaded", "unleaded_95", "ad_blue"], "website": null, "watchlist_id": null, "formatted_address": "Europabaan 1\n3446 CE\nWOERDEN", "channel_of_trade": null}, {"id": "NL-790614036", "name": "BP Express Papendrecht", "lat": 51.8343057, "lng": 4.6818709, "site_brand": "BP", "country_code": "NL", "address": "Rembrandtlaan 1", "city": "PAPENDRECHT", "state": null, "postcode": "3351 RE", "telephone": "08002727270", "facilities": ["open_24_hours", "accepts_routex_cards", "open_saturday", "open_sunday"], "products": ["diesel_on", "ultimate", "ultimate_diesel", "ultimate_unleaded", "unleaded_95"], "website": null, "watchlist_id": null, "formatted_address": "Rembrandtlaan 1\n3351 RE\nPAPENDRECHT", "channel_of_trade": null}, {"id": "NL-80615075", "name": "BP EXPRESS MUIDEN", "lat": 52.333715, "lng": 5.025103, "site_brand": "BP", "country_code": "NL", "address": "Pampusweg 1-27", "city": "Muiden", "state": null, "postcode": "1398 PR", "telephone": "+31 172 423 200", "facilities": ["open_24_hours", "accepts_routex_cards", "open_saturday", "open_sunday"], "products": ["diesel_on", "ultimate", "ultimate_unleaded", "unleaded_95"], "website": null, "watchlist_id": "80615075", "formatted_address": "Pampusweg 1-27\n1398 PR\nMuiden", "channel_of_trade": null}, {"id": "NL-820989015", "name": "BP Slump On - Moll - BP Express Gorredijk", "lat": 53.0091544, "lng": 6.053794, "site_brand": "BP", "country_code": "NL", "address": "Wetterkant 2", "city": "GORREDIJK", "state": null, "postcode": "8401 GC", "telephone": "+31 513 657 010", "facilities": ["car_wash", "high_speed_pump", "truck_suitable_site", "accepts_routex_cards", "open_saturday", "open_sunday"], "products": ["auto_gas", "diesel_on", "lpg", "truck_diesel", "ultimate", "ultimate_diesel", "ultimate_unleaded", "unleaded_95"], "website": null, "watchlist_id": null, "formatted_address": "Wetterkant 2\n8401 GC\nGORREDIJK", "channel_of_trade": null}, {"id": "NL-822874833", "name": "BP Zwarte water", "lat": 51.39365, "lng": 6.183143, "site_brand": "BP", "country_code": "NL", "address": "Europaweg 25", "city": "VENLO", "state": null, "postcode": "5916 RP", "telephone": "+31 88 313 0234", "facilities": ["open_24_hours", "motorway_site", "wild_bean_cafe", "accepts_routex_cards", "open_saturday", "open_sunday", "mobile_enabled"], "products": ["ad_blue_cannister", "ad_blue_pump", "auto_gas", "diesel_on", "lpg", "ultimate", "ultimate_diesel", "ultimate_unleaded", "unleaded_95", "ad_blue"], "website": null, "watchlist_id": null, "formatted_address": "Europaweg 25\n5916 RP\nVENLO", "channel_of_trade": null}, {"id": "NL-824219378", "name": "BP EXPRESS BUITENPOST", "lat": 53.25711, "lng": 6.14265, "site_brand": "BP", "country_code": "NL", "address": "Marconistraat 2", "city": "Buitenpost", "state": null, "postcode": "9285 WG", "telephone": "+31 513 657 010", "facilities": ["open_24_hours", "accepts_routex_cards", "open_saturday", "open_sunday"], "products": ["diesel_on", "unleaded_95"], "website": null, "watchlist_id": null, "formatted_address": "Marconistraat 2\n9285 WG\nBuitenpost", "channel_of_trade": null}, {"id": "NL-824271805", "name": "BP Ridderkerk", "lat": 51.8561123, "lng": 4.6279048, "site_brand": "BP", "country_code": "NL", "address": "Rijksweg A15", "city": "RIDDERKERK", "state": null, "postcode": "2989 AT", "telephone": "+31 78 682 0433", "facilities": ["open_24_hours", "high_speed_pump", "truck_parking", "truck_suitable_site", "toilet", "wifi", "motorway_site", "wild_bean_cafe", "accepts_routex_cards", "shop_open_24_hours", "open_saturday", "open_sunday", "mobile_enabled"], "products": ["ad_blue_cannister", "ad_blue_pump", "auto_gas", "diesel_on", "electricity", "lpg", "ultimate", "ultimate_diesel", "ultimate_unleaded", "unleaded_95", "ad_blue"], "website": null, "watchlist_id": null, "formatted_address": "Rijksweg A15\n2989 AT\nRIDDERKERK", "channel_of_trade": null}, {"id": "NL-826155884", "name": "BP Emmen (Automaat-trucks)", "lat": 52.7402021, "lng": 6.9659972, "site_brand": "BP", "country_code": "NL", "address": "Edisonstraat 2", "city": "EMMEN", "state": null, "postcode": "7825 GS", "telephone": "08002727270", "facilities": ["open_24_hours", "high_speed_pump", "truck_suitable_site", "accepts_routex_cards", "automatic_site", "open_saturday", "open_sunday"], "products": ["ad_blue_pump", "auto_gas", "diesel_on", "ad_blue"], "website": null, "watchlist_id": null, "formatted_address": "Edisonstraat 2\n7825 GS\nEMMEN", "channel_of_trade": null}, {"id": "NL-829616794", "name": "B. KERKHOF&ZN. B.V.", "lat": 52.071513, "lng": 4.336014, "site_brand": "BP", "country_code": "NL", "address": "Binckhorstlaan 100", "city": "DEN HAAG", "state": null, "postcode": "2516 BE", "telephone": "+31 70 347 3504", "facilities": ["car_wash", "truck_suitable_site", "accepts_routex_cards", "open_saturday", "open_sunday", "mobile_enabled"], "products": ["ad_blue_cannister", "ad_blue_pump", "auto_gas", "diesel_on", "lpg", "natural_gas", "truck_diesel", "ultimate", "ultimate_diesel", "ultimate_unleaded", "unleaded_95", "ad_blue"], "website": null, "watchlist_id": null, "formatted_address": "Binckhorstlaan 100\n2516 BE\nDEN HAAG", "channel_of_trade": null}, {"id": "NL-834724957", "name": "BP AUTOMAAT NUMANSDORP", "lat": 51.74907, "lng": 4.44913, "site_brand": "BP", "country_code": "NL", "address": "J. van der heydenstraat 19", "city": "NUMANSDORP", "state": null, "postcode": "3281 NE", "telephone": "08002727270", "facilities": ["open_24_hours", "truck_suitable_site", "accepts_routex_cards", "automatic_site", "open_saturday", "open_sunday"], "products": ["ad_blue_pump", "diesel_on", "truck_diesel", "ultimate", "ultimate_unleaded", "unleaded_95", "ad_blue"], "website": null, "watchlist_id": null, "formatted_address": "J. van der heydenstraat 19\n3281 NE\nNUMANSDORP", "channel_of_trade": null}, {"id": "NL-835728321", "name": "BP De Watertoren", "lat": 51.7496371, "lng": 4.120989, "site_brand": "BP", "country_code": "NL", "address": "Korteweegje 75", "city": "DIRKSLAND", "state": null, "postcode": "3247 BH", "telephone": "+31 187 601 122", "facilities": ["car_wash", "truck_suitable_site", "accepts_routex_cards", "open_saturday", "open_sunday", "mobile_enabled"], "products": ["ad_blue_cannister", "ad_blue_pump", "auto_gas", "diesel_on", "lpg", "truck_diesel", "ultimate", "ultimate_diesel", "ultimate_unleaded", "unleaded_95", "ad_blue"], "website": null, "watchlist_id": null, "formatted_address": "Korteweegje 75\n3247 BH\nDIRKSLAND", "channel_of_trade": null}, {"id": "NL-839823215", "name": "BP DE KOOI", "lat": 52.6145963, "lng": 4.7394499, "site_brand": "BP", "country_code": "NL", "address": "Ommering 9 / Rijksweg A9", "city": "Alkmaar", "state": null, "postcode": "1814 XE", "telephone": "+31 72 511 8884", "facilities": ["open_24_hours", "car_wash", "motorway_site", "wild_bean_cafe", "accepts_routex_cards", "open_saturday", "open_sunday", "mobile_enabled"], "products": ["ad_blue_cannister", "ad_blue_pump", "auto_gas", "diesel_on", "electricity", "lpg", "ultimate", "ultimate_diesel", "ultimate_unleaded", "unleaded_95", "ad_blue"], "website": null, "watchlist_id": null, "formatted_address": "Ommering 9 / Rijksweg A9\n1814 XE\nAlkmaar", "channel_of_trade": null}, {"id": "NL-839915172", "name": "BP Wierenga", "lat": 52.1947934, "lng": 5.939901, "site_brand": "BP", "country_code": "NL", "address": "Europaweg 154", "city": "APELDOORN", "state": null, "postcode": "7336 AR", "telephone": "+31 55 533 4900", "facilities": ["high_speed_pump", "truck_suitable_site", "toilet", "accepts_routex_cards", "open_saturday", "mobile_enabled"], "products": ["ad_blue_cannister", "auto_gas", "diesel_on", "lpg", "ultimate", "ultimate_diesel", "ultimate_unleaded", "unleaded_95"], "website": null, "watchlist_id": null, "formatted_address": "Europaweg 154\n7336 AR\nAPELDOORN", "channel_of_trade": null}, {"id": "NL-840025913", "name": "BP Bornheim", "lat": 52.4509, "lng": 5.9771, "site_brand": "BP", "country_code": "NL", "address": "Rijksweg A28", "city": "WEZEP", "state": null, "postcode": "8091 ZZ", "telephone": "+31 88 313 0279", "facilities": ["high_speed_pump", "truck_parking", "truck_suitable_site", "toilet", "motorway_site", "wild_bean_cafe", "accepts_routex_cards", "open_saturday", "open_sunday", "mobile_enabled"], "products": ["ad_blue_cannister", "ad_blue_pump", "auto_gas", "diesel_on", "lpg", "truck_diesel", "ultimate", "ultimate_diesel", "ultimate_unleaded", "unleaded_95", "ad_blue"], "website": null, "watchlist_id": null, "formatted_address": "Rijksweg A28\n8091 ZZ\nWEZEP", "channel_of_trade": null}, {"id": "NL-843962250", "name": "BP Meiberg", "lat": 51.2548101, "lng": 5.7675508, "site_brand": "BP", "country_code": "NL", "address": "Rijksweg A2", "city": "WEERT", "state": null, "postcode": "6004 RW", "telephone": "+31 495 238 220", "facilities": ["open_24_hours", "high_speed_pump", "truck_parking", "truck_suitable_site", "toilet", "motorway_site", "wild_bean_cafe", "accepts_routex_cards", "shop_open_24_hours", "open_saturday", "open_sunday", "mobile_enabled"], "products": ["ad_blue_cannister", "ad_blue_pump", "auto_gas", "diesel_on", "lpg", "truck_diesel", "ultimate", "ultimate_diesel", "ultimate_unleaded", "unleaded_95", "ad_blue"], "website": null, "watchlist_id": null, "formatted_address": "Rijksweg A2\n6004 RW\nWEERT", "channel_of_trade": null}, {"id": "NL-852491965", "name": "BP Coosenhoek", "lat": 51.87113, "lng": 4.18204, "site_brand": "BP", "country_code": "NL", "address": "Rijksweg N57", "city": "BRIELLE", "state": null, "postcode": "3237 NA", "telephone": "+31 181 416 978", "facilities": ["high_speed_pump", "truck_parking", "truck_suitable_site", "toilet", "motorway_site", "albert_heijn", "accepts_routex_cards", "open_saturday", "open_sunday", "mobile_enabled"], "products": ["ad_blue_cannister", "auto_gas", "diesel_on", "electricity", "lpg", "truck_diesel", "ultimate", "ultimate_diesel", "ultimate_unleaded", "unleaded_95"], "website": null, "watchlist_id": null, "formatted_address": "Rijksweg N57\n3237 NA\nBRIELLE", "channel_of_trade": null}, {"id": "NL-854917922", "name": "BP Reijnen", "lat": 51.396167, "lng": 6.161361, "site_brand": "BP", "country_code": "NL", "address": "Europaweg 21", "city": "VENLO", "state": null, "postcode": "5916 RP", "telephone": "+31 77 472 3110", "facilities": ["open_24_hours", "high_speed_pump", "truck_parking", "truck_suitable_site", "toilet", "motorway_site", "accepts_routex_cards", "shop_open_24_hours", "open_saturday", "open_sunday"], "products": ["ad_blue_cannister", "ad_blue_pump", "auto_gas", "diesel_on", "lpg", "truck_diesel", "ultimate", "ultimate_diesel", "ultimate_unleaded", "unleaded_95", "ad_blue"], "website": null, "watchlist_id": null, "formatted_address": "Europaweg 21\n5916 RP\nVENLO", "channel_of_trade": null}, {"id": "NL-855746871", "name": "BP express Teteringen", "lat": 51.6043316, "lng": 4.8164963, "site_brand": "BP", "country_code": "NL", "address": "Oosterhoutseweg 8a", "city": "TETERINGEN", "state": null, "postcode": "4847 TC", "telephone": "08002727270", "facilities": ["open_24_hours", "accepts_routex_cards", "open_saturday", "open_sunday"], "products": ["diesel_on", "unleaded_95"], "website": null, "watchlist_id": null, "formatted_address": "Oosterhoutseweg 8a\n4847 TC\nTETERINGEN", "channel_of_trade": null}, {"id": "NL-855831225", "name": "BP Bodegraven (Automaat-trucks)", "lat": 52.07031, "lng": 4.7433, "site_brand": "BP", "country_code": "NL", "address": "Europaweg 2", "city": "BODEGRAVEN", "state": null, "postcode": "2411 NE", "telephone": "08002727270", "facilities": ["open_24_hours", "high_speed_pump", "truck_suitable_site", "accepts_routex_cards", "automatic_site", "open_saturday", "open_sunday"], "products": ["ad_blue_pump", "auto_gas", "diesel_on", "hvo", "ad_blue"], "website": null, "watchlist_id": null, "formatted_address": "Europaweg 2\n2411 NE\nBODEGRAVEN", "channel_of_trade": null}, {"id": "NL-857819536", "name": "BP Middelweerd", "lat": 52.095936, "lng": 4.945646, "site_brand": "BP", "country_code": "NL", "address": "Bedrijfsweg 2", "city": "HARMELEN", "state": null, "postcode": "3481 MG", "telephone": "+31 348 445 590", "facilities": ["car_wash", "high_speed_pump", "truck_suitable_site", "toilet", "accepts_routex_cards", "open_saturday", "open_sunday", "mobile_enabled"], "products": ["ad_blue_cannister", "auto_gas", "diesel_on", "lpg", "natural_gas", "truck_diesel", "ultimate", "ultimate_diesel", "ultimate_unleaded", "unleaded_95"], "website": null, "watchlist_id": null, "formatted_address": "Bedrijfsweg 2\n3481 MG\nHARMELEN", "channel_of_trade": null}, {"id": "NL-859804106", "name": "BP Laan van Nieuw Oost Indi\u00eb", "lat": 52.08068, "lng": 4.34324, "site_brand": "BP", "country_code": "NL", "address": "Laan van Nieuw Oost Indie 285", "city": "S-GRAVENHAGE", "state": null, "postcode": "2593 BS", "telephone": "+31 70 383 9993", "facilities": ["open_24_hours", "toilet", "accepts_routex_cards", "shop_open_24_hours", "open_saturday", "open_sunday", "mobile_enabled"], "products": ["ad_blue_cannister", "diesel_on", "ultimate", "ultimate_diesel", "ultimate_unleaded", "unleaded_95"], "website": null, "watchlist_id": null, "formatted_address": "Laan van Nieuw Oost Indie 285\n2593 BS\nS-GRAVENHAGE", "channel_of_trade": null}, {"id": "NL-862723593", "name": "BP Smalhorst", "lat": 52.845468, "lng": 6.488249, "site_brand": "BP", "country_code": "NL", "address": "Rijksweg A28 OZ", "city": "BEILEN", "state": null, "postcode": "9411 TW", "telephone": "+31 593 522 417", "facilities": ["open_24_hours", "high_speed_pump", "lorry_and_truck_terminal", "truck_parking", "truck_suitable_site", "toilet", "motorway_site", "albert_heijn", "accepts_routex_cards", "open_saturday", "open_sunday", "mobile_enabled"], "products": ["ad_blue_cannister", "ad_blue_pump", "auto_gas", "diesel_on", "lpg", "ultimate", "ultimate_diesel", "ultimate_unleaded", "unleaded_95", "ad_blue"], "website": null, "watchlist_id": null, "formatted_address": "Rijksweg A28 OZ\n9411 TW\nBEILEN", "channel_of_trade": null}, {"id": "NL-862732180", "name": "BP Express Denekamp", "lat": 52.3705203, "lng": 7.0002058, "site_brand": "BP", "country_code": "NL", "address": "Oldenzaalsestraat 52", "city": "DENEKAMP", "state": null, "postcode": "7591 GM", "telephone": "08002727270", "facilities": ["high_speed_pump", "truck_suitable_site", "accepts_routex_cards", "open_saturday", "open_sunday"], "products": ["diesel_on", "electricity", "ultimate", "ultimate_diesel", "ultimate_unleaded", "unleaded_95"], "website": null, "watchlist_id": null, "formatted_address": "Oldenzaalsestraat 52\n7591 GM\nDENEKAMP", "channel_of_trade": null}, {"id": "NL-869289019", "name": "BP De Keizer", "lat": 51.7461167, "lng": 4.9206975, "site_brand": "BP", "country_code": "NL", "address": "Rijksweg A27", "city": "Hank", "state": null, "postcode": "4273 ZB", "telephone": "+31 88 313 0077", "facilities": ["open_24_hours", "high_speed_pump", "truck_parking", "truck_suitable_site", "toilet", "motorway_site", "accepts_routex_cards", "shop_open_24_hours", "open_saturday", "open_sunday", "mobile_enabled"], "products": ["ad_blue_cannister", "ad_blue_pump", "auto_gas", "diesel_on", "lpg", "truck_diesel", "ultimate", "ultimate_diesel", "ultimate_unleaded", "unleaded_95", "ad_blue"], "website": null, "watchlist_id": null, "formatted_address": "Rijksweg A27\n4273 ZB\nHank", "channel_of_trade": null}, {"id": "NL-908325523", "name": "BP Barendrecht", "lat": 51.8447762, "lng": 4.5190876, "site_brand": "BP", "country_code": "NL", "address": "Middelweg 3", "city": "BARENDRECHT", "state": null, "postcode": "2992 SP", "telephone": "+31 88 313 0236", "facilities": ["car_wash", "high_speed_pump", "truck_suitable_site", "toilet", "accepts_routex_cards", "open_saturday", "open_sunday", "mobile_enabled"], "products": ["ad_blue_cannister", "ad_blue_pump", "auto_gas", "diesel_on", "lpg", "natural_gas", "truck_diesel", "ultimate", "ultimate_diesel", "ultimate_unleaded", "unleaded_95", "ad_blue"], "website": null, "watchlist_id": null, "formatted_address": "Middelweg 3\n2992 SP\nBARENDRECHT", "channel_of_trade": null}, {"id": "NL-909327785", "name": "DELFT", "lat": 51.985132, "lng": 4.373784, "site_brand": "BP", "country_code": "NL", "address": "Voltaweg 1", "city": "DELFT", "state": null, "postcode": "2627 BD", "telephone": "08002727270", "facilities": ["open_24_hours", "accepts_routex_cards", "automatic_site", "open_saturday", "open_sunday"], "products": ["ad_blue_pump", "diesel_on", "red_diesel", "ad_blue"], "website": null, "watchlist_id": null, "formatted_address": "Voltaweg 1\n2627 BD\nDELFT", "channel_of_trade": null}, {"id": "NL-929517527", "name": "TANKSTATION DINTELOORD (AUT)", "lat": 51.629259, "lng": 4.3640184, "site_brand": "BP", "country_code": "NL", "address": "Steenbergseweg 97b", "city": "DINTELOORD", "state": null, "postcode": "4671 BE", "telephone": "+31 167 522 793", "facilities": ["accepts_routex_cards", "open_saturday", "open_sunday"], "products": ["ad_blue_pump", "diesel_on", "ultimate", "ultimate_unleaded", "ad_blue"], "website": null, "watchlist_id": null, "formatted_address": "Steenbergseweg 97b\n4671 BE\nDINTELOORD", "channel_of_trade": null}, {"id": "NL-930217298", "name": "BP Express Deventer", "lat": 52.2421167, "lng": 6.1725461, "site_brand": "BP", "country_code": "NL", "address": "Zutphenseweg 17", "city": "Deventer", "state": null, "postcode": "7418 AG", "telephone": "08002727270", "facilities": ["open_24_hours", "accepts_routex_cards", "open_saturday", "open_sunday"], "products": ["diesel_on", "unleaded_95"], "website": null, "watchlist_id": null, "formatted_address": "Zutphenseweg 17\n7418 AG\nDeventer", "channel_of_trade": null}, {"id": "NL-937282965", "name": "BP express Barneveld", "lat": 52.1335465, "lng": 5.5906275, "site_brand": "BP", "country_code": "NL", "address": "van Dompselaerstraat 83-85", "city": "BARNEVELD", "state": null, "postcode": "3772 AC", "telephone": "08002727270", "facilities": ["open_24_hours", "accepts_routex_cards", "open_saturday", "open_sunday"], "products": ["diesel_on", "lpg", "ultimate", "ultimate_diesel", "ultimate_unleaded", "unleaded_95"], "website": null, "watchlist_id": null, "formatted_address": "van Dompselaerstraat 83-85\n3772 AC\nBARNEVELD", "channel_of_trade": null}, {"id": "NL-941637782", "name": "BP Express Dieren", "lat": 52.0601166, "lng": 6.1028623, "site_brand": "BP", "country_code": "NL", "address": "Imboslaan 140", "city": "DIEREN", "state": null, "postcode": "6951 KC", "telephone": "08002727270", "facilities": ["open_24_hours", "accepts_routex_cards", "open_saturday", "open_sunday"], "products": ["diesel_on", "unleaded_95"], "website": null, "watchlist_id": null, "formatted_address": "Imboslaan 140\n6951 KC\nDIEREN", "channel_of_trade": null}, {"id": "NL-947062392", "name": "BP Express Heteren", "lat": 51.9441159, "lng": 5.7564899, "site_brand": "BP", "country_code": "NL", "address": "Muskushouwsestraat 1", "city": "Heteren", "state": null, "postcode": "6666 MA", "telephone": "08002727270", "facilities": ["open_24_hours", "accepts_routex_cards", "open_saturday", "open_sunday"], "products": ["ad_blue_pump", "diesel_on", "hvo", "ultimate", "ultimate_unleaded", "unleaded_95", "ad_blue"], "website": null, "watchlist_id": null, "formatted_address": "Muskushouwsestraat 1\n6666 MA\nHeteren", "channel_of_trade": null}, {"id": "NL-952995148", "name": "BP express Leiderdorp", "lat": 52.1622769, "lng": 4.5346208, "site_brand": "BP", "country_code": "NL", "address": "Engelendaal 2", "city": "LEIDERDORP", "state": null, "postcode": "2353 MA", "telephone": "08002727270", "facilities": ["accepts_routex_cards", "open_saturday", "open_sunday"], "products": ["diesel_on", "ultimate", "ultimate_diesel", "ultimate_unleaded", "unleaded_95"], "website": null, "watchlist_id": null, "formatted_address": "Engelendaal 2\n2353 MA\nLEIDERDORP", "channel_of_trade": null}, {"id": "NL-9658", "name": "BP Express Yndustriewei Joure", "lat": 52.9656683, "lng": 5.8157131, "site_brand": "BP", "country_code": "NL", "address": "Yndustrywei 25", "city": "JOURE", "state": null, "postcode": "8501 SN", "telephone": "+31 513 657 010", "facilities": ["open_24_hours", "car_wash", "high_speed_pump", "truck_suitable_site", "accepts_routex_cards", "automatic_site", "open_saturday", "open_sunday"], "products": ["ad_blue_pump", "diesel_on", "natural_gas", "unleaded_95", "ad_blue"], "website": null, "watchlist_id": null, "formatted_address": "Yndustrywei 25\n8501 SN\nJOURE", "channel_of_trade": null}, {"id": "NL-9664", "name": "BP express Naaldwijk", "lat": 51.9907951, "lng": 4.2047515, "site_brand": "BP", "country_code": "NL", "address": "Secr. Verhoeffweg 21", "city": "NAALDWIJK", "state": null, "postcode": "2671 HT", "telephone": "08002727270", "facilities": ["accepts_routex_cards", "open_saturday", "open_sunday"], "products": ["diesel_on", "unleaded_95"], "website": null, "watchlist_id": null, "formatted_address": "Secr. Verhoeffweg 21\n2671 HT\nNAALDWIJK", "channel_of_trade": null}]