[{"id": "AT-100607468", "name": "ST-GLEISDORF, WILFERSDORF 104", "lat": 47.10694, "lng": 15.66365, "site_brand": "BP", "country_code": "AT", "address": "Wilfersdorf 104", "city": "Gleisdorf-Wilfersdorf", "state": null, "postcode": "8200", "telephone": "+43 3112 29991", "facilities": ["car_wash", "shop", "accepts_routex_cards", "open_saturday", "open_sunday"], "products": ["ad_blue_pump", "diesel_on", "ultimate", "ultimate_diesel", "ultimate_unleaded", "unleaded_95", "ad_blue"], "website": null, "watchlist_id": null, "formatted_address": "Wilfersdorf 104\n8200\nGleisdorf-Wilfersdorf", "channel_of_trade": null}, {"id": "AT-1059253911", "name": "Neuhofen an der Krems, Linzer Str. 41", "lat": 48.143874, "lng": 14.2282084, "site_brand": "BP", "country_code": "AT", "address": "Linzer Stra\u00dfe 41", "city": "Neuhofen an der Krems", "state": null, "postcode": "4501", "telephone": "+43 7227 5055", "facilities": ["accepts_routex_cards", "accepts_toll_payments", "reminder_service", "open_saturday", "open_sunday"], "products": ["ad_blue_cannister", "diesel_on", "ultimate", "ultimate_diesel", "ultimate_unleaded", "unleaded_95"], "website": null, "watchlist_id": null, "formatted_address": "Linzer Stra\u00dfe 41\n4501\nNeuhofen an der Krems", "channel_of_trade": null}, {"id": "AT-1064238759", "name": "O-AIGEN-SCHLAEGL, SCHL.HPT. 14", "lat": 48.635821, "lng": 13.964236, "site_brand": "BP", "country_code": "AT", "address": "Schl\u00e4gler Hauptstra\u00dfe 14", "city": "Aigen-Schl\u00e4gl", "state": null, "postcode": "4160", "telephone": "+43 7281 629710", "facilities": ["accepts_routex_cards", "reminder_service", "open_saturday", "open_sunday"], "products": ["ad_blue_pump", "diesel_on", "ultimate", "ultimate_diesel", "ultimate_unleaded", "unleaded_95", "ad_blue"], "website": null, "watchlist_id": null, "formatted_address": "Schl\u00e4gler Hauptstra\u00dfe 14\n4160\nAigen-Schl\u00e4gl", "channel_of_trade": null}, {"id": "AT-1105998879", "name": "Klein Poechlarn, Wachauerstrasse 4", "lat": 48.21736, "lng": 15.2160691, "site_brand": "BP", "country_code": "AT", "address": "Wachauerstra\u00dfe 4", "city": "Klein P\u00f6chlarn", "state": null, "postcode": "3660", "telephone": "+43 7413 8008", "facilities": ["tobacco", "car_wash", "toilet", "shop", "accepts_routex_cards", "accepts_toll_payments", "reminder_service", "open_saturday", "open_sunday"], "products": ["ad_blue_cannister", "diesel_on", "ultimate", "ultimate_diesel", "ultimate_unleaded", "unleaded_95"], "website": null, "watchlist_id": null, "formatted_address": "Wachauerstra\u00dfe 4\n3660\nKlein P\u00f6chlarn", "channel_of_trade": null}, {"id": "AT-1126226571", "name": "Hellmonsoedt, Linzer Str. 22", "lat": 48.4291267, "lng": 14.2950845, "site_brand": "BP", "country_code": "AT", "address": "Linzer Stra\u00dfe 22", "city": "Hellmons\u00f6dt", "state": null, "postcode": "4202", "telephone": "+43 7215 2428", "facilities": ["toilet", "shop", "accepts_routex_cards", "accepts_toll_payments", "reminder_service", "open_saturday", "open_sunday"], "products": ["ad_blue_cannister", "diesel_on", "ultimate", "ultimate_diesel", "ultimate_unleaded", "unleaded_95"], "website": null, "watchlist_id": null, "formatted_address": "Linzer Stra\u00dfe 22\n4202\nHellmons\u00f6dt", "channel_of_trade": null}, {"id": "AT-1172183815", "name": "Maria Alm, Hochk\u00f6nigstra\u00dfe 9", "lat": 47.4079407, "lng": 12.8942825, "site_brand": "BP", "country_code": "AT", "address": "Hochk\u00f6nigstra\u00dfe 9", "city": "Maria Alm", "state": null, "postcode": "5761", "telephone": "+43 6584 7759", "facilities": ["toilet", "shop", "accepts_routex_cards", "accepts_toll_payments", "reminder_service", "open_saturday", "open_sunday"], "products": ["ad_blue_cannister", "diesel_on", "ultimate", "ultimate_diesel", "unleaded_95"], "website": null, "watchlist_id": null, "formatted_address": "Hochk\u00f6nigstra\u00dfe 9\n5761\nMaria Alm", "channel_of_trade": null}, {"id": "AT-1172480427", "name": "Linz, Stahlstr. 5", "lat": 48.2845255, "lng": 14.3201387, "site_brand": "BP", "country_code": "AT", "address": "Stahlstra\u00dfe 5", "city": "Linz", "state": null, "postcode": "4020", "telephone": "+43 732 653135", "facilities": ["open_24_hours", "high_speed_pump", "truck_suitable_site", "shop", "accepts_routex_cards", "accepts_toll_payments", "open_saturday", "open_sunday"], "products": ["ad_blue_cannister", "ad_blue_pump", "diesel_on", "ultimate", "ultimate_diesel", "ultimate_unleaded", "unleaded_95", "ad_blue"], "website": null, "watchlist_id": null, "formatted_address": "Stahlstra\u00dfe 5\n4020\nLinz", "channel_of_trade": null}, {"id": "AT-1239192424", "name": "Leobersdorf, Hirtenberger Strasse 4E", "lat": 47.934682, "lng": 16.216976, "site_brand": "BP", "country_code": "AT", "address": "Hirtenberger Stra\u00dfe 4e", "city": "Leobersdorf", "state": null, "postcode": "2544", "telephone": "+43 2256 64606", "facilities": ["car_wash", "shop", "wild_bean_cafe", "accepts_routex_cards", "accepts_toll_payments", "open_saturday", "open_sunday"], "products": ["ad_blue_cannister", "ad_blue_pump", "diesel_on", "hvo", "ultimate", "ultimate_diesel", "ultimate_unleaded", "unleaded_95", "ad_blue"], "website": null, "watchlist_id": null, "formatted_address": "Hirtenberger Stra\u00dfe 4e\n2544\nLeobersdorf", "channel_of_trade": null}, {"id": "AT-1268418690", "name": "Radstadt, Salzburger Str. 43", "lat": 47.386639, "lng": 13.450906, "site_brand": "BP", "country_code": "AT", "address": "Salzburger Stra\u00dfe 43", "city": "Radstadt", "state": null, "postcode": "5550", "telephone": "+43 6452 4384", "facilities": ["toilet", "accepts_routex_cards", "accepts_toll_payments", "reminder_service", "open_saturday", "open_sunday"], "products": ["ad_blue_cannister", "ad_blue_pump", "diesel_on", "ultimate", "ultimate_diesel", "ultimate_unleaded", "unleaded_95", "ad_blue"], "website": null, "watchlist_id": null, "formatted_address": "Salzburger Stra\u00dfe 43\n5550\nRadstadt", "channel_of_trade": null}, {"id": "AT-1277019718", "name": "Gleisdorf, Hofstaetten 113", "lat": 47.081403, "lng": 15.739456, "site_brand": "BP", "country_code": "AT", "address": "Hofstetten 113", "city": "Gleisdorf", "state": null, "postcode": "8200", "telephone": "+43 3112 5900310", "facilities": ["open_24_hours", "high_speed_pump", "truck_parking", "truck_suitable_site", "shop", "restaurant", "accepts_routex_cards", "accepts_toll_payments", "reminder_service", "open_saturday", "open_sunday"], "products": ["ad_blue_cannister", "ad_blue_pump", "diesel_on", "ultimate", "ultimate_diesel", "ultimate_unleaded", "unleaded_95", "ad_blue"], "website": null, "watchlist_id": null, "formatted_address": "Hofstetten 113\n8200\nGleisdorf", "channel_of_trade": null}, {"id": "AT-1284640477", "name": "Obernberg am Inn, Brueckenstr. 4", "lat": 48.3193555, "lng": 13.3277399, "site_brand": "BP", "country_code": "AT", "address": "Br\u00fcckenstra\u00dfe 4", "city": "Obernberg am Inn", "state": null, "postcode": "4982", "telephone": "+43 7758 40868", "facilities": ["tobacco", "toilet", "accepts_routex_cards", "accepts_toll_payments", "reminder_service", "open_saturday", "open_sunday"], "products": ["ad_blue_cannister", "diesel_on", "ultimate", "ultimate_diesel", "ultimate_unleaded", "unleaded_95"], "website": null, "watchlist_id": null, "formatted_address": "Br\u00fcckenstra\u00dfe 4\n4982\nObernberg am Inn", "channel_of_trade": null}, {"id": "AT-1289846694", "name": "Taxenbach, Bundesstr. 6", "lat": 47.2932261, "lng": 12.9690655, "site_brand": "BP", "country_code": "AT", "address": "Bundesstra\u00dfe 6", "city": "Taxenbach", "state": null, "postcode": "5550", "telephone": "+43 6543 6121", "facilities": ["toilet", "shop", "accepts_routex_cards", "accepts_toll_payments", "reminder_service", "open_saturday", "open_sunday"], "products": ["ad_blue_cannister", "diesel_on", "ultimate", "ultimate_diesel", "ultimate_unleaded", "unleaded_95"], "website": null, "watchlist_id": null, "formatted_address": "Bundesstra\u00dfe 6\n5550\nTaxenbach", "channel_of_trade": null}, {"id": "AT-1312950519", "name": "ST-EIBISWALD, AIBL 72", "lat": 46.681945, "lng": 15.230276, "site_brand": "BP", "country_code": "AT", "address": "Aibl 72", "city": "Eibiswald", "state": null, "postcode": "8552", "telephone": "+43 3466 42318", "facilities": ["car_wash", "accepts_routex_cards", "accepts_toll_payments", "reminder_service", "open_saturday", "open_sunday"], "products": ["ad_blue_cannister", "ad_blue_pump", "diesel_on", "ultimate", "ultimate_diesel", "ultimate_unleaded", "unleaded_95", "ad_blue"], "website": null, "watchlist_id": null, "formatted_address": "Aibl 72\n8552\nEibiswald", "channel_of_trade": null}, {"id": "AT-1322282308", "name": "Bad Goisern, Sankt Agatha 86", "lat": 47.6238331, "lng": 13.6454513, "site_brand": "BP", "country_code": "AT", "address": "Sankt Agatha 86", "city": "Bad Goisern", "state": null, "postcode": "4822", "telephone": "+43 6135 8313", "facilities": ["toilet", "restaurant", "accepts_routex_cards", "accepts_toll_payments", "reminder_service", "open_saturday", "open_sunday"], "products": ["ad_blue_cannister", "diesel_on", "ultimate", "ultimate_diesel", "ultimate_unleaded", "unleaded_95"], "website": null, "watchlist_id": null, "formatted_address": "Sankt Agatha 86\n4822\nBad Goisern", "channel_of_trade": null}, {"id": "AT-1324374001", "name": "Wien, Siemensstr. 105 B", "lat": 48.267149, "lng": 16.428972, "site_brand": "BP", "country_code": "AT", "address": "Siemensstra\u00dfe 105b", "city": "Wien", "state": null, "postcode": "1210", "telephone": "+43 1 2580094", "facilities": ["toilet", "shop", "restaurant", "accepts_routex_cards", "accepts_toll_payments", "reminder_service", "open_saturday", "open_sunday"], "products": ["ad_blue_cannister", "diesel_on", "natural_gas", "ultimate", "ultimate_diesel", "ultimate_unleaded", "unleaded_95"], "website": null, "watchlist_id": null, "formatted_address": "Siemensstra\u00dfe 105b\n1210\nWien", "channel_of_trade": null}, {"id": "AT-1359100731", "name": "Tumeltsham, Hannesgrub Sued 3", "lat": 48.2180558, "lng": 13.4947438, "site_brand": "BP", "country_code": "AT", "address": "Hannesgrub S\u00fcd 3", "city": "Tumeltsham", "state": null, "postcode": "4911", "telephone": "+43 7752 88823", "facilities": ["shop", "accepts_routex_cards", "accepts_toll_payments", "reminder_service", "open_saturday", "open_sunday"], "products": ["ad_blue_cannister", "ad_blue_pump", "diesel_on", "ultimate", "ultimate_diesel", "ultimate_unleaded", "unleaded_95", "ad_blue"], "website": null, "watchlist_id": null, "formatted_address": "Hannesgrub S\u00fcd 3\n4911\nTumeltsham", "channel_of_trade": null}, {"id": "AT-136428437", "name": "20,DRESDNERSTRASSE 8", "lat": 48.2408, "lng": 16.3746, "site_brand": "BP", "country_code": "AT", "address": "Dresdnerstra\u00dfe 8", "city": "Wien", "state": null, "postcode": "1200", "telephone": "+43 1 3304231", "facilities": ["open_24_hours", "car_wash", "shop", "wild_bean_cafe", "accepts_routex_cards", "accepts_toll_payments", "open_saturday", "open_sunday"], "products": ["ad_blue_cannister", "diesel_on", "ultimate", "ultimate_diesel", "ultimate_unleaded", "unleaded_95"], "website": null, "watchlist_id": null, "formatted_address": "Dresdnerstra\u00dfe 8\n1200\nWien", "channel_of_trade": null}, {"id": "AT-1395851903", "name": "Burgkirchen, Au 2", "lat": 48.19558, "lng": 13.10447, "site_brand": "BP", "country_code": "AT", "address": "Au 2", "city": "Burgkirchen", "state": null, "postcode": "5274", "telephone": "+43 676 6104999", "facilities": ["car_wash", "shop", "accepts_routex_cards", "reminder_service", "open_saturday", "open_sunday"], "products": ["ad_blue_cannister", "ad_blue_pump", "diesel_on", "ultimate", "ultimate_diesel", "ultimate_unleaded", "unleaded_95", "ad_blue"], "website": null, "watchlist_id": null, "formatted_address": "Au 2\n5274\nBurgkirchen", "channel_of_trade": null}, {"id": "AT-1406101388", "name": "S-SALZBURG, STERNECKSTR. 16", "lat": 47.8081108, "lng": 13.0530881, "site_brand": "BP", "country_code": "AT", "address": "Sterneckstra\u00dfe 16", "city": "Salzburg", "state": null, "postcode": "5020", "telephone": "+43 50 8300 3050", "facilities": ["accepts_routex_cards", "reminder_service", "open_saturday", "open_sunday"], "products": ["ad_blue_cannister", "ad_blue_pump", "diesel_on", "ultimate", "ultimate_diesel", "ultimate_unleaded", "unleaded_95", "ad_blue"], "website": null, "watchlist_id": null, "formatted_address": "Sterneckstra\u00dfe 16\n5020\nSalzburg", "channel_of_trade": null}, {"id": "AT-1424187416", "name": "Salzburg, Muenchner Bundesstr. 137", "lat": 47.8331674, "lng": 12.9980373, "site_brand": "BP", "country_code": "AT", "address": "M\u00fcnchner Bundesstra\u00dfe 137", "city": "Salzburg", "state": null, "postcode": "5020", "telephone": "+43 662 424285", "facilities": ["open_24_hours", "toilet", "shop", "restaurant", "accepts_routex_cards", "accepts_toll_payments", "reminder_service", "open_saturday", "open_sunday"], "products": ["ad_blue_cannister", "diesel_on", "natural_gas", "ultimate", "ultimate_diesel", "ultimate_unleaded", "unleaded_95"], "website": null, "watchlist_id": null, "formatted_address": "M\u00fcnchner Bundesstra\u00dfe 137\n5020\nSalzburg", "channel_of_trade": null}, {"id": "AT-1426092169", "name": "Voecklamarkt, Frankenburger Str. 1a", "lat": 47.9953014, "lng": 13.4889876, "site_brand": "BP", "country_code": "AT", "address": "Frankenburger Stra\u00dfe 1a", "city": "V\u00f6cklamarkt", "state": null, "postcode": "4870", "telephone": "+43 7682 3728", "facilities": ["toilet", "restaurant", "accepts_routex_cards", "accepts_toll_payments", "reminder_service", "open_saturday", "open_sunday"], "products": ["ad_blue_cannister", "ad_blue_pump", "diesel_on", "ultimate", "ultimate_diesel", "ultimate_unleaded", "unleaded_95", "ad_blue"], "website": null, "watchlist_id": null, "formatted_address": "Frankenburger Stra\u00dfe 1a\n4870\nV\u00f6cklamarkt", "channel_of_trade": null}, {"id": "AT-1432732079", "name": "Traiskirchen, Wiener Neustaedter Str. 134", "lat": 47.996178, "lng": 16.298568, "site_brand": "BP", "country_code": "AT", "address": "Wiener Neust\u00e4dter Str. 134", "city": "Traiskirchen", "state": null, "postcode": "2512", "telephone": "+43 2252 259140", "facilities": ["open_24_hours", "toilet", "shop", "restaurant", "accepts_routex_cards", "accepts_toll_payments", "reminder_service", "open_saturday", "open_sunday"], "products": ["ad_blue_cannister", "ad_blue_pump", "diesel_on", "lpg", "ultimate", "ultimate_diesel", "ultimate_unleaded", "unleaded_95", "ad_blue"], "website": null, "watchlist_id": null, "formatted_address": "Wiener Neust\u00e4dter Str. 134\n2512\nTraiskirchen", "channel_of_trade": null}, {"id": "AT-1455784815", "name": "Schwarzenberg, Schwarzenberg 168", "lat": 48.7362668, "lng": 13.8195991, "site_brand": "BP", "country_code": "AT", "address": "Schwarzenberg 168", "city": "Schwarzenberg am B\u00f6hmerwald", "state": null, "postcode": "4164", "telephone": "+43 7288 8363", "facilities": ["open_24_hours", "toilet", "shop", "accepts_routex_cards", "reminder_service", "open_saturday", "open_sunday"], "products": ["ad_blue_pump", "diesel_on", "ultimate", "ultimate_diesel", "ultimate_unleaded", "unleaded_95", "ad_blue"], "website": null, "watchlist_id": null, "formatted_address": "Schwarzenberg 168\n4164\nSchwarzenberg am B\u00f6hmerwald", "channel_of_trade": null}, {"id": "AT-1497227096", "name": "Paldau, Saaz 92", "lat": 46.953953, "lng": 15.849611, "site_brand": "BP", "country_code": "AT", "address": "Saaz 92", "city": "Paldau", "state": null, "postcode": "8341", "telephone": "+43 3152 67735", "facilities": ["restaurant", "accepts_routex_cards", "accepts_toll_payments", "reminder_service", "open_saturday", "open_sunday"], "products": ["ad_blue_cannister", "ad_blue_pump", "diesel_on", "ultimate", "ultimate_diesel", "ultimate_unleaded", "unleaded_95", "ad_blue"], "website": null, "watchlist_id": null, "formatted_address": "Saaz 92\n8341\nPaldau", "channel_of_trade": null}, {"id": "AT-154621728", "name": "Weng, Pirath 18", "lat": 48.2494394, "lng": 13.2090305, "site_brand": "BP", "country_code": "AT", "address": "Pirath 18", "city": "Weng", "state": null, "postcode": "4952", "telephone": "+43 7723 44424", "facilities": ["toilet", "shop", "restaurant", "accepts_routex_cards", "accepts_toll_payments", "reminder_service", "open_saturday", "open_sunday"], "products": ["ad_blue_cannister", "ad_blue_pump", "diesel_on", "ultimate", "ultimate_diesel", "ultimate_unleaded", "unleaded_95", "ad_blue"], "website": null, "watchlist_id": null, "formatted_address": "Pirath 18\n4952\nWeng", "channel_of_trade": null}, {"id": "AT-1563497945", "name": "Schaeffern, Gewerbepark 10", "lat": 47.480713, "lng": 16.091953, "site_brand": "BP", "country_code": "AT", "address": "Gewerbepark 10", "city": "Sch\u00e4ffern", "state": null, "postcode": "8244", "telephone": "+43 3339 70365", "facilities": ["open_24_hours", "high_speed_pump", "truck_suitable_site", "restaurant", "accepts_routex_cards", "accepts_toll_payments", "reminder_service", "open_saturday", "open_sunday"], "products": ["ad_blue_cannister", "ad_blue_pump", "diesel_on", "ultimate", "ultimate_diesel", "ultimate_unleaded", "unleaded_95", "ad_blue"], "website": null, "watchlist_id": null, "formatted_address": "Gewerbepark 10\n8244\nSch\u00e4ffern", "channel_of_trade": null}, {"id": "AT-1564464312", "name": "Grossgmain, Salzburger Str. 285", "lat": 47.7279005, "lng": 12.9153066, "site_brand": "BP", "country_code": "AT", "address": "Salzburger Stra\u00dfe 285", "city": "Grossgmain", "state": null, "postcode": "5084", "telephone": "+43 6247 8071", "facilities": ["toilet", "shop", "accepts_routex_cards", "accepts_toll_payments", "reminder_service", "open_saturday", "open_sunday"], "products": ["ad_blue_cannister", "diesel_on", "ultimate", "ultimate_diesel", "ultimate_unleaded", "unleaded_95"], "website": null, "watchlist_id": null, "formatted_address": "Salzburger Stra\u00dfe 285\n5084\nGrossgmain", "channel_of_trade": null}, {"id": "AT-1576012949", "name": "Rohrbach, Umfahrung-Sued 1", "lat": 48.5650573, "lng": 13.9852452, "site_brand": "BP", "country_code": "AT", "address": "Umfahrung S\u00fcd 1", "city": "Rohrbach", "state": null, "postcode": "4150", "telephone": "+43 7289 8939", "facilities": ["toilet", "restaurant", "accepts_routex_cards", "accepts_toll_payments", "reminder_service", "open_saturday", "open_sunday"], "products": ["ad_blue_cannister", "ad_blue_pump", "diesel_on", "natural_gas", "ultimate", "ultimate_diesel", "ultimate_unleaded", "unleaded_95", "ad_blue"], "website": null, "watchlist_id": null, "formatted_address": "Umfahrung S\u00fcd 1\n4150\nRohrbach", "channel_of_trade": null}, {"id": "AT-1587363564", "name": "Mauer bei Amstetten", "lat": 48.0825413, "lng": 14.8017456, "site_brand": "BP", "country_code": "AT", "address": "Hausmeninger Stra\u00dfe 74", "city": "Mauer bei Amstetten", "state": null, "postcode": "3362", "telephone": "+43 7475 52619", "facilities": ["tobacco", "car_wash", "toilet", "shop", "accepts_routex_cards", "reminder_service", "open_saturday", "open_sunday"], "products": ["ad_blue_cannister", "ad_blue_pump", "diesel_on", "ultimate", "ultimate_diesel", "ultimate_unleaded", "unleaded_95", "ad_blue"], "website": null, "watchlist_id": null, "formatted_address": "Hausmeninger Stra\u00dfe 74\n3362\nMauer bei Amstetten", "channel_of_trade": null}, {"id": "AT-1594825830", "name": "Hartberg, Ressavarstr. 4", "lat": 47.275829, "lng": 15.96666, "site_brand": "BP", "country_code": "AT", "address": "Ressavarstra\u00dfe 4", "city": "Hartberg", "state": null, "postcode": "8230", "telephone": "+43 3332 62571", "facilities": ["shop", "accepts_routex_cards", "accepts_toll_payments", "reminder_service", "open_saturday", "open_sunday"], "products": ["ad_blue_cannister", "diesel_on", "ultimate", "ultimate_diesel", "ultimate_unleaded", "unleaded_95"], "website": null, "watchlist_id": null, "formatted_address": "Ressavarstra\u00dfe 4\n8230\nHartberg", "channel_of_trade": null}, {"id": "AT-1597308149", "name": "St. Martin im Muehlkreis, Windorf 10", "lat": 48.438227, "lng": 14.037018, "site_brand": "BP", "country_code": "AT", "address": "Windorf 10", "city": "St.Martin im M\u00fchlkreis", "state": null, "postcode": "4113", "telephone": "+43 7232 2230", "facilities": ["toilet", "restaurant", "accepts_routex_cards", "accepts_toll_payments", "reminder_service", "open_saturday", "open_sunday"], "products": ["ad_blue_cannister", "ad_blue_pump", "diesel_on", "ultimate", "ultimate_diesel", "ultimate_unleaded", "unleaded_95", "ad_blue"], "website": null, "watchlist_id": null, "formatted_address": "Windorf 10\n4113\nSt.Martin im M\u00fchlkreis", "channel_of_trade": null}, {"id": "AT-1597954519", "name": "Poechlarn, Reichsstr. 14", "lat": 48.198069, "lng": 15.221268, "site_brand": "BP", "country_code": "AT", "address": "Reichsstra\u00dfe 14", "city": "P\u00f6chlarn", "state": null, "postcode": "3380", "telephone": "+43 2757 20212", "facilities": ["open_24_hours", "high_speed_pump", "truck_suitable_site", "toilet", "shop", "restaurant", "accepts_routex_cards", "accepts_toll_payments", "reminder_service", "open_saturday", "open_sunday"], "products": ["ad_blue_cannister", "ad_blue_pump", "diesel_on", "hvo", "lpg", "natural_gas", "ultimate", "ultimate_diesel", "ultimate_unleaded", "unleaded_95", "ad_blue"], "website": null, "watchlist_id": null, "formatted_address": "Reichsstra\u00dfe 14\n3380\nP\u00f6chlarn", "channel_of_trade": null}, {"id": "AT-1607221443", "name": "Graz, Triester Str. 459", "lat": 47.020192, "lng": 15.438608, "site_brand": "BP", "country_code": "AT", "address": "Triester Stra\u00dfe 459", "city": "Graz", "state": null, "postcode": "8055", "telephone": "+43 316 293324", "facilities": ["open_24_hours", "accepts_routex_cards", "accepts_toll_payments", "open_saturday", "open_sunday"], "products": ["ad_blue_cannister", "diesel_on", "lpg", "ultimate", "ultimate_diesel", "ultimate_unleaded", "unleaded_95"], "website": null, "watchlist_id": null, "formatted_address": "Triester Stra\u00dfe 459\n8055\nGraz", "channel_of_trade": null}, {"id": "AT-1623972015", "name": "Haag, Geierau 4", "lat": 48.2000533, "lng": 13.6457734, "site_brand": "BP", "country_code": "AT", "address": "Geierau 4", "city": "Haag", "state": null, "postcode": "4680", "telephone": "+43 7732 4540", "facilities": ["open_24_hours", "high_speed_pump", "truck_parking", "truck_suitable_site", "restaurant", "accepts_routex_cards", "accepts_toll_payments", "reminder_service", "open_saturday", "open_sunday"], "products": ["ad_blue_cannister", "ad_blue_pump", "diesel_on", "hvo", "lpg", "ultimate", "ultimate_diesel", "ultimate_unleaded", "unleaded_95", "ad_blue"], "website": null, "watchlist_id": null, "formatted_address": "Geierau 4\n4680\nHaag", "channel_of_trade": null}, {"id": "AT-1626535248", "name": "Seekirchen, Obertrumer Landstrasse 11", "lat": 47.9036543, "lng": 13.1205386, "site_brand": "BP", "country_code": "AT", "address": "Obertrumer Landstra\u00dfe 11", "city": "Seekirchen", "state": null, "postcode": "5201", "telephone": "+43 50 8300", "facilities": ["alcohol", "tobacco", "high_speed_pump", "truck_suitable_site", "toilet", "accepts_routex_cards", "accepts_toll_payments", "reminder_service", "open_saturday", "open_sunday"], "products": ["ad_blue_cannister", "ad_blue_pump", "diesel_on", "ultimate", "ultimate_diesel", "ultimate_unleaded", "unleaded_95", "ad_blue"], "website": null, "watchlist_id": null, "formatted_address": "Obertrumer Landstra\u00dfe 11\n5201\nSeekirchen", "channel_of_trade": null}, {"id": "AT-1666260023", "name": "St. Michael, Murtalerstrasse 579", "lat": 47.0954278, "lng": 13.6385084, "site_brand": "BP", "country_code": "AT", "address": "Murtal Stra\u00dfe 579", "city": "Sankt Michael im Lungau", "state": null, "postcode": "5582", "telephone": "+43 50 8300 3300", "facilities": ["alcohol", "tobacco", "high_speed_pump", "truck_suitable_site", "disabled_facilities", "toilet", "bakery_bistro", "accepts_routex_cards", "accepts_toll_payments", "reminder_service", "open_saturday", "open_sunday"], "products": ["ad_blue_cannister", "ad_blue_pump", "diesel_on", "lpg", "ultimate", "ultimate_diesel", "ultimate_unleaded", "unleaded_95", "ad_blue"], "website": null, "watchlist_id": null, "formatted_address": "Murtal Stra\u00dfe 579\n5582\nSankt Michael im Lungau", "channel_of_trade": null}, {"id": "AT-1677479754", "name": "Thoerl-Maglern, Thoerl-Maglern 35", "lat": 46.544373, "lng": 13.653962, "site_brand": "BP", "country_code": "AT", "address": "Th\u00f6rl-Maglern 35", "city": "Th\u00f6rl-Maglern", "state": null, "postcode": "9602", "telephone": "+43 4255 82656", "facilities": ["open_24_hours", "tobacco", "high_speed_pump", "truck_suitable_site", "toilet", "shop", "accepts_routex_cards", "accepts_toll_payments", "reminder_service", "open_saturday", "open_sunday"], "products": ["ad_blue_cannister", "ad_blue_pump", "diesel_on", "hvo", "lpg", "ultimate", "ultimate_diesel", "ultimate_unleaded", "unleaded_95", "ad_blue"], "website": null, "watchlist_id": null, "formatted_address": "Th\u00f6rl-Maglern 35\n9602\nTh\u00f6rl-Maglern", "channel_of_trade": null}, {"id": "AT-168977531", "name": "Sankt Pankraz, Sankt Pankraz 70", "lat": 47.7731262, "lng": 14.1779956, "site_brand": "BP", "country_code": "AT", "address": "Sankt Pankraz 70", "city": "Sankt Pankraz", "state": null, "postcode": "4572", "telephone": "+43 7565 2340", "facilities": ["open_24_hours", "tobacco", "high_speed_pump", "truck_parking", "truck_suitable_site", "toilet", "restaurant", "accepts_routex_cards", "accepts_toll_payments", "reminder_service", "open_saturday", "open_sunday"], "products": ["ad_blue_cannister", "ad_blue_pump", "diesel_on", "ultimate", "ultimate_diesel", "ultimate_unleaded", "unleaded_95", "ad_blue"], "website": null, "watchlist_id": null, "formatted_address": "Sankt Pankraz 70\n4572\nSankt Pankraz", "channel_of_trade": null}, {"id": "AT-169653509", "name": "Graz, Reininghausstr. 63", "lat": 47.062958, "lng": 15.399311, "site_brand": "BP", "country_code": "AT", "address": "Reininghausstra\u00dfe 63", "city": "Graz", "state": null, "postcode": "8020", "telephone": "+43 316 583551", "facilities": ["accepts_routex_cards", "reminder_service", "open_saturday", "open_sunday"], "products": ["ad_blue_cannister", "diesel_on", "ultimate", "ultimate_diesel", "ultimate_unleaded", "unleaded_95"], "website": null, "watchlist_id": null, "formatted_address": "Reininghausstra\u00dfe 63\n8020\nGraz", "channel_of_trade": null}, {"id": "AT-17727", "name": "Regau, Salzkammergutstrasse 8", "lat": 47.9841675, "lng": 13.6975071, "site_brand": "BP", "country_code": "AT", "address": "Salzkammergut Str. 8", "city": "Regau", "state": null, "postcode": "4844", "telephone": "+43 7672 75371", "facilities": ["tobacco", "car_wash", "high_speed_pump", "truck_suitable_site", "toilet", "shop", "accepts_routex_cards", "accepts_toll_payments", "reminder_service", "open_saturday", "open_sunday"], "products": ["ad_blue_cannister", "diesel_on", "ultimate", "ultimate_diesel", "ultimate_unleaded", "unleaded_95"], "website": null, "watchlist_id": null, "formatted_address": "Salzkammergut Str. 8\n4844\nRegau", "channel_of_trade": null}, {"id": "AT-17880", "name": "Oberndorf, Wieselburger Strasse 2", "lat": 48.0659052, "lng": 15.2158903, "site_brand": "BP", "country_code": "AT", "address": "Wieselburger Stra\u00dfe 2", "city": "Oberndorf an der Melk", "state": null, "postcode": "3281", "telephone": "+43 7483 7000", "facilities": ["toilet", "accepts_routex_cards", "accepts_toll_payments", "reminder_service", "open_saturday", "open_sunday"], "products": ["ad_blue_cannister", "diesel_on", "red_diesel", "unleaded_95"], "website": null, "watchlist_id": null, "formatted_address": "Wieselburger Stra\u00dfe 2\n3281\nOberndorf an der Melk", "channel_of_trade": null}, {"id": "AT-17881", "name": "Virgen,Virgentalstr. 39", "lat": 47.0017508, "lng": 12.4644121, "site_brand": "BP", "country_code": "AT", "address": "Virgentalstra\u00dfe 39", "city": "Virgen", "state": null, "postcode": "9972", "telephone": "+43 4874 5267", "facilities": ["toilet", "accepts_routex_cards", "reminder_service", "open_saturday", "open_sunday"], "products": ["ad_blue_cannister", "diesel_on", "ultimate", "ultimate_diesel", "ultimate_unleaded", "unleaded_95"], "website": null, "watchlist_id": null, "formatted_address": "Virgentalstra\u00dfe 39\n9972\nVirgen", "channel_of_trade": null}, {"id": "AT-17890927", "name": "Trofaiach, Hauptstr. 12", "lat": 47.4204189, "lng": 15.0147581, "site_brand": "BP", "country_code": "AT", "address": "Hauptstra\u00dfe 12", "city": "Trofaiach", "state": null, "postcode": "8793", "telephone": "+43 3847 2933", "facilities": ["shop", "accepts_routex_cards", "accepts_toll_payments", "reminder_service", "open_saturday", "open_sunday"], "products": ["ad_blue_cannister", "diesel_on", "ultimate", "ultimate_diesel", "ultimate_unleaded", "unleaded_95"], "website": null, "watchlist_id": "17890927", "formatted_address": "Hauptstra\u00dfe 12\n8793\nTrofaiach", "channel_of_trade": null}, {"id": "AT-1815100694", "name": "Anif, Alpenstrasse 111", "lat": 47.7362928, "lng": 13.0507707, "site_brand": "BP", "country_code": "AT", "address": "Alpenstra\u00dfe 111", "city": "Anif", "state": null, "postcode": "5081", "telephone": "+43 660 1349879", "facilities": ["alcohol", "tobacco", "high_speed_pump", "truck_suitable_site", "toilet", "bakery_bistro", "accepts_routex_cards", "accepts_toll_payments", "reminder_service", "open_saturday", "open_sunday"], "products": ["ad_blue_cannister", "ad_blue_pump", "diesel_on", "ultimate", "ultimate_diesel", "ultimate_unleaded", "unleaded_95", "ad_blue"], "website": null, "watchlist_id": null, "formatted_address": "Alpenstra\u00dfe 111\n5081\nAnif", "channel_of_trade": null}, {"id": "AT-1815862924", "name": "Tulln an der Donau, Staasdorfer Str. 1", "lat": 48.3261402, "lng": 16.059315, "site_brand": "BP", "country_code": "AT", "address": "Staasdorferstra\u00dfe 1", "city": "Tulln", "state": null, "postcode": "3430", "telephone": "+43 2272 62523", "facilities": ["toilet", "shop", "restaurant", "accepts_routex_cards", "accepts_toll_payments", "reminder_service", "open_saturday", "open_sunday"], "products": ["ad_blue_cannister", "ad_blue_pump", "diesel_on", "ultimate", "ultimate_diesel", "ultimate_unleaded", "unleaded_95", "ad_blue"], "website": null, "watchlist_id": null, "formatted_address": "Staasdorferstra\u00dfe 1\n3430\nTulln", "channel_of_trade": null}, {"id": "AT-1818254620", "name": "Leoben, Ostererweg 2a", "lat": 47.3802672, "lng": 15.1070368, "site_brand": "BP", "country_code": "AT", "address": "Ostererweg 2a", "city": "Leoben", "state": null, "postcode": "8700", "telephone": "+43 3842 46179", "facilities": ["toilet", "shop", "accepts_routex_cards", "accepts_toll_payments", "reminder_service", "open_saturday", "open_sunday"], "products": ["ad_blue_cannister", "diesel_on", "ultimate", "ultimate_diesel", "ultimate_unleaded", "unleaded_95"], "website": null, "watchlist_id": null, "formatted_address": "Ostererweg 2a\n8700\nLeoben", "channel_of_trade": null}, {"id": "AT-184423823", "name": "Linz, Franckstr. 17", "lat": 48.296395, "lng": 14.308057, "site_brand": "BP", "country_code": "AT", "address": "Franckstra\u00dfe 17", "city": "Linz", "state": null, "postcode": "4020", "telephone": "+43 732 654562", "facilities": ["shop", "accepts_routex_cards", "accepts_toll_payments", "reminder_service", "open_saturday", "open_sunday"], "products": ["ad_blue_cannister", "diesel_on", "ultimate", "ultimate_diesel", "ultimate_unleaded", "unleaded_95"], "website": null, "watchlist_id": null, "formatted_address": "Franckstra\u00dfe 17\n4020\nLinz", "channel_of_trade": null}, {"id": "AT-1845146348", "name": "Spittal an der Drau, Zgurner Str. 2", "lat": 46.782923, "lng": 13.534306, "site_brand": "BP", "country_code": "AT", "address": "Zgurner Strasse 2", "city": "Spittal an der Drau", "state": null, "postcode": "9800", "telephone": "+43 4762 37470", "facilities": ["toilet", "shop", "accepts_routex_cards", "accepts_toll_payments", "reminder_service", "open_saturday", "open_sunday"], "products": ["ad_blue_cannister", "ad_blue_pump", "diesel_on", "natural_gas", "ultimate", "ultimate_diesel", "ultimate_unleaded", "unleaded_95", "ad_blue"], "website": null, "watchlist_id": null, "formatted_address": "Zgurner Strasse 2\n9800\nSpittal an der Drau", "channel_of_trade": null}, {"id": "AT-1854718375", "name": "Traun, Wiener Bundesstr. 153", "lat": 48.2343935, "lng": 14.2330226, "site_brand": "BP", "country_code": "AT", "address": "Wiener Bundesstra\u00dfe 153", "city": "Traun", "state": null, "postcode": "4050", "telephone": "+43 7229 73209", "facilities": ["open_24_hours", "toilet", "accepts_routex_cards", "accepts_toll_payments", "reminder_service", "open_saturday", "open_sunday"], "products": ["ad_blue_cannister", "ad_blue_pump", "diesel_on", "natural_gas", "ultimate", "ultimate_diesel", "ultimate_unleaded", "unleaded_95", "ad_blue"], "website": null, "watchlist_id": null, "formatted_address": "Wiener Bundesstra\u00dfe 153\n4050\nTraun", "channel_of_trade": null}, {"id": "AT-1865510795", "name": "Wels, Salzburger Str. 57a", "lat": 48.157705, "lng": 14.010245, "site_brand": "BP", "country_code": "AT", "address": "Salzburger Stra\u00dfe 57a", "city": "Wels", "state": null, "postcode": "4600", "telephone": "+43 7242 64105", "facilities": ["accepts_routex_cards", "accepts_toll_payments", "open_saturday", "open_sunday"], "products": ["ad_blue_cannister", "diesel_on", "ultimate", "ultimate_diesel", "ultimate_unleaded", "unleaded_95"], "website": null, "watchlist_id": null, "formatted_address": "Salzburger Stra\u00dfe 57a\n4600\nWels", "channel_of_trade": null}, {"id": "AT-18746207", "name": "Hof b. Salzburg, Wolfgangseestr. 9", "lat": 47.8169976, "lng": 13.2281001, "site_brand": "BP", "country_code": "AT", "address": "Wolfgangseestra\u00dfe 9", "city": "Hof bei Salzburg", "state": null, "postcode": "5322", "telephone": "+43 50 8300", "facilities": ["alcohol", "tobacco", "toilet", "accepts_routex_cards", "accepts_toll_payments", "reminder_service", "open_saturday", "open_sunday"], "products": ["ad_blue_cannister", "ad_blue_pump", "diesel_on", "ultimate", "ultimate_diesel", "ultimate_unleaded", "unleaded_95", "ad_blue"], "website": null, "watchlist_id": "18746207", "formatted_address": "Wolfgangseestra\u00dfe 9\n5322\nHof bei Salzburg", "channel_of_trade": null}, {"id": "AT-1876931075", "name": "Gralla, Gewerbepark Sued 4", "lat": 46.804099, "lng": 15.557495, "site_brand": "BP", "country_code": "AT", "address": "Gewerbepark S\u00fcd 4", "city": "Gralla", "state": null, "postcode": "8431", "telephone": "+43 3452 71416", "facilities": ["toilet", "restaurant", "accepts_routex_cards", "accepts_toll_payments", "reminder_service", "open_saturday", "open_sunday"], "products": ["ad_blue_cannister", "diesel_on", "ultimate", "ultimate_diesel", "ultimate_unleaded", "unleaded_95"], "website": null, "watchlist_id": null, "formatted_address": "Gewerbepark S\u00fcd 4\n8431\nGralla", "channel_of_trade": null}, {"id": "AT-1881041682", "name": "T-HEITERWANG, FERNPASSSTRASSE", "lat": 47.4366856, "lng": 10.7662369, "site_brand": "BP", "country_code": "AT", "address": "Gewerbegebiet 1", "city": "Heiterwang", "state": null, "postcode": "6611", "telephone": "+43 676 4135228", "facilities": ["open_24_hours", "accepts_routex_cards", "accepts_toll_payments", "open_saturday", "open_sunday"], "products": ["ad_blue_cannister", "ad_blue_pump", "diesel_on", "lpg", "ultimate", "ultimate_diesel", "ultimate_unleaded", "unleaded_95", "ad_blue"], "website": null, "watchlist_id": null, "formatted_address": "Gewerbegebiet 1\n6611\nHeiterwang", "channel_of_trade": null}, {"id": "AT-18975", "name": "Kollerschlag, Falkensteinstr. 16", "lat": 48.6023, "lng": 13.8389, "site_brand": "BP", "country_code": "AT", "address": "Falkensteinstra\u00dfe 16", "city": "Kollerschlag", "state": null, "postcode": "4154", "telephone": "+43 7287 752848", "facilities": ["open_24_hours", "toilet", "accepts_routex_cards", "reminder_service", "open_saturday", "open_sunday"], "products": ["ad_blue_cannister", "ad_blue_pump", "diesel_on", "ultimate", "ultimate_diesel", "ultimate_unleaded", "unleaded_95", "ad_blue"], "website": null, "watchlist_id": null, "formatted_address": "Falkensteinstra\u00dfe 16\n4154\nKollerschlag", "channel_of_trade": null}, {"id": "AT-19004", "name": "Obergrafendorf, Hauptstr. 34", "lat": 48.1498, "lng": 15.5495, "site_brand": "BP", "country_code": "AT", "address": "Hauptstra\u00dfe 34", "city": "Obergrafendorf", "state": null, "postcode": "3200", "telephone": "+43 2747 2275", "facilities": ["tobacco", "car_wash", "toilet", "shop", "accepts_routex_cards", "accepts_toll_payments", "reminder_service", "open_saturday", "open_sunday"], "products": ["ad_blue_cannister", "diesel_on", "ultimate", "ultimate_diesel", "ultimate_unleaded", "unleaded_95"], "website": null, "watchlist_id": null, "formatted_address": "Hauptstra\u00dfe 34\n3200\nObergrafendorf", "channel_of_trade": null}, {"id": "AT-19005", "name": "Sebersdorf 304", "lat": 47.182678, "lng": 15.992691, "site_brand": "BP", "country_code": "AT", "address": "Sebersdorf 304", "city": "Sebersdorf", "state": null, "postcode": "8272", "telephone": "+43 3333 24899", "facilities": ["tobacco", "high_speed_pump", "truck_suitable_site", "truck_wash", "toilet", "shop", "accepts_routex_cards", "accepts_toll_payments", "reminder_service", "open_saturday", "open_sunday"], "products": ["ad_blue_cannister", "ad_blue_pump", "diesel_on", "ultimate", "ultimate_diesel", "ultimate_unleaded", "unleaded_95", "ad_blue"], "website": null, "watchlist_id": null, "formatted_address": "Sebersdorf 304\n8272\nSebersdorf", "channel_of_trade": null}, {"id": "AT-1936668538", "name": "Unterweitersdorf, Radingdorf 9", "lat": 48.358987, "lng": 14.477963, "site_brand": "BP", "country_code": "AT", "address": "Radingdorf 9", "city": "Unterweitersdorf", "state": null, "postcode": "4213", "telephone": "+43 7236 20895", "facilities": ["open_24_hours", "toilet", "shop", "restaurant", "accepts_routex_cards", "accepts_toll_payments", "reminder_service", "open_saturday", "open_sunday"], "products": ["ad_blue_cannister", "ad_blue_pump", "diesel_on", "lpg", "ultimate", "ultimate_diesel", "ultimate_unleaded", "unleaded_95", "ad_blue"], "website": null, "watchlist_id": null, "formatted_address": "Radingdorf 9\n4213\nUnterweitersdorf", "channel_of_trade": null}, {"id": "AT-1943201263", "name": "GOING", "lat": 47.5158713, "lng": 12.3186388, "site_brand": "BP", "country_code": "AT", "address": "Innsbrucker Stra\u00dfe 5", "city": "Going am Wilden Kaiser", "state": null, "postcode": "6353", "telephone": "+43 5358 43949", "facilities": ["accepts_routex_cards", "accepts_toll_payments", "reminder_service", "open_saturday", "open_sunday"], "products": ["ad_blue_cannister", "diesel_on", "ultimate", "ultimate_diesel", "ultimate_unleaded", "unleaded_95"], "website": null, "watchlist_id": null, "formatted_address": "Innsbrucker Stra\u00dfe 5\n6353\nGoing am Wilden Kaiser", "channel_of_trade": null}, {"id": "AT-2043813079", "name": "Persenbeug, Nibelungenstrasse 68", "lat": 48.1898373, "lng": 15.0960731, "site_brand": "BP", "country_code": "AT", "address": "Nibelungenstra\u00dfe 68", "city": "Persenbeug", "state": null, "postcode": "3680", "telephone": "+43 7412 54840", "facilities": ["tobacco", "car_wash", "toilet", "shop", "accepts_routex_cards", "accepts_toll_payments", "reminder_service", "open_saturday", "open_sunday"], "products": ["ad_blue_cannister", "diesel_on", "ultimate", "ultimate_diesel", "ultimate_unleaded", "unleaded_95"], "website": null, "watchlist_id": null, "formatted_address": "Nibelungenstra\u00dfe 68\n3680\nPersenbeug", "channel_of_trade": null}, {"id": "AT-204660218", "name": "Seefeld, Foehrenwald 498", "lat": 47.3279656, "lng": 11.1986662, "site_brand": "BP", "country_code": "AT", "address": "F\u00f6hrenwand 498", "city": "Seefeld in Tirol", "state": null, "postcode": "6100", "telephone": "+43 5212 20567", "facilities": ["tobacco", "accepts_routex_cards", "accepts_toll_payments", "reminder_service", "open_saturday", "open_sunday"], "products": ["ad_blue_cannister", "ad_blue_pump", "diesel_on", "ultimate", "ultimate_diesel", "ultimate_unleaded", "unleaded_95", "ad_blue"], "website": null, "watchlist_id": null, "formatted_address": "F\u00f6hrenwand 498\n6100\nSeefeld in Tirol", "channel_of_trade": null}, {"id": "AT-205415585", "name": "Freistadt, Linzer Stra\u00dfe 44", "lat": 48.5023154, "lng": 14.5016524, "site_brand": "BP", "country_code": "AT", "address": "Linzer Stra\u00dfe 44", "city": "Freistadt", "state": null, "postcode": "4240", "telephone": "+43 7942 75096", "facilities": ["toilet", "restaurant", "accepts_routex_cards", "accepts_toll_payments", "reminder_service", "open_saturday", "open_sunday"], "products": ["ad_blue_cannister", "diesel_on", "natural_gas", "ultimate", "ultimate_diesel", "ultimate_unleaded", "unleaded_95"], "website": null, "watchlist_id": null, "formatted_address": "Linzer Stra\u00dfe 44\n4240\nFreistadt", "channel_of_trade": null}, {"id": "AT-2072749127", "name": "Achau, Lanzendorfer Str. 9", "lat": 48.0826508, "lng": 16.391651, "site_brand": "BP", "country_code": "AT", "address": "Lanzendorfer Stra\u00dfe 9", "city": "Achau", "state": null, "postcode": "2481", "telephone": "+43 2236 710698", "facilities": ["tobacco", "accepts_routex_cards", "accepts_toll_payments", "reminder_service", "open_saturday", "open_sunday"], "products": ["ad_blue_cannister", "diesel_on", "ultimate", "ultimate_diesel", "ultimate_unleaded", "unleaded_95"], "website": null, "watchlist_id": null, "formatted_address": "Lanzendorfer Stra\u00dfe 9\n2481\nAchau", "channel_of_trade": null}, {"id": "AT-2100411926", "name": "Zeltweg, Hauptstr. 2", "lat": 47.1973514, "lng": 14.7665027, "site_brand": "BP", "country_code": "AT", "address": "Hauptstra\u00dfe 2", "city": "Zeltweg", "state": null, "postcode": "8740", "telephone": "+43 3577 24800", "facilities": ["high_speed_pump", "truck_suitable_site", "shop", "accepts_routex_cards", "accepts_toll_payments", "reminder_service", "open_saturday", "open_sunday"], "products": ["ad_blue_cannister", "diesel_on", "ultimate", "ultimate_diesel", "ultimate_unleaded", "unleaded_95"], "website": null, "watchlist_id": null, "formatted_address": "Hauptstra\u00dfe 2\n8740\nZeltweg", "channel_of_trade": null}, {"id": "AT-2112758627", "name": "Eberstalzell, Solarstr. 2", "lat": 48.039795, "lng": 13.991393, "site_brand": "BP", "country_code": "AT", "address": "Solarstra\u00dfe 2", "city": "Eberstalzell", "state": null, "postcode": "4653", "telephone": "+43 7241 21389", "facilities": ["open_24_hours", "truck_suitable_site", "toilet", "restaurant", "accepts_routex_cards", "accepts_toll_payments", "reminder_service", "open_saturday", "open_sunday"], "products": ["ad_blue_cannister", "ad_blue_pump", "diesel_on", "hvo", "ultimate", "ultimate_diesel", "ultimate_unleaded", "unleaded_95", "ad_blue"], "website": null, "watchlist_id": null, "formatted_address": "Solarstra\u00dfe 2\n4653\nEberstalzell", "channel_of_trade": null}, {"id": "AT-2144425674", "name": "Gratwein, Bahnhofstr. 27", "lat": 47.130132, "lng": 15.323842, "site_brand": "BP", "country_code": "AT", "address": "Bahnhofstra\u00dfe 27", "city": "Gratwein", "state": null, "postcode": "8112", "telephone": "+43 3124 52168", "facilities": ["toilet", "accepts_routex_cards", "accepts_toll_payments", "reminder_service", "open_saturday", "open_sunday"], "products": ["ad_blue_cannister", "ad_blue_pump", "diesel_on", "ultimate", "ultimate_diesel", "ultimate_unleaded", "unleaded_95", "ad_blue"], "website": null, "watchlist_id": null, "formatted_address": "Bahnhofstra\u00dfe 27\n8112\nGratwein", "channel_of_trade": null}, {"id": "AT-232628006", "name": "GRIES/BRENNER,WESTUFER", "lat": 47.0378548, "lng": 11.4732324, "site_brand": "BP", "country_code": "AT", "address": "Westufer", "city": "Gries am Brenner", "state": null, "postcode": "6156", "telephone": "+43 5274 87288", "facilities": ["open_24_hours", "wifi", "motorway_site", "shop", "wild_bean_cafe", "accepts_routex_cards", "open_saturday", "open_sunday"], "products": ["ad_blue_cannister", "ad_blue_pump", "diesel_on", "hvo", "ultimate", "ultimate_diesel", "ultimate_unleaded", "unleaded_95", "ad_blue"], "website": null, "watchlist_id": null, "formatted_address": "Westufer\n6156\nGries am Brenner", "channel_of_trade": null}, {"id": "AT-234664623", "name": "Zell am See, Brucker Bundesstr. 57", "lat": 47.2968228, "lng": 12.7960715, "site_brand": "BP", "country_code": "AT", "address": "Brucker Bundesstra\u00dfe 57", "city": "Zell am See", "state": null, "postcode": "5700", "telephone": "+43 6542 53858", "facilities": ["toilet", "shop", "accepts_routex_cards", "accepts_toll_payments", "reminder_service", "open_saturday", "open_sunday"], "products": ["ad_blue_cannister", "diesel_on", "ultimate", "ultimate_diesel", "ultimate_unleaded", "unleaded_95"], "website": null, "watchlist_id": null, "formatted_address": "Brucker Bundesstra\u00dfe 57\n5700\nZell am See", "channel_of_trade": null}, {"id": "AT-28489", "name": "Koessen, Huette 15", "lat": 47.6618416, "lng": 12.4131225, "site_brand": "BP", "country_code": "AT", "address": "H\u00fctte 15", "city": "K\u00f6ssen", "state": null, "postcode": "6345", "telephone": "+43 5375 6394", "facilities": ["tobacco", "high_speed_pump", "truck_suitable_site", "toilet", "accepts_routex_cards", "accepts_toll_payments", "reminder_service", "open_saturday", "open_sunday"], "products": ["ad_blue_cannister", "diesel_on", "ultimate", "ultimate_diesel", "ultimate_unleaded", "unleaded_95"], "website": null, "watchlist_id": null, "formatted_address": "H\u00fctte 15\n6345\nK\u00f6ssen", "channel_of_trade": null}, {"id": "AT-3021", "name": "St. Gallenkirch, Aussergant", "lat": 47.0202617, "lng": 9.9771738, "site_brand": "BP", "country_code": "AT", "address": "Au\u00dfergant", "city": "St. Gallenkirch", "state": null, "postcode": "6791", "telephone": "+43 50 8300 4500", "facilities": ["alcohol", "tobacco", "high_speed_pump", "truck_suitable_site", "toilet", "shop", "accepts_routex_cards", "accepts_toll_payments", "reminder_service", "open_saturday", "open_sunday"], "products": ["ad_blue_cannister", "ad_blue_pump", "diesel_on", "ultimate", "ultimate_diesel", "ultimate_unleaded", "unleaded_95", "ad_blue"], "website": null, "watchlist_id": null, "formatted_address": "Au\u00dfergant\n6791\nSt. Gallenkirch", "channel_of_trade": null}, {"id": "AT-30818273", "name": "Buch bei Jenbach, St. Margarethen 151b", "lat": 47.383316, "lng": 11.771831, "site_brand": "BP", "country_code": "AT", "address": "St. Margarethen 151B", "city": "Buch in Tirol", "state": null, "postcode": "6220", "telephone": "+43 1 522490900", "facilities": ["open_24_hours", "accepts_routex_cards", "reminder_service", "open_saturday", "open_sunday"], "products": ["diesel_on", "lpg", "ultimate", "ultimate_diesel", "ultimate_unleaded", "unleaded_95"], "website": null, "watchlist_id": "30818273", "formatted_address": "St. Margarethen 151B\n6220\nBuch in Tirol", "channel_of_trade": null}, {"id": "AT-317549996", "name": "Mauthausen, Dieselstr. 1", "lat": 48.241435, "lng": 14.544579, "site_brand": "BP", "country_code": "AT", "address": "Dieselstra\u00dfe 1", "city": "Mauthausen", "state": null, "postcode": "4310", "telephone": "+43 7238 3320", "facilities": ["toilet", "accepts_routex_cards", "accepts_toll_payments", "reminder_service", "open_saturday", "open_sunday"], "products": ["ad_blue_cannister", "diesel_on", "ultimate", "ultimate_diesel", "ultimate_unleaded", "unleaded_95"], "website": null, "watchlist_id": null, "formatted_address": "Dieselstra\u00dfe 1\n4310\nMauthausen", "channel_of_trade": null}, {"id": "AT-347", "name": "Afritz, Millstaetterstr. 85", "lat": 46.727661, "lng": 13.785455, "site_brand": "BP", "country_code": "AT", "address": "Millst\u00e4tterstra\u00dfe 85", "city": "Afritz am See", "state": null, "postcode": "9542", "telephone": "+43 4247 2747", "facilities": ["tobacco", "toilet", "shop", "accepts_routex_cards", "accepts_toll_payments", "reminder_service", "open_saturday", "open_sunday"], "products": ["ad_blue_cannister", "diesel_on", "red_diesel", "ultimate", "ultimate_diesel", "ultimate_unleaded", "unleaded_95"], "website": null, "watchlist_id": null, "formatted_address": "Millst\u00e4tterstra\u00dfe 85\n9542\nAfritz am See", "channel_of_trade": null}, {"id": "AT-349", "name": "Alland (A21)", "lat": 48.070115, "lng": 16.06662, "site_brand": "BP", "country_code": "AT", "address": "Au\u00dfenringautobahn A21", "city": "Alland", "state": null, "postcode": "2534", "telephone": "+43 2258 76180", "facilities": ["open_24_hours", "tobacco", "high_speed_pump", "truck_parking", "truck_suitable_site", "disabled_facilities", "toilet", "wifi", "aral_store", "motorway_site", "supermarket", "shop", "bakery_bistro", "ms_simply_food", "restaurant", "wild_bean_cafe", "accepts_routex_cards", "accepts_toll_payments", "reminder_service", "open_saturday", "open_sunday"], "products": ["ad_blue_cannister", "ad_blue_pump", "diesel_on", "hvo", "ultimate", "ultimate_diesel", "ultimate_unleaded", "unleaded_95", "ad_blue"], "website": null, "watchlist_id": null, "formatted_address": "Au\u00dfenringautobahn A21\n2534\nAlland", "channel_of_trade": null}, {"id": "AT-350", "name": "Altenmarkt im Pongau, Hauptstr. 21", "lat": 47.381305, "lng": 13.4170064, "site_brand": "BP", "country_code": "AT", "address": "Obere Marktstra\u00dfe 45", "city": "Altenmarkt im Pongau", "state": null, "postcode": "5541", "telephone": "+43 6452 5660", "facilities": ["tobacco", "car_wash", "toilet", "shop", "accepts_routex_cards", "accepts_toll_payments", "reminder_service", "open_saturday", "open_sunday"], "products": ["ad_blue_cannister", "diesel_on", "ultimate", "ultimate_diesel", "ultimate_unleaded", "unleaded_95"], "website": null, "watchlist_id": null, "formatted_address": "Obere Marktstra\u00dfe 45\n5541\nAltenmarkt im Pongau", "channel_of_trade": null}, {"id": "AT-354", "name": "Amstetten, Ybbsstr. 39", "lat": 48.1166141, "lng": 14.8716214, "site_brand": "BP", "country_code": "AT", "address": "Ybbsstra\u00dfe 39", "city": "Amstetten", "state": null, "postcode": "3300", "telephone": "+43 7472 68222", "facilities": ["tobacco", "car_wash", "toilet", "shop", "accepts_routex_cards", "accepts_toll_payments", "reminder_service", "open_saturday", "open_sunday"], "products": ["ad_blue_cannister", "diesel_on", "ultimate", "ultimate_diesel", "ultimate_unleaded", "unleaded_95"], "website": null, "watchlist_id": null, "formatted_address": "Ybbsstra\u00dfe 39\n3300\nAmstetten", "channel_of_trade": null}, {"id": "AT-355", "name": "Angath", "lat": 47.517998, "lng": 12.067181, "site_brand": "BP", "country_code": "AT", "address": "Wirtschaftsweg 4", "city": "Angath", "state": null, "postcode": "6321", "telephone": "+43 5332 74371", "facilities": ["open_24_hours", "tobacco", "high_speed_pump", "truck_parking", "truck_suitable_site", "disabled_facilities", "toilet", "wifi", "motorway_site", "shop", "bakery_bistro", "wild_bean_cafe", "accepts_routex_cards", "accepts_toll_payments", "reminder_service", "open_saturday", "open_sunday"], "products": ["ad_blue_cannister", "ad_blue_pump", "diesel_on", "ultimate", "ultimate_diesel", "ultimate_unleaded", "unleaded_95", "ad_blue"], "website": null, "watchlist_id": null, "formatted_address": "Wirtschaftsweg 4\n6321\nAngath", "channel_of_trade": null}, {"id": "AT-3567", "name": "Salzburg, Aiglhofstr. 20", "lat": 47.8034111, "lng": 13.0286574, "site_brand": "BP", "country_code": "AT", "address": "Aiglhofstra\u00dfe 20", "city": "Salzburg", "state": null, "postcode": "5020", "telephone": "+43 50 8300 3000", "facilities": ["tobacco", "high_speed_pump", "truck_suitable_site", "toilet", "bakery_bistro", "accepts_routex_cards", "accepts_toll_payments", "reminder_service", "open_saturday", "open_sunday"], "products": ["ad_blue_cannister", "ad_blue_pump", "diesel_on", "ultimate", "ultimate_diesel", "ultimate_unleaded", "unleaded_95", "ad_blue"], "website": null, "watchlist_id": null, "formatted_address": "Aiglhofstra\u00dfe 20\n5020\nSalzburg", "channel_of_trade": null}, {"id": "AT-357", "name": "Anger, Umfahrungsstr. 4", "lat": 47.2788429, "lng": 15.6936064, "site_brand": "BP", "country_code": "AT", "address": "Umfahrungstra\u00dfe 4", "city": "Anger", "state": null, "postcode": "8184", "telephone": "+43 664 6384247", "facilities": ["toilet", "shop", "accepts_routex_cards", "reminder_service", "open_saturday", "open_sunday"], "products": ["ad_blue_cannister", "diesel_on", "ultimate", "ultimate_diesel", "ultimate_unleaded", "unleaded_95"], "website": null, "watchlist_id": null, "formatted_address": "Umfahrungstra\u00dfe 4\n8184\nAnger", "channel_of_trade": null}, {"id": "AT-358", "name": "Ansfelden/Autobahn, Nord", "lat": 48.214988, "lng": 14.283562, "site_brand": "BP", "country_code": "AT", "address": "Westautobahn A1", "city": "Ansfelden", "state": null, "postcode": "4052", "telephone": "+43 7229 87115", "facilities": ["open_24_hours", "tobacco", "high_speed_pump", "truck_parking", "truck_suitable_site", "disabled_facilities", "toilet", "wifi", "motorway_site", "shop", "bakery_bistro", "restaurant", "wild_bean_cafe", "accepts_routex_cards", "accepts_toll_payments", "reminder_service", "open_saturday", "open_sunday"], "products": ["ad_blue_cannister", "ad_blue_pump", "diesel_on", "ultimate", "ultimate_diesel", "ultimate_unleaded", "unleaded_95", "ad_blue"], "website": null, "watchlist_id": null, "formatted_address": "Westautobahn A1\n4052\nAnsfelden", "channel_of_trade": null}, {"id": "AT-359", "name": "Ansfelden, Traunuferstr. 4/Frein", "lat": 48.2308289, "lng": 14.3050653, "site_brand": "BP", "country_code": "AT", "address": "Traunuferstra\u00dfe 4", "city": "Ansfelden-Freindorf", "state": null, "postcode": "4052", "telephone": "+43 664 9132069", "facilities": ["car_wash", "high_speed_pump", "truck_suitable_site", "toilet", "shop", "bakery_bistro", "accepts_routex_cards", "accepts_toll_payments", "reminder_service", "open_saturday", "open_sunday"], "products": ["ad_blue_cannister", "diesel_on", "red_diesel", "ultimate", "ultimate_diesel", "ultimate_unleaded", "unleaded_95"], "website": null, "watchlist_id": null, "formatted_address": "Traunuferstra\u00dfe 4\n4052\nAnsfelden-Freindorf", "channel_of_trade": null}, {"id": "AT-360", "name": "Arnwiesen", "lat": 47.105595, "lng": 15.768947, "site_brand": "BP", "country_code": "AT", "address": "A-2 S\u00fcdautobahn", "city": "Arnwiesen-Gleisdorf", "state": null, "postcode": "8200", "telephone": "+43 3112 6744", "facilities": ["open_24_hours", "tobacco", "high_speed_pump", "truck_parking", "truck_suitable_site", "disabled_facilities", "toilet", "wifi", "motorway_site", "shop", "bakery_bistro", "restaurant", "wild_bean_cafe", "accepts_routex_cards", "accepts_toll_payments", "reminder_service", "open_saturday", "open_sunday"], "products": ["ad_blue_cannister", "ad_blue_pump", "diesel_on", "ultimate", "ultimate_diesel", "ultimate_unleaded", "unleaded_95", "ad_blue"], "website": null, "watchlist_id": null, "formatted_address": "A-2 S\u00fcdautobahn\n8200\nArnwiesen-Gleisdorf", "channel_of_trade": null}, {"id": "AT-362", "name": "Aspang, Wechselstr. 15", "lat": 47.5673, "lng": 16.0978, "site_brand": "BP", "country_code": "AT", "address": "Wechselstra\u00dfe 15", "city": "Aspang", "state": null, "postcode": "2870", "telephone": "+43 2642 52577", "facilities": ["open_24_hours", "tobacco", "car_wash", "high_speed_pump", "truck_suitable_site", "toilet", "shop", "accepts_routex_cards", "accepts_toll_payments", "reminder_service", "open_saturday", "open_sunday"], "products": ["ad_blue_cannister", "diesel_on", "red_diesel", "ultimate", "ultimate_diesel", "ultimate_unleaded", "unleaded_95"], "website": null, "watchlist_id": null, "formatted_address": "Wechselstra\u00dfe 15\n2870\nAspang", "channel_of_trade": null}, {"id": "AT-3674", "name": "Jochberg, Nr. 440, Dorf 48", "lat": 47.3758, "lng": 12.419, "site_brand": "BP", "country_code": "AT", "address": "Dorf 48", "city": "Jochberg", "state": null, "postcode": "6373", "telephone": "+43 5355 5297", "facilities": ["tobacco", "high_speed_pump", "truck_suitable_site", "toilet", "accepts_routex_cards", "reminder_service", "open_saturday", "open_sunday"], "products": ["ad_blue_cannister", "diesel_on", "ultimate", "ultimate_diesel", "unleaded_95"], "website": null, "watchlist_id": null, "formatted_address": "Dorf 48\n6373\nJochberg", "channel_of_trade": null}, {"id": "AT-37", "name": "Peilstein, Hanriederstr. 43", "lat": 48.6205, "lng": 13.8857, "site_brand": "BP", "country_code": "AT", "address": "Hanriederstra\u00dfe 43", "city": "Peilstein im M\u00fchlviertel", "state": null, "postcode": "4153", "telephone": "+43 7287 752848", "facilities": ["high_speed_pump", "truck_suitable_site", "toilet", "accepts_routex_cards", "reminder_service", "open_saturday", "open_sunday"], "products": ["ad_blue_cannister", "ad_blue_pump", "diesel_on", "ultimate", "ultimate_diesel", "ultimate_unleaded", "unleaded_95", "ad_blue"], "website": null, "watchlist_id": null, "formatted_address": "Hanriederstra\u00dfe 43\n4153\nPeilstein im M\u00fchlviertel", "channel_of_trade": null}, {"id": "AT-370", "name": "Ulrichsberg, Dreisesselbergstr. 18", "lat": 48.6793, "lng": 13.9083, "site_brand": "BP", "country_code": "AT", "address": "Dreisesselbergstra\u00dfe 18", "city": "Ulrichsberg", "state": null, "postcode": "4161", "telephone": "+43 7288 8363", "facilities": ["tobacco", "high_speed_pump", "truck_suitable_site", "toilet", "accepts_routex_cards", "reminder_service", "open_saturday", "open_sunday"], "products": ["ad_blue_cannister", "ad_blue_pump", "diesel_on", "ultimate", "ultimate_diesel", "ultimate_unleaded", "unleaded_95", "ad_blue"], "website": null, "watchlist_id": null, "formatted_address": "Dreisesselbergstra\u00dfe 18\n4161\nUlrichsberg", "channel_of_trade": null}, {"id": "AT-373", "name": "Bischofshofen, Salzburgerstr. 70", "lat": 47.4229426, "lng": 13.2163699, "site_brand": "BP", "country_code": "AT", "address": "Salzburgerstra\u00dfe 70", "city": "Bischofshofen", "state": null, "postcode": "5500", "telephone": "+43 6462 2501", "facilities": ["tobacco", "car_wash", "high_speed_pump", "truck_suitable_site", "toilet", "shop", "accepts_routex_cards", "accepts_toll_payments", "reminder_service", "open_saturday"], "products": ["ad_blue_cannister", "ad_blue_pump", "diesel_on", "red_diesel", "ultimate", "ultimate_diesel", "ultimate_unleaded", "unleaded_95", "ad_blue"], "website": null, "watchlist_id": null, "formatted_address": "Salzburgerstra\u00dfe 70\n5500\nBischofshofen", "channel_of_trade": null}, {"id": "AT-376", "name": "Boeheimkirchen, Stockhofstr. 1", "lat": 48.1909328, "lng": 15.7660241, "site_brand": "BP", "country_code": "AT", "address": "Hainfelderstra\u00dfe", "city": "B\u00f6heimkirchen", "state": null, "postcode": "3071", "telephone": "+43 2743 3265", "facilities": ["tobacco", "car_wash", "high_speed_pump", "truck_suitable_site", "truck_wash", "toilet", "shop", "accepts_routex_cards", "accepts_toll_payments", "reminder_service", "open_saturday", "open_sunday"], "products": ["ad_blue_cannister", "diesel_on", "red_diesel", "ultimate", "ultimate_diesel", "ultimate_unleaded", "unleaded_95"], "website": null, "watchlist_id": null, "formatted_address": "Hainfelderstra\u00dfe\n3071\nB\u00f6heimkirchen", "channel_of_trade": null}, {"id": "AT-379", "name": "Bregenz, Bregenzerstr. 63", "lat": 47.5109, "lng": 9.75296, "site_brand": "BP", "country_code": "AT", "address": "Bregenzerstra\u00dfe 63", "city": "Bregenz/Lochau", "state": null, "postcode": "6900", "telephone": "+43 5574 43445", "facilities": ["open_24_hours", "car_wash", "high_speed_pump", "truck_suitable_site", "toilet", "shop", "wild_bean_cafe", "accepts_routex_cards", "accepts_toll_payments", "reminder_service", "open_saturday", "open_sunday"], "products": ["ad_blue_cannister", "diesel_on", "ultimate", "ultimate_diesel", "ultimate_unleaded", "unleaded_95"], "website": null, "watchlist_id": null, "formatted_address": "Bregenzerstra\u00dfe 63\n6900\nBregenz/Lochau", "channel_of_trade": null}, {"id": "AT-383", "name": "Brueckl, Klagenfurterstr. 10", "lat": 46.7462676, "lng": 14.5309163, "site_brand": "BP", "country_code": "AT", "address": "Klagenfurter Stra\u00dfe 10", "city": "Br\u00fcckl", "state": null, "postcode": "9371", "telephone": "+43 4214 2508", "facilities": ["tobacco", "toilet", "shop", "accepts_routex_cards", "accepts_toll_payments", "reminder_service", "open_saturday"], "products": ["ad_blue_cannister", "diesel_on", "ultimate", "ultimate_diesel", "ultimate_unleaded", "unleaded_95"], "website": null, "watchlist_id": null, "formatted_address": "Klagenfurter Stra\u00dfe 10\n9371\nBr\u00fcckl", "channel_of_trade": null}, {"id": "AT-392", "name": "Dornbirn, Lustenauerstr. 92", "lat": 47.412667, "lng": 9.71457, "site_brand": "BP", "country_code": "AT", "address": "Lustenauerstra\u00dfe 92", "city": "Dornbirn", "state": null, "postcode": "6850", "telephone": "+43 5572 394782", "facilities": ["tobacco", "car_wash", "toilet", "shop", "wild_bean_cafe", "accepts_routex_cards", "accepts_toll_payments", "reminder_service", "open_saturday", "open_sunday"], "products": ["ad_blue_cannister", "ad_blue_pump", "diesel_on", "ultimate", "ultimate_diesel", "ultimate_unleaded", "unleaded_95", "ad_blue"], "website": null, "watchlist_id": null, "formatted_address": "Lustenauerstra\u00dfe 92\n6850\nDornbirn", "channel_of_trade": null}, {"id": "AT-393", "name": "Drasenhofen, Drasenhofen Nr. 237", "lat": 48.777404, "lng": 16.640757, "site_brand": "BP", "country_code": "AT", "address": "Br\u00fcnnerstra\u00dfe/Staatsgr.", "city": "Drasenhofen", "state": null, "postcode": "2165", "telephone": "+43 2554 85523", "facilities": ["open_24_hours", "high_speed_pump", "truck_suitable_site", "toilet", "shop", "accepts_routex_cards", "accepts_toll_payments", "reminder_service", "open_saturday", "open_sunday"], "products": ["ad_blue_cannister", "diesel_on", "ultimate", "ultimate_diesel", "ultimate_unleaded", "unleaded_95"], "website": null, "watchlist_id": null, "formatted_address": "Br\u00fcnnerstra\u00dfe/Staatsgr.\n2165\nDrasenhofen", "channel_of_trade": null}, {"id": "AT-397370100", "name": "Putzleinsdorf, Glotzing 20", "lat": 48.504476, "lng": 13.877298, "site_brand": "BP", "country_code": "AT", "address": "Glotzing 20", "city": "Putzleinsdorf", "state": null, "postcode": "4134", "telephone": "+43 7288 8363", "facilities": ["open_24_hours", "accepts_routex_cards", "reminder_service", "open_saturday", "open_sunday"], "products": ["ad_blue_pump", "diesel_on", "ultimate", "ultimate_diesel", "ultimate_unleaded", "unleaded_95", "ad_blue"], "website": null, "watchlist_id": null, "formatted_address": "Glotzing 20\n4134\nPutzleinsdorf", "channel_of_trade": null}, {"id": "AT-404", "name": "Ferlach, Klagenfurterstr. 25", "lat": 46.528, "lng": 14.2916, "site_brand": "BP", "country_code": "AT", "address": "Klagenfurter Stra\u00dfe 23", "city": "Ferlach", "state": null, "postcode": "9170", "telephone": "+43 4227 30849", "facilities": ["tobacco", "car_wash", "high_speed_pump", "truck_suitable_site", "toilet", "accepts_routex_cards", "accepts_toll_payments", "reminder_service", "open_saturday", "open_sunday"], "products": ["ad_blue_cannister", "diesel_on", "red_diesel", "ultimate", "ultimate_diesel", "ultimate_unleaded", "unleaded_95"], "website": null, "watchlist_id": null, "formatted_address": "Klagenfurter Stra\u00dfe 23\n9170\nFerlach", "channel_of_trade": null}, {"id": "AT-405006304", "name": "O-LOCHEN AM SEE, KERSCHHAM 104", "lat": 48.027455, "lng": 13.14086, "site_brand": "BP", "country_code": "AT", "address": "Kerschham 104", "city": "Lochen am See", "state": null, "postcode": "5221", "telephone": "+43 7747 20338", "facilities": ["shop", "restaurant", "accepts_routex_cards", "accepts_toll_payments", "open_saturday", "open_sunday"], "products": ["ad_blue_cannister", "diesel_on", "ultimate", "ultimate_diesel", "ultimate_unleaded", "unleaded_95"], "website": null, "watchlist_id": null, "formatted_address": "Kerschham 104\n5221\nLochen am See", "channel_of_trade": null}, {"id": "AT-410", "name": "Frohsdorf, Wr.Neustaedterstr. 120", "lat": 47.7550212, "lng": 16.2528991, "site_brand": "BP", "country_code": "AT", "address": "Wiener Neust\u00e4dter Stra\u00dfe 120", "city": "Frohsdorf", "state": null, "postcode": "2821", "telephone": "800223350", "facilities": ["open_24_hours", "toilet", "accepts_routex_cards", "reminder_service", "open_saturday", "open_sunday"], "products": ["diesel_on", "unleaded_95"], "website": null, "watchlist_id": null, "formatted_address": "Wiener Neust\u00e4dter Stra\u00dfe 120\n2821\nFrohsdorf", "channel_of_trade": null}, {"id": "AT-416", "name": "Gaweinstal, Wienerstr. 35", "lat": 48.472861, "lng": 16.588735, "site_brand": "BP", "country_code": "AT", "address": "Wienerstra\u00dfe 35", "city": "Gaweinstal", "state": null, "postcode": "2191", "telephone": "+43 2574 2183", "facilities": ["tobacco", "car_wash", "high_speed_pump", "truck_suitable_site", "toilet", "shop", "wild_bean_cafe", "accepts_routex_cards", "accepts_toll_payments", "reminder_service", "open_saturday", "open_sunday"], "products": ["ad_blue_cannister", "diesel_on", "ultimate", "ultimate_diesel", "ultimate_unleaded", "unleaded_95"], "website": null, "watchlist_id": null, "formatted_address": "Wienerstra\u00dfe 35\n2191\nGaweinstal", "channel_of_trade": null}, {"id": "AT-417", "name": "Geiersberg, Pramerdorf 13", "lat": 48.1987, "lng": 13.6049, "site_brand": "BP", "country_code": "AT", "address": "Pramerdorf 13", "city": "Geiersberg", "state": null, "postcode": "4922", "telephone": "+43 7732 2288", "facilities": ["tobacco", "high_speed_pump", "truck_suitable_site", "toilet", "shop", "accepts_routex_cards", "accepts_toll_payments", "reminder_service", "open_saturday", "open_sunday"], "products": ["ad_blue_cannister", "ad_blue_pump", "diesel_on", "ultimate", "ultimate_diesel", "ultimate_unleaded", "unleaded_95", "ad_blue"], "website": null, "watchlist_id": null, "formatted_address": "Pramerdorf 13\n4922\nGeiersberg", "channel_of_trade": null}, {"id": "AT-418", "name": "Gerasdorf, Leopoldauerstr. 7", "lat": 48.2942543, "lng": 16.4675981, "site_brand": "BP", "country_code": "AT", "address": "Leopoldauerstra\u00dfe 1", "city": "Gerasdorf", "state": null, "postcode": "2201", "telephone": "+43 2246 2334", "facilities": ["tobacco", "car_wash", "high_speed_pump", "truck_suitable_site", "toilet", "shop", "wild_bean_cafe", "accepts_routex_cards", "accepts_toll_payments", "reminder_service", "open_saturday", "open_sunday"], "products": ["ad_blue_cannister", "diesel_on", "ultimate", "ultimate_diesel", "ultimate_unleaded", "unleaded_95"], "website": null, "watchlist_id": null, "formatted_address": "Leopoldauerstra\u00dfe 1\n2201\nGerasdorf", "channel_of_trade": null}, {"id": "AT-4225", "name": "Salzburg, Nonntaler Hauptstr. 65", "lat": 47.7845, "lng": 13.0525, "site_brand": "BP", "country_code": "AT", "address": "Nonntaler Hauptstra\u00dfe 65", "city": "Salzburg", "state": null, "postcode": "5020", "telephone": "+43 662 825644", "facilities": ["tobacco", "car_wash", "high_speed_pump", "truck_suitable_site", "toilet", "shop", "bakery_bistro", "wild_bean_cafe", "accepts_routex_cards", "accepts_toll_payments", "reminder_service", "open_saturday", "open_sunday"], "products": ["ad_blue_cannister", "diesel_on", "ultimate", "ultimate_diesel", "ultimate_unleaded", "unleaded_95"], "website": null, "watchlist_id": null, "formatted_address": "Nonntaler Hauptstra\u00dfe 65\n5020\nSalzburg", "channel_of_trade": null}, {"id": "AT-428916883", "name": "Lannach, Radlpassstr. 26", "lat": 46.948625, "lng": 15.337613, "site_brand": "BP", "country_code": "AT", "address": "Radlpa\u00dfstra\u00dfe 26", "city": "Lannach", "state": null, "postcode": "8502", "telephone": "+43 3136 83140", "facilities": ["toilet", "shop", "accepts_routex_cards", "accepts_toll_payments", "reminder_service", "open_saturday", "open_sunday"], "products": ["ad_blue_cannister", "diesel_on", "natural_gas", "ultimate", "ultimate_diesel", "ultimate_unleaded", "unleaded_95"], "website": null, "watchlist_id": null, "formatted_address": "Radlpa\u00dfstra\u00dfe 26\n8502\nLannach", "channel_of_trade": null}, {"id": "AT-429", "name": "Gratkorn, Harterstr. 8", "lat": 47.1221, "lng": 15.3604, "site_brand": "BP", "country_code": "AT", "address": "Harter Stra\u00dfe 8", "city": "Gratkorn", "state": null, "postcode": "8101", "telephone": "+43 3124 290291", "facilities": ["tobacco", "high_speed_pump", "truck_suitable_site", "toilet", "shop", "wild_bean_cafe", "accepts_routex_cards", "accepts_toll_payments", "reminder_service", "open_saturday", "open_sunday"], "products": ["ad_blue_cannister", "ad_blue_pump", "diesel_on", "ultimate", "ultimate_diesel", "ultimate_unleaded", "unleaded_95", "ad_blue"], "website": null, "watchlist_id": null, "formatted_address": "Harter Stra\u00dfe 8\n8101\nGratkorn", "channel_of_trade": null}, {"id": "AT-433", "name": "Graz, Froehlichgasse 45", "lat": 47.0559, "lng": 15.4483, "site_brand": "BP", "country_code": "AT", "address": "Fr\u00f6hlichgasse 45", "city": "Graz", "state": null, "postcode": "8010", "telephone": "+43 316 472595", "facilities": ["open_24_hours", "tobacco", "high_speed_pump", "truck_suitable_site", "toilet", "shop", "bakery_bistro", "wild_bean_cafe", "accepts_routex_cards", "accepts_toll_payments", "reminder_service", "open_saturday", "open_sunday"], "products": ["ad_blue_cannister", "diesel_on", "ultimate", "ultimate_diesel", "ultimate_unleaded", "unleaded_95"], "website": null, "watchlist_id": null, "formatted_address": "Fr\u00f6hlichgasse 45\n8010\nGraz", "channel_of_trade": null}, {"id": "AT-441", "name": "Gries am Brenner, Ost", "lat": 47.0392729, "lng": 11.474931, "site_brand": "BP", "country_code": "AT", "address": "Ostufer", "city": "Gries am Brenner", "state": null, "postcode": "6156", "telephone": "+43 5274 87310", "facilities": ["open_24_hours", "tobacco", "high_speed_pump", "truck_parking", "truck_suitable_site", "toilet", "wifi", "motorway_site", "shop", "bakery_bistro", "wild_bean_cafe", "accepts_routex_cards", "accepts_toll_payments", "reminder_service", "open_saturday", "open_sunday"], "products": ["ad_blue_cannister", "ad_blue_pump", "diesel_on", "ultimate", "ultimate_diesel", "ultimate_unleaded", "unleaded_95", "ad_blue"], "website": null, "watchlist_id": null, "formatted_address": "Ostufer\n6156\nGries am Brenner", "channel_of_trade": null}, {"id": "AT-453", "name": "Guntramsdorf, A2", "lat": 48.0341287, "lng": 16.3379655, "site_brand": "BP", "country_code": "AT", "address": "Autobahn A2", "city": "Guntramsdorf West", "state": null, "postcode": "2353", "telephone": "+43 2236 52003", "facilities": ["open_24_hours", "tobacco", "high_speed_pump", "truck_parking", "truck_suitable_site", "disabled_facilities", "toilet", "wifi", "motorway_site", "shop", "bakery_bistro", "restaurant", "wild_bean_cafe", "accepts_routex_cards", "accepts_toll_payments", "reminder_service", "open_saturday", "open_sunday"], "products": ["ad_blue_cannister", "ad_blue_pump", "diesel_on", "ultimate", "ultimate_diesel", "ultimate_unleaded", "unleaded_95", "ad_blue"], "website": null, "watchlist_id": null, "formatted_address": "Autobahn A2\n2353\nGuntramsdorf West", "channel_of_trade": null}, {"id": "AT-456", "name": "Haag/Autobahn, Westautobahn A1", "lat": 48.1394515, "lng": 14.5792436, "site_brand": "BP", "country_code": "AT", "address": "Westautobahn A1", "city": "Haag", "state": null, "postcode": "3350", "telephone": "+43 7434 42153", "facilities": ["open_24_hours", "tobacco", "high_speed_pump", "truck_parking", "truck_suitable_site", "toilet", "wifi", "motorway_site", "shop", "bakery_bistro", "restaurant", "wild_bean_cafe", "accepts_routex_cards", "accepts_toll_payments", "reminder_service", "open_saturday", "open_sunday"], "products": ["ad_blue_cannister", "ad_blue_pump", "diesel_on", "ultimate", "ultimate_diesel", "ultimate_unleaded", "unleaded_95", "ad_blue"], "website": null, "watchlist_id": null, "formatted_address": "Westautobahn A1\n3350\nHaag", "channel_of_trade": null}, {"id": "AT-459", "name": "Hall in Tirol, Pfannhausstr. 14", "lat": 47.2793, "lng": 11.5014, "site_brand": "BP", "country_code": "AT", "address": "Pfannhausstra\u00dfe 14", "city": "Hall In Tirol", "state": null, "postcode": "6060", "telephone": "+43 5223 45005", "facilities": ["tobacco", "car_wash", "high_speed_pump", "truck_suitable_site", "toilet", "accepts_routex_cards", "accepts_toll_payments", "reminder_service", "open_saturday", "open_sunday"], "products": ["ad_blue_cannister", "diesel_on", "ultimate", "ultimate_diesel", "ultimate_unleaded", "unleaded_95"], "website": null, "watchlist_id": null, "formatted_address": "Pfannhausstra\u00dfe 14\n6060\nHall In Tirol", "channel_of_trade": null}, {"id": "AT-462", "name": "Heidenreichstein, Klein Pertholz 58", "lat": 48.850263, "lng": 15.096532, "site_brand": "BP", "country_code": "AT", "address": "Klein Pertholz 58", "city": "Heidenreichstein", "state": null, "postcode": "3860", "telephone": "+43 2862 52127", "facilities": ["tobacco", "car_wash", "high_speed_pump", "truck_suitable_site", "toilet", "wifi", "shop", "accepts_routex_cards", "accepts_toll_payments", "reminder_service", "open_saturday", "open_sunday"], "products": ["ad_blue_cannister", "diesel_on", "red_diesel", "ultimate", "ultimate_diesel", "ultimate_unleaded", "unleaded_95"], "website": null, "watchlist_id": null, "formatted_address": "Klein Pertholz 58\n3860\nHeidenreichstein", "channel_of_trade": null}, {"id": "AT-463", "name": "Heiligenkreuz am Waasen, Liebensdorf 36", "lat": 46.9822, "lng": 15.5648, "site_brand": "BP", "country_code": "AT", "address": "Liebensdorf 36", "city": "Heiligenkreuz am Waasen", "state": null, "postcode": "8081", "telephone": "+43 3134 2313", "facilities": ["tobacco", "high_speed_pump", "truck_suitable_site", "toilet", "shop", "accepts_routex_cards", "accepts_toll_payments", "reminder_service", "open_saturday"], "products": ["ad_blue_cannister", "diesel_on", "red_diesel", "ultimate", "ultimate_diesel", "ultimate_unleaded", "unleaded_95"], "website": null, "watchlist_id": null, "formatted_address": "Liebensdorf 36\n8081\nHeiligenkreuz am Waasen", "channel_of_trade": null}, {"id": "AT-465", "name": "Himmelberg, Schulstr. 8", "lat": 46.7514455, "lng": 14.0353928, "site_brand": "BP", "country_code": "AT", "address": "Schulstra\u00dfe 7", "city": "Himmelberg", "state": null, "postcode": "9562", "telephone": "+43 4276 2254", "facilities": ["tobacco", "car_wash", "high_speed_pump", "truck_suitable_site", "toilet", "accepts_routex_cards", "accepts_toll_payments", "reminder_service", "open_saturday", "open_sunday"], "products": ["ad_blue_cannister", "diesel_on", "red_diesel", "ultimate", "ultimate_diesel", "ultimate_unleaded", "unleaded_95"], "website": null, "watchlist_id": null, "formatted_address": "Schulstra\u00dfe 7\n9562\nHimmelberg", "channel_of_trade": null}, {"id": "AT-474", "name": "Innsbruck/Ampass", "lat": 47.263278, "lng": 11.453458, "site_brand": "BP", "country_code": "AT", "address": "A12", "city": "Ampass", "state": null, "postcode": "6070", "telephone": "+43 512 346411", "facilities": ["open_24_hours", "tobacco", "high_speed_pump", "truck_parking", "truck_suitable_site", "disabled_facilities", "toilet", "wifi", "motorway_site", "shop", "bakery_bistro", "restaurant", "wild_bean_cafe", "accepts_routex_cards", "accepts_toll_payments", "reminder_service", "open_saturday", "open_sunday"], "products": ["ad_blue_cannister", "ad_blue_pump", "diesel_on", "ultimate", "ultimate_diesel", "ultimate_unleaded", "unleaded_95", "ad_blue"], "website": null, "watchlist_id": null, "formatted_address": "A12\n6070\nAmpass", "channel_of_trade": null}, {"id": "AT-478", "name": "Innsbruck, Kranebitterallee 30", "lat": 47.2645, "lng": 11.3658, "site_brand": "BP", "country_code": "AT", "address": "Kranebitter Allee 30", "city": "Innsbruck", "state": null, "postcode": "6020", "telephone": "+43 512 274514", "facilities": ["open_24_hours", "tobacco", "car_wash", "high_speed_pump", "truck_suitable_site", "toilet", "shop", "bakery_bistro", "wild_bean_cafe", "accepts_routex_cards", "accepts_toll_payments", "reminder_service", "open_saturday", "open_sunday"], "products": ["ad_blue_cannister", "diesel_on", "ultimate", "ultimate_diesel", "ultimate_unleaded", "unleaded_95"], "website": null, "watchlist_id": null, "formatted_address": "Kranebitter Allee 30\n6020\nInnsbruck", "channel_of_trade": null}, {"id": "AT-48282150", "name": "T-SOELL, WALD 1", "lat": 47.4994, "lng": 12.1883, "site_brand": "BP", "country_code": "AT", "address": "Wald 1", "city": "S\u00f6ll", "state": null, "postcode": "6306", "telephone": "+43 50 8300", "facilities": ["accepts_routex_cards", "accepts_toll_payments", "reminder_service", "open_saturday", "open_sunday"], "products": ["ad_blue_cannister", "ad_blue_pump", "diesel_on", "ultimate", "ultimate_diesel", "ultimate_unleaded", "unleaded_95", "ad_blue"], "website": null, "watchlist_id": "48282150", "formatted_address": "Wald 1\n6306\nS\u00f6ll", "channel_of_trade": null}, {"id": "AT-485588722", "name": "N-KIRCHBERG/WAG,KREMSERSTR 2-4", "lat": 48.4307556, "lng": 15.9026631, "site_brand": "BP", "country_code": "AT", "address": "Kremser Stra\u00dfe 2-4", "city": "Kirchberg am Wagram", "state": null, "postcode": "3470", "telephone": "+43 2279 2287", "facilities": ["accepts_routex_cards", "open_saturday", "open_sunday"], "products": ["diesel_on", "ultimate", "ultimate_diesel", "ultimate_unleaded", "unleaded_95"], "website": null, "watchlist_id": null, "formatted_address": "Kremser Stra\u00dfe 2-4\n3470\nKirchberg am Wagram", "channel_of_trade": null}, {"id": "AT-486", "name": "Kemmelbach, Autobahn A1, Rasthausstr. 10", "lat": 48.1551024, "lng": 15.1001745, "site_brand": "BP", "country_code": "AT", "address": "Autobahn A1, Rasthausstra\u00dfe 10", "city": "Kemmelbach", "state": null, "postcode": "3373", "telephone": "+43 7412 52748", "facilities": ["open_24_hours", "tobacco", "high_speed_pump", "truck_parking", "truck_suitable_site", "toilet", "wifi", "motorway_site", "shop", "bakery_bistro", "restaurant", "wild_bean_cafe", "accepts_routex_cards", "accepts_toll_payments", "reminder_service", "open_saturday", "open_sunday"], "products": ["ad_blue_cannister", "ad_blue_pump", "diesel_on", "ultimate", "ultimate_diesel", "ultimate_unleaded", "unleaded_95", "ad_blue"], "website": null, "watchlist_id": null, "formatted_address": "Autobahn A1, Rasthausstra\u00dfe 10\n3373\nKemmelbach", "channel_of_trade": null}, {"id": "AT-489", "name": "Kitzbuehel, St. Johannerstr. 30", "lat": 47.465024, "lng": 12.386474, "site_brand": "BP", "country_code": "AT", "address": "St Johannerstra\u00dfe 30", "city": "Kitzb\u00fchel", "state": null, "postcode": "6370", "telephone": "+43 5356 64377", "facilities": ["tobacco", "car_wash", "high_speed_pump", "truck_suitable_site", "toilet", "accepts_routex_cards", "accepts_toll_payments", "reminder_service", "open_saturday", "open_sunday"], "products": ["ad_blue_cannister", "diesel_on", "ultimate", "ultimate_diesel", "ultimate_unleaded", "unleaded_95"], "website": null, "watchlist_id": null, "formatted_address": "St Johannerstra\u00dfe 30\n6370\nKitzb\u00fchel", "channel_of_trade": null}, {"id": "AT-504421735", "name": "Oberndorf bei Salzburg, Salzburger Str. 4", "lat": 47.935288, "lng": 12.946558, "site_brand": "BP", "country_code": "AT", "address": "Salzburger Stra\u00dfe 4", "city": "Oberndorf bei Salzburg", "state": null, "postcode": "5110", "telephone": "+43 6272 73182", "facilities": ["toilet", "shop", "restaurant", "accepts_routex_cards", "accepts_toll_payments", "reminder_service", "open_saturday", "open_sunday"], "products": ["ad_blue_cannister", "ad_blue_pump", "diesel_on", "natural_gas", "ultimate", "ultimate_diesel", "ultimate_unleaded", "unleaded_95", "ad_blue"], "website": null, "watchlist_id": null, "formatted_address": "Salzburger Stra\u00dfe 4\n5110\nOberndorf bei Salzburg", "channel_of_trade": null}, {"id": "AT-509", "name": "Kufstein, Schubertstr. 25", "lat": 47.5853, "lng": 12.1617, "site_brand": "BP", "country_code": "AT", "address": "Schubertstra\u00dfe 25", "city": "Kufstein", "state": null, "postcode": "6330", "telephone": "+43 5372 62977", "facilities": ["tobacco", "car_wash", "high_speed_pump", "truck_suitable_site", "toilet", "bakery_bistro", "accepts_routex_cards", "accepts_toll_payments", "reminder_service", "open_saturday", "open_sunday"], "products": ["ad_blue_cannister", "diesel_on", "ultimate", "ultimate_diesel", "ultimate_unleaded", "unleaded_95"], "website": null, "watchlist_id": null, "formatted_address": "Schubertstra\u00dfe 25\n6330\nKufstein", "channel_of_trade": null}, {"id": "AT-515994268", "name": "Schrick, Antensee 3", "lat": 48.519049, "lng": 16.617422, "site_brand": "BP", "country_code": "AT", "address": "Antensee 3", "city": "Schrick", "state": null, "postcode": "2191", "telephone": "+43 2574 29364", "facilities": ["open_24_hours", "shop", "restaurant", "accepts_routex_cards", "accepts_toll_payments", "reminder_service", "open_saturday", "open_sunday"], "products": ["ad_blue_cannister", "ad_blue_pump", "diesel_on", "hvo", "lpg", "ultimate", "ultimate_diesel", "ultimate_unleaded", "unleaded_95", "ad_blue"], "website": null, "watchlist_id": null, "formatted_address": "Antensee 3\n2191\nSchrick", "channel_of_trade": null}, {"id": "AT-523108728", "name": "N-GRESTEN, WAIDHOFNER STR. 1", "lat": 47.986709, "lng": 15.023556, "site_brand": "BP", "country_code": "AT", "address": "Waidhofner Stra\u00dfe 1", "city": "Gresten", "state": null, "postcode": "3264", "telephone": "+43 7487 4044", "facilities": ["open_24_hours", "accepts_routex_cards", "accepts_toll_payments", "reminder_service", "open_saturday", "open_sunday"], "products": ["diesel_on", "ultimate", "ultimate_diesel", "ultimate_unleaded", "unleaded_95"], "website": null, "watchlist_id": null, "formatted_address": "Waidhofner Stra\u00dfe 1\n3264\nGresten", "channel_of_trade": null}, {"id": "AT-525656333", "name": "Kundl, Schieferrollstrasse 17", "lat": 47.4671099, "lng": 11.9900426, "site_brand": "BP", "country_code": "AT", "address": "Schieferrollstra\u00dfe 17", "city": "Kundl", "state": null, "postcode": "6250", "telephone": "+43 5338 861136", "facilities": ["alcohol", "tobacco", "high_speed_pump", "truck_suitable_site", "toilet", "accepts_routex_cards", "accepts_toll_payments", "reminder_service", "open_saturday", "open_sunday"], "products": ["ad_blue_cannister", "diesel_on", "ultimate", "ultimate_diesel", "ultimate_unleaded", "unleaded_95"], "website": null, "watchlist_id": null, "formatted_address": "Schieferrollstra\u00dfe 17\n6250\nKundl", "channel_of_trade": null}, {"id": "AT-526", "name": "Lindach/Autobahn, Westautobahn A1", "lat": 48.0040507, "lng": 13.8513135, "site_brand": "BP", "country_code": "AT", "address": "Westautobahn A1", "city": "Lindach", "state": null, "postcode": "4663", "telephone": "+43 7613 8460", "facilities": ["open_24_hours", "tobacco", "high_speed_pump", "truck_parking", "truck_suitable_site", "disabled_facilities", "toilet", "wifi", "motorway_site", "shop", "bakery_bistro", "restaurant", "wild_bean_cafe", "accepts_routex_cards", "accepts_toll_payments", "reminder_service", "open_saturday", "open_sunday"], "products": ["ad_blue_cannister", "ad_blue_pump", "diesel_on", "ultimate", "ultimate_diesel", "ultimate_unleaded", "unleaded_95", "ad_blue"], "website": null, "watchlist_id": null, "formatted_address": "Westautobahn A1\n4663\nLindach", "channel_of_trade": null}, {"id": "AT-52828377", "name": "Linz, Leonfeldner Str. 268", "lat": 48.3425901, "lng": 14.2937563, "site_brand": "BP", "country_code": "AT", "address": "Leonfeldner Stra\u00dfe 268", "city": "Linz", "state": null, "postcode": "4040", "telephone": "+43 732 250346", "facilities": ["accepts_routex_cards", "accepts_toll_payments", "reminder_service", "open_saturday", "open_sunday"], "products": ["ad_blue_cannister", "ad_blue_pump", "diesel_on", "ultimate", "ultimate_diesel", "ultimate_unleaded", "unleaded_95", "ad_blue"], "website": null, "watchlist_id": "52828377", "formatted_address": "Leonfeldner Stra\u00dfe 268\n4040\nLinz", "channel_of_trade": null}, {"id": "AT-537428986", "name": "Braunau, Neue Innbrueckenstrasse 2", "lat": 48.248524, "lng": 13.015532, "site_brand": "BP", "country_code": "AT", "address": "Neue Innbr\u00fcckenstra\u00dfe 2", "city": "Braunau am Inn", "state": null, "postcode": "5280", "telephone": "+43 50 8300 7000", "facilities": ["tobacco", "accepts_routex_cards", "accepts_toll_payments", "reminder_service", "open_saturday", "open_sunday"], "products": ["ad_blue_cannister", "ad_blue_pump", "diesel_on", "ultimate", "ultimate_diesel", "ultimate_unleaded", "unleaded_95", "ad_blue"], "website": null, "watchlist_id": null, "formatted_address": "Neue Innbr\u00fcckenstra\u00dfe 2\n5280\nBraunau am Inn", "channel_of_trade": null}, {"id": "AT-538", "name": "Graz, Muenzgrabenstr. 121", "lat": 47.0568059, "lng": 15.4536062, "site_brand": "BP", "country_code": "AT", "address": "M\u00fcnzgrabenstra\u00dfe 121", "city": "Graz", "state": null, "postcode": "8010", "telephone": "+43 316 465444", "facilities": ["tobacco", "high_speed_pump", "truck_suitable_site", "toilet", "shop", "bakery_bistro", "wild_bean_cafe", "accepts_routex_cards", "accepts_toll_payments", "reminder_service", "open_saturday", "open_sunday"], "products": ["ad_blue_cannister", "diesel_on", "ultimate", "ultimate_diesel", "ultimate_unleaded", "unleaded_95"], "website": null, "watchlist_id": null, "formatted_address": "M\u00fcnzgrabenstra\u00dfe 121\n8010\nGraz", "channel_of_trade": null}, {"id": "AT-541", "name": "Linz-Urfahr, Wildbergstr. 16", "lat": 48.3147745, "lng": 14.2859886, "site_brand": "BP", "country_code": "AT", "address": "Wildbergstra\u00dfe 16", "city": "Linz-Urfahr", "state": null, "postcode": "4040", "telephone": "+43 732 732586", "facilities": ["open_24_hours", "tobacco", "car_wash", "high_speed_pump", "truck_suitable_site", "toilet", "shop", "bakery_bistro", "wild_bean_cafe", "accepts_routex_cards", "accepts_toll_payments", "reminder_service", "open_saturday", "open_sunday"], "products": ["ad_blue_cannister", "diesel_on", "ultimate", "ultimate_diesel", "ultimate_unleaded", "unleaded_95"], "website": null, "watchlist_id": null, "formatted_address": "Wildbergstra\u00dfe 16\n4040\nLinz-Urfahr", "channel_of_trade": null}, {"id": "AT-553", "name": "Merkenstetten, Stock 11", "lat": 48.039127, "lng": 15.14372, "site_brand": "BP", "country_code": "AT", "address": "Stock 11", "city": "Merkenstetten", "state": null, "postcode": "3251", "telephone": "+43 7489 2481", "facilities": ["tobacco", "car_wash", "high_speed_pump", "truck_suitable_site", "toilet", "shop", "accepts_routex_cards", "accepts_toll_payments", "reminder_service", "open_saturday", "open_sunday"], "products": ["ad_blue_cannister", "ad_blue_pump", "diesel_on", "ultimate", "ultimate_diesel", "ultimate_unleaded", "unleaded_95", "ad_blue"], "website": null, "watchlist_id": null, "formatted_address": "Stock 11\n3251\nMerkenstetten", "channel_of_trade": null}, {"id": "AT-555", "name": "Michaelnbach, Stauffstr. 6", "lat": 48.2891, "lng": 13.8334, "site_brand": "BP", "country_code": "AT", "address": "Stauffstra\u00dfe 6", "city": "Michaelnbach", "state": null, "postcode": "4712", "telephone": "+43 7277 2520", "facilities": ["toilet", "shop", "accepts_routex_cards", "reminder_service", "open_saturday", "open_sunday"], "products": ["ad_blue_pump", "diesel_on", "ultimate", "ultimate_diesel", "ultimate_unleaded", "unleaded_95", "ad_blue"], "website": null, "watchlist_id": null, "formatted_address": "Stauffstra\u00dfe 6\n4712\nMichaelnbach", "channel_of_trade": null}, {"id": "AT-556180922", "name": "Wals, Bundesstrasse 49", "lat": 47.7857414, "lng": 12.97552, "site_brand": "BP", "country_code": "AT", "address": "Bundesstra\u00dfe 49", "city": "Wals", "state": null, "postcode": "5071", "telephone": "+43 50 8300 1800", "facilities": ["alcohol", "tobacco", "high_speed_pump", "truck_suitable_site", "toilet", "bakery_bistro", "accepts_routex_cards", "accepts_toll_payments", "reminder_service", "open_saturday", "open_sunday"], "products": ["ad_blue_cannister", "ad_blue_pump", "diesel_on", "ultimate", "ultimate_diesel", "ultimate_unleaded", "unleaded_95", "ad_blue"], "website": null, "watchlist_id": null, "formatted_address": "Bundesstra\u00dfe 49\n5071\nWals", "channel_of_trade": null}, {"id": "AT-562", "name": "Nauders/Reschenpass, Bundesstr. 279", "lat": 46.8512474, "lng": 10.5042976, "site_brand": "BP", "country_code": "AT", "address": "Bundesstra\u00dfe 279", "city": "Nauders/Reschenpass", "state": null, "postcode": "6543", "telephone": "+43 5473 87268", "facilities": ["tobacco", "high_speed_pump", "truck_suitable_site", "toilet", "shop", "accepts_routex_cards", "accepts_toll_payments", "reminder_service", "open_saturday", "open_sunday"], "products": ["ad_blue_cannister", "diesel_on", "ultimate", "ultimate_diesel", "ultimate_unleaded", "unleaded_95"], "website": null, "watchlist_id": null, "formatted_address": "Bundesstra\u00dfe 279\n6543\nNauders/Reschenpass", "channel_of_trade": null}, {"id": "AT-572", "name": "Neusiedl/See, Wienerstr. 69", "lat": 47.9580858, "lng": 16.8352404, "site_brand": "BP", "country_code": "AT", "address": "Wienerstra\u00dfe 69", "city": "Neusiedl am See", "state": null, "postcode": "7100", "telephone": "+43 2167 314412", "facilities": ["open_24_hours", "tobacco", "car_wash", "high_speed_pump", "truck_suitable_site", "toilet", "shop", "accepts_routex_cards", "accepts_toll_payments", "reminder_service", "open_saturday", "open_sunday"], "products": ["ad_blue_cannister", "diesel_on", "ultimate", "ultimate_diesel", "ultimate_unleaded", "unleaded_95"], "website": null, "watchlist_id": null, "formatted_address": "Wienerstra\u00dfe 69\n7100\nNeusiedl am See", "channel_of_trade": null}, {"id": "AT-58467099", "name": "Innsbruck, Hallerstr. 164", "lat": 47.2754196, "lng": 11.4340339, "site_brand": "BP", "country_code": "AT", "address": "Haller Stra\u00dfe 164", "city": "Innsbruck", "state": null, "postcode": "6020", "telephone": "+43 512 260492", "facilities": ["tobacco", "high_speed_pump", "truck_suitable_site", "accepts_routex_cards", "accepts_toll_payments", "reminder_service", "open_saturday", "open_sunday"], "products": ["ad_blue_cannister", "ad_blue_pump", "diesel_on", "ultimate", "ultimate_diesel", "ultimate_unleaded", "unleaded_95", "ad_blue"], "website": null, "watchlist_id": "58467099", "formatted_address": "Haller Stra\u00dfe 164\n6020\nInnsbruck", "channel_of_trade": null}, {"id": "AT-590", "name": "Pregarten, Tragweinerstr. 31", "lat": 48.3534, "lng": 14.5359, "site_brand": "BP", "country_code": "AT", "address": "Tragweinerstra\u00dfe 31", "city": "Pregarten", "state": null, "postcode": "4230", "telephone": "+43 7236 2230", "facilities": ["open_24_hours", "tobacco", "toilet", "shop", "accepts_routex_cards", "accepts_toll_payments", "reminder_service", "open_saturday", "open_sunday"], "products": ["ad_blue_cannister", "diesel_on", "red_diesel", "ultimate", "ultimate_diesel", "ultimate_unleaded", "unleaded_95"], "website": null, "watchlist_id": null, "formatted_address": "Tragweinerstra\u00dfe 31\n4230\nPregarten", "channel_of_trade": null}, {"id": "AT-593", "name": "Radstadt, Tauernstr. 27", "lat": 47.3791, "lng": 13.4738, "site_brand": "BP", "country_code": "AT", "address": "Tauernstra\u00dfe 27", "city": "Radstadt", "state": null, "postcode": "5550", "telephone": "+43 6452 30921", "facilities": ["tobacco", "car_wash", "toilet", "shop", "accepts_routex_cards", "accepts_toll_payments", "reminder_service", "open_saturday", "open_sunday"], "products": ["ad_blue_cannister", "diesel_on", "ultimate", "ultimate_diesel", "ultimate_unleaded", "unleaded_95"], "website": null, "watchlist_id": null, "formatted_address": "Tauernstra\u00dfe 27\n5550\nRadstadt", "channel_of_trade": null}, {"id": "AT-597", "name": "Reichenau an der Rax, Hauptstr. 92", "lat": 47.6979763, "lng": 15.836456, "site_brand": "BP", "country_code": "AT", "address": "Hauptstra\u00dfe 92", "city": "Reichenau an der Rax", "state": null, "postcode": "2651", "telephone": "+43 2666 52424", "facilities": ["tobacco", "car_wash", "toilet", "shop", "accepts_routex_cards", "accepts_toll_payments", "reminder_service", "open_saturday", "open_sunday"], "products": ["ad_blue_cannister", "diesel_on", "ultimate", "ultimate_diesel", "ultimate_unleaded", "unleaded_95"], "website": null, "watchlist_id": null, "formatted_address": "Hauptstra\u00dfe 92\n2651\nReichenau an der Rax", "channel_of_trade": null}, {"id": "AT-600511576", "name": "Liezen, Salzburger Str. 35", "lat": 47.568336, "lng": 14.228307, "site_brand": "BP", "country_code": "AT", "address": "Salzburgerstra\u00dfe 35", "city": "Liezen", "state": null, "postcode": "8940", "telephone": "+43 3612 237240", "facilities": ["toilet", "restaurant", "accepts_routex_cards", "reminder_service", "open_saturday", "open_sunday"], "products": ["ad_blue_cannister", "diesel_on", "ultimate", "ultimate_diesel", "ultimate_unleaded", "unleaded_95"], "website": null, "watchlist_id": null, "formatted_address": "Salzburgerstra\u00dfe 35\n8940\nLiezen", "channel_of_trade": null}, {"id": "AT-603", "name": "Rohrbach, Scheiblberg 44", "lat": 48.5596, "lng": 13.9871, "site_brand": "BP", "country_code": "AT", "address": "Scheiblberg 44", "city": "Berg bei Rohrbach", "state": null, "postcode": "4150", "telephone": "+43 7288 8363", "facilities": ["open_24_hours", "high_speed_pump", "truck_suitable_site", "toilet", "accepts_routex_cards", "reminder_service", "open_saturday", "open_sunday"], "products": ["ad_blue_pump", "diesel_on", "ultimate", "ultimate_diesel", "ultimate_unleaded", "unleaded_95", "ad_blue"], "website": null, "watchlist_id": null, "formatted_address": "Scheiblberg 44\n4150\nBerg bei Rohrbach", "channel_of_trade": null}, {"id": "AT-612", "name": "Schaerding, Linzerstr", "lat": 48.4512, "lng": 13.436, "site_brand": "BP", "country_code": "AT", "address": "Linzer Stra\u00dfe 52", "city": "Sch\u00e4rding", "state": null, "postcode": "4780", "telephone": "+43 7712 29577", "facilities": ["tobacco", "car_wash", "toilet", "shop", "bakery_bistro", "accepts_routex_cards", "accepts_toll_payments", "reminder_service", "open_saturday", "open_sunday"], "products": ["ad_blue_cannister", "ad_blue_pump", "diesel_on", "ultimate", "ultimate_diesel", "ultimate_unleaded", "unleaded_95", "ad_blue"], "website": null, "watchlist_id": null, "formatted_address": "Linzer Stra\u00dfe 52\n4780\nSch\u00e4rding", "channel_of_trade": null}, {"id": "AT-615", "name": "Hochburg-Ach, Braunauer Str. 1", "lat": 48.1570682, "lng": 12.8402924, "site_brand": "BP", "country_code": "AT", "address": "Braunauer Stra\u00dfe 1", "city": "Ach", "state": null, "postcode": "5122", "telephone": "+43 7727 4018", "facilities": ["high_speed_pump", "truck_suitable_site", "toilet", "accepts_routex_cards", "accepts_toll_payments", "reminder_service", "open_saturday", "open_sunday"], "products": ["ad_blue_cannister", "diesel_on", "ultimate", "ultimate_unleaded", "unleaded_95"], "website": null, "watchlist_id": null, "formatted_address": "Braunauer Stra\u00dfe 1\n5122\nAch", "channel_of_trade": null}, {"id": "AT-622", "name": "Sierning, Steyrerstr. 29", "lat": 48.0462164, "lng": 14.3131072, "site_brand": "BP", "country_code": "AT", "address": "Steyrerstra\u00dfe 29", "city": "Sierning", "state": null, "postcode": "4522", "telephone": "+43 7259 2421", "facilities": ["tobacco", "high_speed_pump", "truck_suitable_site", "toilet", "accepts_routex_cards", "reminder_service", "open_saturday", "open_sunday"], "products": ["ad_blue_cannister", "diesel_on", "ultimate", "ultimate_diesel", "ultimate_unleaded", "unleaded_95"], "website": null, "watchlist_id": null, "formatted_address": "Steyrerstra\u00dfe 29\n4522\nSierning", "channel_of_trade": null}, {"id": "AT-623", "name": "Sillian, Arnbach 74", "lat": 46.7404073, "lng": 12.3738622, "site_brand": "BP", "country_code": "AT", "address": "Arnbach 74", "city": "Sillian", "state": null, "postcode": "9920", "telephone": "+43 4842 6311", "facilities": ["tobacco", "high_speed_pump", "truck_suitable_site", "toilet", "shop", "accepts_routex_cards", "accepts_toll_payments", "reminder_service", "open_saturday", "open_sunday"], "products": ["ad_blue_cannister", "diesel_on", "hvo", "ultimate", "ultimate_diesel", "ultimate_unleaded", "unleaded_95"], "website": null, "watchlist_id": null, "formatted_address": "Arnbach 74\n9920\nSillian", "channel_of_trade": null}, {"id": "AT-627", "name": "Spratzern, Mariazellerstr. 182", "lat": 48.1792415, "lng": 15.6155487, "site_brand": "BP", "country_code": "AT", "address": "Mariazellerstra\u00dfe 182", "city": "Spratzern", "state": null, "postcode": "3106", "telephone": "+43 2742 74960", "facilities": ["open_24_hours", "tobacco", "car_wash", "high_speed_pump", "truck_suitable_site", "toilet", "merkur", "shop", "bakery_bistro", "wild_bean_cafe", "accepts_routex_cards", "accepts_toll_payments", "reminder_service", "open_saturday", "open_sunday"], "products": ["ad_blue_cannister", "ad_blue_pump", "diesel_on", "ultimate", "ultimate_diesel", "ultimate_unleaded", "unleaded_95", "ad_blue"], "website": null, "watchlist_id": null, "formatted_address": "Mariazellerstra\u00dfe 182\n3106\nSpratzern", "channel_of_trade": null}, {"id": "AT-629", "name": "Stainach, Ennstal Bundesstr., Salzburgerstr. 401", "lat": 47.5324, "lng": 14.106, "site_brand": "BP", "country_code": "AT", "address": "Salzburger Stra\u00dfe 401", "city": "Stainach-P\u00fcrgg", "state": null, "postcode": "8950", "telephone": "+43 3682 22650", "facilities": ["tobacco", "high_speed_pump", "truck_suitable_site", "toilet", "shop", "accepts_routex_cards", "reminder_service", "open_saturday", "open_sunday"], "products": ["ad_blue_cannister", "diesel_on", "ultimate", "ultimate_diesel", "ultimate_unleaded", "unleaded_95"], "website": null, "watchlist_id": null, "formatted_address": "Salzburger Stra\u00dfe 401\n8950\nStainach-P\u00fcrgg", "channel_of_trade": null}, {"id": "AT-637", "name": "St. Johann in Tirol, Salzburgerstr. 13", "lat": 47.5253219, "lng": 12.4231262, "site_brand": "BP", "country_code": "AT", "address": "Salzburgerstra\u00dfe", "city": "St. Johann in Tirol", "state": null, "postcode": "6380", "telephone": "+43 5352 62439", "facilities": ["tobacco", "car_wash", "high_speed_pump", "truck_suitable_site", "toilet", "shop", "accepts_routex_cards", "accepts_toll_payments", "reminder_service", "open_saturday", "open_sunday"], "products": ["ad_blue_cannister", "diesel_on", "ultimate", "ultimate_diesel", "ultimate_unleaded", "unleaded_95"], "website": null, "watchlist_id": null, "formatted_address": "Salzburgerstra\u00dfe\n6380\nSt. Johann in Tirol", "channel_of_trade": null}, {"id": "AT-639", "name": "St. Martin im Muehlkreis, Adsdorf 13", "lat": 48.4338, "lng": 14.0433, "site_brand": "BP", "country_code": "AT", "address": "Adsdorf 13", "city": "St. Martin im M\u00fchlkreis", "state": null, "postcode": "4113", "telephone": "+43 7232 22350", "facilities": ["open_24_hours", "tobacco", "high_speed_pump", "truck_suitable_site", "toilet", "shop", "accepts_routex_cards", "accepts_toll_payments", "reminder_service", "open_saturday", "open_sunday"], "products": ["ad_blue_cannister", "ad_blue_pump", "diesel_on", "ultimate", "ultimate_diesel", "ultimate_unleaded", "unleaded_95", "ad_blue"], "website": null, "watchlist_id": null, "formatted_address": "Adsdorf 13\n4113\nSt. Martin im M\u00fchlkreis", "channel_of_trade": null}, {"id": "AT-641", "name": "St. Michael, Bundesstr. 59", "lat": 47.3503359, "lng": 15.0085854, "site_brand": "BP", "country_code": "AT", "address": "Bundesstra\u00dfe 59", "city": "Sankt Michael in Obersteiermark", "state": null, "postcode": "8770", "telephone": "+43 3843 5116", "facilities": ["tobacco", "car_wash", "high_speed_pump", "truck_suitable_site", "toilet", "shop", "accepts_routex_cards", "accepts_toll_payments", "reminder_service", "open_saturday", "open_sunday"], "products": ["ad_blue_cannister", "diesel_on", "red_diesel", "ultimate", "ultimate_diesel", "ultimate_unleaded", "unleaded_95"], "website": null, "watchlist_id": null, "formatted_address": "Bundesstra\u00dfe 59\n8770\nSankt Michael in Obersteiermark", "channel_of_trade": null}, {"id": "AT-642", "name": "Stockerau, Pragerstr./Hornerstr.", "lat": 48.3859492, "lng": 16.1987658, "site_brand": "BP", "country_code": "AT", "address": "Pragerstra\u00dfe/Hornerstra\u00dfe", "city": "Stockerau", "state": null, "postcode": "2000", "telephone": "+43 2266 62438", "facilities": ["tobacco", "car_wash", "high_speed_pump", "truck_suitable_site", "toilet", "bakery_bistro", "accepts_routex_cards", "accepts_toll_payments", "reminder_service", "open_saturday", "open_sunday"], "products": ["ad_blue_cannister", "diesel_on", "ultimate", "ultimate_diesel", "ultimate_unleaded", "unleaded_95"], "website": null, "watchlist_id": null, "formatted_address": "Pragerstra\u00dfe/Hornerstra\u00dfe\n2000\nStockerau", "channel_of_trade": null}, {"id": "AT-654", "name": "St. Ulrich/Garsten, Eisenstr. 85", "lat": 48.0011, "lng": 14.4104, "site_brand": "BP", "country_code": "AT", "address": "Eisenstra\u00dfe 85", "city": "St. Ulrich/Garsten", "state": null, "postcode": "4451", "telephone": "+43 7252 54161", "facilities": ["tobacco", "car_wash", "high_speed_pump", "truck_suitable_site", "toilet", "shop", "wild_bean_cafe", "accepts_routex_cards", "accepts_toll_payments", "reminder_service", "open_saturday", "open_sunday"], "products": ["ad_blue_cannister", "diesel_on", "ultimate", "ultimate_diesel", "ultimate_unleaded", "unleaded_95"], "website": null, "watchlist_id": null, "formatted_address": "Eisenstra\u00dfe 85\n4451\nSt. Ulrich/Garsten", "channel_of_trade": null}, {"id": "AT-655", "name": "St. Valentin, Werkstr. 4", "lat": 48.171167, "lng": 14.5123446, "site_brand": "BP", "country_code": "AT", "address": "Werkstra\u00dfe 4", "city": "St. Valentin", "state": null, "postcode": "4300", "telephone": "+43 7435 52224", "facilities": ["tobacco", "car_wash", "toilet", "shop", "accepts_routex_cards", "accepts_toll_payments", "reminder_service", "open_saturday", "open_sunday"], "products": ["ad_blue_cannister", "diesel_on", "ultimate", "ultimate_diesel", "ultimate_unleaded", "unleaded_95"], "website": null, "watchlist_id": null, "formatted_address": "Werkstra\u00dfe 4\n4300\nSt. Valentin", "channel_of_trade": null}, {"id": "AT-656", "name": "St. Veit/Glan, Friesacherstr. 68", "lat": 46.7724658, "lng": 14.3672964, "site_brand": "BP", "country_code": "AT", "address": "Friesacher Stra\u00dfe 68", "city": "Sankt Veit an der Glan", "state": null, "postcode": "9300", "telephone": "+43 50 146 240", "facilities": ["tobacco", "car_wash", "high_speed_pump", "truck_suitable_site", "toilet", "accepts_routex_cards", "accepts_toll_payments", "reminder_service", "open_saturday", "open_sunday"], "products": ["ad_blue_cannister", "ad_blue_pump", "diesel_on", "ultimate", "ultimate_diesel", "ultimate_unleaded", "unleaded_95", "ad_blue"], "website": null, "watchlist_id": null, "formatted_address": "Friesacher Stra\u00dfe 68\n9300\nSankt Veit an der Glan", "channel_of_trade": null}, {"id": "AT-668", "name": "Trieben, Industriepark 2 an der A9/E57", "lat": 47.4938, "lng": 14.4829, "site_brand": "BP", "country_code": "AT", "address": "Industriepark 2", "city": "Trieben", "state": null, "postcode": "8784", "telephone": "+43 3615 5161", "facilities": ["open_24_hours", "tobacco", "high_speed_pump", "truck_parking", "truck_suitable_site", "disabled_facilities", "toilet", "motorway_site", "shop", "bakery_bistro", "wild_bean_cafe", "accepts_routex_cards", "accepts_toll_payments", "reminder_service", "open_saturday", "open_sunday"], "products": ["ad_blue_cannister", "ad_blue_pump", "diesel_on", "electricity", "hvo", "ultimate", "ultimate_diesel", "ultimate_unleaded", "unleaded_95", "ad_blue"], "website": null, "watchlist_id": null, "formatted_address": "Industriepark 2\n8784\nTrieben", "channel_of_trade": null}, {"id": "AT-669", "name": "Trofaiach, Hauptstr. 9A", "lat": 47.420513, "lng": 15.0140597, "site_brand": "BP", "country_code": "AT", "address": "Hauptstra\u00dfe 9A", "city": "Trofaiach", "state": null, "postcode": "8793", "telephone": "+43 3847 2879", "facilities": ["tobacco", "car_wash", "high_speed_pump", "truck_suitable_site", "toilet", "shop", "accepts_routex_cards", "accepts_toll_payments", "reminder_service", "open_saturday", "open_sunday"], "products": ["ad_blue_cannister", "diesel_on", "red_diesel", "ultimate", "ultimate_diesel", "ultimate_unleaded", "unleaded_95"], "website": null, "watchlist_id": null, "formatted_address": "Hauptstra\u00dfe 9A\n8793\nTrofaiach", "channel_of_trade": null}, {"id": "AT-673", "name": "Grein, Ufer 4", "lat": 48.2229, "lng": 14.8503, "site_brand": "BP", "country_code": "AT", "address": "Ufer 4", "city": "Grein", "state": null, "postcode": "4360", "telephone": "", "facilities": ["tobacco", "car_wash", "high_speed_pump", "truck_suitable_site", "toilet", "shop", "bakery_bistro", "bistro", "accepts_routex_cards", "accepts_toll_payments", "reminder_service", "open_saturday", "open_sunday"], "products": ["ad_blue_cannister", "diesel_on", "ultimate", "ultimate_diesel", "ultimate_unleaded", "unleaded_95"], "website": null, "watchlist_id": null, "formatted_address": "Ufer 4\n4360\nGrein", "channel_of_trade": null}, {"id": "AT-677", "name": "Villach, Maria Gailer Str. 29", "lat": 46.604738, "lng": 13.8648643, "site_brand": "BP", "country_code": "AT", "address": "Maria Gailer Stra\u00dfe 28B", "city": "Villach", "state": null, "postcode": "9500", "telephone": "+43 4242 312706", "facilities": ["open_24_hours", "tobacco", "car_wash", "high_speed_pump", "truck_suitable_site", "toilet", "shop", "bakery_bistro", "wild_bean_cafe", "accepts_routex_cards", "accepts_toll_payments", "reminder_service", "open_saturday", "open_sunday"], "products": ["ad_blue_cannister", "ad_blue_pump", "diesel_on", "ultimate", "ultimate_diesel", "ultimate_unleaded", "unleaded_95", "ad_blue"], "website": null, "watchlist_id": null, "formatted_address": "Maria Gailer Stra\u00dfe 28B\n9500\nVillach", "channel_of_trade": null}, {"id": "AT-678", "name": "Ebene-Reichenau, Nr. 12 Turracher Bundesstr.", "lat": 46.857321, "lng": 13.8921, "site_brand": "BP", "country_code": "AT", "address": "Turracher Bundesstra\u00dfe 12", "city": "Ebene-Reichenau", "state": null, "postcode": "9565", "telephone": "", "facilities": ["car_wash", "high_speed_pump", "truck_suitable_site", "toilet", "accepts_routex_cards", "reminder_service", "open_saturday", "open_sunday"], "products": ["ad_blue_cannister", "diesel_on", "red_diesel", "ultimate", "ultimate_diesel", "unleaded_95"], "website": null, "watchlist_id": null, "formatted_address": "Turracher Bundesstra\u00dfe 12\n9565\nEbene-Reichenau", "channel_of_trade": null}, {"id": "AT-679", "name": "Villach, Ossiacherzeile 50A", "lat": 46.611777, "lng": 13.8560069, "site_brand": "BP", "country_code": "AT", "address": "Ossiacherzeile 50 A", "city": "Villach", "state": null, "postcode": "9500", "telephone": "+43 4242 24589", "facilities": ["open_24_hours", "tobacco", "car_wash", "high_speed_pump", "truck_suitable_site", "toilet", "shop", "bakery_bistro", "wild_bean_cafe", "accepts_routex_cards", "accepts_toll_payments", "reminder_service", "open_saturday", "open_sunday"], "products": ["ad_blue_cannister", "diesel_on", "ultimate", "ultimate_diesel", "ultimate_unleaded", "unleaded_95"], "website": null, "watchlist_id": null, "formatted_address": "Ossiacherzeile 50 A\n9500\nVillach", "channel_of_trade": null}, {"id": "AT-690", "name": "Weer, Inntalautobahn Nord", "lat": 47.3190793, "lng": 11.6556023, "site_brand": "BP", "country_code": "AT", "address": "Inntalautobahn", "city": "Weer", "state": null, "postcode": "6114", "telephone": "+43 5224 68388", "facilities": ["open_24_hours", "tobacco", "high_speed_pump", "truck_parking", "truck_suitable_site", "disabled_facilities", "toilet", "wifi", "motorway_site", "shop", "bakery_bistro", "restaurant", "wild_bean_cafe", "accepts_routex_cards", "accepts_toll_payments", "reminder_service", "open_saturday", "open_sunday"], "products": ["ad_blue_cannister", "ad_blue_pump", "diesel_on", "hvo", "ultimate", "ultimate_diesel", "ultimate_unleaded", "unleaded_95", "ad_blue"], "website": null, "watchlist_id": null, "formatted_address": "Inntalautobahn\n6114\nWeer", "channel_of_trade": null}, {"id": "AT-702", "name": "Wien 12, Altmannsdorferstr. 94", "lat": 48.162186, "lng": 16.3172537, "site_brand": "BP", "country_code": "AT", "address": "Altmannsdorferstra\u00dfe 94", "city": "Wien", "state": null, "postcode": "1120", "telephone": "+43 1 8043718", "facilities": ["open_24_hours", "tobacco", "high_speed_pump", "truck_suitable_site", "toilet", "merkur", "shop", "bakery_bistro", "wild_bean_cafe", "accepts_routex_cards", "accepts_toll_payments", "reminder_service", "open_saturday", "open_sunday"], "products": ["ad_blue_cannister", "diesel_on", "ultimate", "ultimate_diesel", "ultimate_unleaded", "unleaded_95"], "website": null, "watchlist_id": null, "formatted_address": "Altmannsdorferstra\u00dfe 94\n1120\nWien", "channel_of_trade": null}, {"id": "AT-703", "name": "Wien 12, Altmannsdorferstr. 117", "lat": 48.1609269, "lng": 16.3186078, "site_brand": "BP", "country_code": "AT", "address": "Altmannsdorferstra\u00dfe 117", "city": "Wien", "state": null, "postcode": "1120", "telephone": "+43 1 6678737", "facilities": ["open_24_hours", "tobacco", "high_speed_pump", "truck_suitable_site", "toilet", "merkur", "shop", "bakery_bistro", "wild_bean_cafe", "accepts_routex_cards", "accepts_toll_payments", "reminder_service", "open_saturday", "open_sunday"], "products": ["ad_blue_cannister", "diesel_on", "ultimate", "ultimate_diesel", "ultimate_unleaded", "unleaded_95"], "website": null, "watchlist_id": null, "formatted_address": "Altmannsdorferstra\u00dfe 117\n1120\nWien", "channel_of_trade": null}, {"id": "AT-703835927", "name": "Perg, Naarner Str. 73", "lat": 48.2394955, "lng": 14.6262131, "site_brand": "BP", "country_code": "AT", "address": "Naarner Stra\u00dfe 73", "city": "Perg", "state": null, "postcode": "4320", "telephone": "+43 7262 53235", "facilities": ["toilet", "restaurant", "accepts_routex_cards", "accepts_toll_payments", "reminder_service", "open_saturday", "open_sunday"], "products": ["ad_blue_cannister", "diesel_on", "natural_gas", "ultimate", "ultimate_diesel", "ultimate_unleaded", "unleaded_95"], "website": null, "watchlist_id": null, "formatted_address": "Naarner Stra\u00dfe 73\n4320\nPerg", "channel_of_trade": null}, {"id": "AT-706", "name": "Wien 03, Arsenalstr. 5B", "lat": 48.1777, "lng": 16.3929, "site_brand": "BP", "country_code": "AT", "address": "Arsenalstra\u00dfe 5b", "city": "Wien", "state": null, "postcode": "1030", "telephone": "+43 1 7982552", "facilities": ["open_24_hours", "tobacco", "car_wash", "high_speed_pump", "truck_suitable_site", "toilet", "shop", "bakery_bistro", "wild_bean_cafe", "accepts_routex_cards", "accepts_toll_payments", "reminder_service", "open_saturday", "open_sunday"], "products": ["ad_blue_cannister", "diesel_on", "ultimate", "ultimate_diesel", "ultimate_unleaded", "unleaded_95"], "website": null, "watchlist_id": null, "formatted_address": "Arsenalstra\u00dfe 5b\n1030\nWien", "channel_of_trade": null}, {"id": "AT-7060", "name": "Aurach, Pass Thurn Str. 17", "lat": 47.4185, "lng": 12.4216, "site_brand": "BP", "country_code": "AT", "address": "Pass Thurn Stra\u00dfe 17", "city": "Aurach", "state": null, "postcode": "6371", "telephone": "+43 5356 6402016", "facilities": ["tobacco", "high_speed_pump", "truck_suitable_site", "toilet", "accepts_routex_cards", "accepts_toll_payments", "reminder_service"], "products": ["ad_blue_cannister", "diesel_on", "ultimate", "ultimate_diesel", "ultimate_unleaded", "unleaded_95"], "website": null, "watchlist_id": null, "formatted_address": "Pass Thurn Stra\u00dfe 17\n6371\nAurach", "channel_of_trade": null}, {"id": "AT-7062", "name": "Lermoos, Gries 16", "lat": 47.4068591, "lng": 10.8691182, "site_brand": "BP", "country_code": "AT", "address": "Gries 16", "city": "Lermoos", "state": null, "postcode": "6631", "telephone": "+43 5673 2197", "facilities": ["tobacco", "high_speed_pump", "truck_suitable_site", "toilet", "shop", "accepts_routex_cards", "accepts_toll_payments", "reminder_service", "open_saturday", "open_sunday"], "products": ["ad_blue_cannister", "diesel_on", "ultimate", "ultimate_diesel", "ultimate_unleaded", "unleaded_95"], "website": null, "watchlist_id": null, "formatted_address": "Gries 16\n6631\nLermoos", "channel_of_trade": null}, {"id": "AT-7064", "name": "Telfs-Sagl, Nr. 8", "lat": 47.317125, "lng": 11.093573, "site_brand": "BP", "country_code": "AT", "address": "Nr.8", "city": "Telfs-Sagl", "state": null, "postcode": "6410", "telephone": "+43 5262 62277", "facilities": ["high_speed_pump", "truck_suitable_site", "toilet", "accepts_routex_cards", "accepts_toll_payments", "reminder_service", "open_saturday", "open_sunday"], "products": ["ad_blue_cannister", "diesel_on", "ultimate", "ultimate_diesel", "ultimate_unleaded", "unleaded_95"], "website": null, "watchlist_id": null, "formatted_address": "Nr.8\n6410\nTelfs-Sagl", "channel_of_trade": null}, {"id": "AT-7069", "name": "Neustift, Stubaitalstr. 81", "lat": 47.1115, "lng": 11.3096, "site_brand": "BP", "country_code": "AT", "address": "Stubaitalstra\u00dfe 81", "city": "Neustift im Stubaital", "state": null, "postcode": "6167", "telephone": "+43 5226 3525", "facilities": ["tobacco", "high_speed_pump", "truck_suitable_site", "toilet", "accepts_routex_cards", "reminder_service", "open_saturday", "open_sunday"], "products": ["ad_blue_cannister", "diesel_on", "ultimate", "ultimate_diesel", "ultimate_unleaded", "unleaded_95"], "website": null, "watchlist_id": null, "formatted_address": "Stubaitalstra\u00dfe 81\n6167\nNeustift im Stubaital", "channel_of_trade": null}, {"id": "AT-707", "name": "Wien 21, Bruennerstr. 57A", "lat": 48.267139, "lng": 16.402564, "site_brand": "BP", "country_code": "AT", "address": "Br\u00fcnnerstra\u00dfe 57c", "city": "Wien", "state": null, "postcode": "1210", "telephone": "+43 1 2782239", "facilities": ["open_24_hours", "tobacco", "car_wash", "high_speed_pump", "truck_suitable_site", "toilet", "shop", "bakery_bistro", "wild_bean_cafe", "accepts_routex_cards", "accepts_toll_payments", "reminder_service", "open_saturday", "open_sunday"], "products": ["ad_blue_cannister", "diesel_on", "ultimate", "ultimate_diesel", "ultimate_unleaded", "unleaded_95"], "website": null, "watchlist_id": null, "formatted_address": "Br\u00fcnnerstra\u00dfe 57c\n1210\nWien", "channel_of_trade": null}, {"id": "AT-7070", "name": "Traun, Kremstal Bundesstr. 76", "lat": 48.2271886, "lng": 14.2343832, "site_brand": "BP", "country_code": "AT", "address": "Kremstal Bundestra\u00dfe 76", "city": "Traun", "state": null, "postcode": "4050", "telephone": "+43 7229 61291", "facilities": ["open_24_hours", "tobacco", "car_wash", "high_speed_pump", "truck_suitable_site", "toilet", "shop", "wild_bean_cafe", "accepts_routex_cards", "accepts_toll_payments", "reminder_service", "open_saturday", "open_sunday"], "products": ["ad_blue_cannister", "diesel_on", "ultimate", "ultimate_diesel", "ultimate_unleaded", "unleaded_95"], "website": null, "watchlist_id": null, "formatted_address": "Kremstal Bundestra\u00dfe 76\n4050\nTraun", "channel_of_trade": null}, {"id": "AT-7074", "name": "Glasenbach-Elsbethen, Joh.Herbst-Str. 15", "lat": 47.7695606, "lng": 13.0854034, "site_brand": "BP", "country_code": "AT", "address": "Johann-Herbst-Stra\u00dfe 15", "city": "Glasenbach-Elsbethen", "state": null, "postcode": "5061", "telephone": "+43 50 8300 3100", "facilities": ["alcohol", "tobacco", "high_speed_pump", "truck_suitable_site", "toilet", "shop", "bakery_bistro", "accepts_routex_cards", "accepts_toll_payments", "reminder_service", "open_saturday", "open_sunday"], "products": ["ad_blue_cannister", "ad_blue_pump", "diesel_on", "ultimate", "ultimate_diesel", "ultimate_unleaded", "unleaded_95", "ad_blue"], "website": null, "watchlist_id": null, "formatted_address": "Johann-Herbst-Stra\u00dfe 15\n5061\nGlasenbach-Elsbethen", "channel_of_trade": null}, {"id": "AT-713", "name": "Saalbach, Glemmtaler Landesstr. 386", "lat": 47.3890774, "lng": 12.6423411, "site_brand": "BP", "country_code": "AT", "address": "Glemmtaler Landesstra\u00dfe 386", "city": "Saalbach", "state": null, "postcode": "5753", "telephone": "+43 50 8300 3350", "facilities": ["tobacco", "high_speed_pump", "truck_suitable_site", "toilet", "accepts_routex_cards", "reminder_service", "open_saturday", "open_sunday"], "products": ["ad_blue_cannister", "ad_blue_pump", "diesel_on", "ultimate", "ultimate_diesel", "ultimate_unleaded", "unleaded_95", "ad_blue"], "website": null, "watchlist_id": null, "formatted_address": "Glemmtaler Landesstra\u00dfe 386\n5753\nSaalbach", "channel_of_trade": null}, {"id": "AT-720", "name": "Wien 21, Einzingerstr. 2", "lat": 48.2825, "lng": 16.3799, "site_brand": "BP", "country_code": "AT", "address": "Einzingergasse 2", "city": "Wien", "state": null, "postcode": "1210", "telephone": "+43 1 2704191", "facilities": ["open_24_hours", "tobacco", "car_wash", "high_speed_pump", "truck_suitable_site", "toilet", "merkur", "shop", "bakery_bistro", "wild_bean_cafe", "accepts_routex_cards", "accepts_toll_payments", "reminder_service", "open_saturday", "open_sunday"], "products": ["ad_blue_cannister", "diesel_on", "ultimate", "ultimate_diesel", "ultimate_unleaded", "unleaded_95"], "website": null, "watchlist_id": null, "formatted_address": "Einzingergasse 2\n1210\nWien", "channel_of_trade": null}, {"id": "AT-721", "name": "Wien 03, Erbergerlaende 30", "lat": 48.2012, "lng": 16.4037, "site_brand": "BP", "country_code": "AT", "address": "Erdbergerl\u00e4nde 30", "city": "Wien", "state": null, "postcode": "1030", "telephone": "+43 1 7154826", "facilities": ["open_24_hours", "tobacco", "car_wash", "toilet", "merkur", "shop", "bakery_bistro", "wild_bean_cafe", "accepts_routex_cards", "accepts_toll_payments", "reminder_service", "open_saturday", "open_sunday"], "products": ["ad_blue_cannister", "diesel_on", "ultimate", "ultimate_diesel", "ultimate_unleaded", "unleaded_95"], "website": null, "watchlist_id": null, "formatted_address": "Erdbergerl\u00e4nde 30\n1030\nWien", "channel_of_trade": null}, {"id": "AT-722", "name": "Wien 03, Erdbergstr. 184", "lat": 48.193174, "lng": 16.410318, "site_brand": "BP", "country_code": "AT", "address": "Erdbergstra\u00dfe 184", "city": "Wien", "state": null, "postcode": "1030", "telephone": "+43 1 7963275", "facilities": ["open_24_hours", "tobacco", "car_wash", "toilet", "shop", "wild_bean_cafe", "accepts_routex_cards", "reminder_service", "open_saturday", "open_sunday"], "products": ["ad_blue_cannister", "ad_blue_pump", "diesel_on", "ultimate", "ultimate_diesel", "ultimate_unleaded", "unleaded_95", "ad_blue"], "website": null, "watchlist_id": null, "formatted_address": "Erdbergstra\u00dfe 184\n1030\nWien", "channel_of_trade": null}, {"id": "AT-723", "name": "Wien 22, Erzherzog Karlstr. 253", "lat": 48.2206, "lng": 16.4799, "site_brand": "BP", "country_code": "AT", "address": "Erzherzog-Karl-Stra\u00dfe 253", "city": "Wien", "state": null, "postcode": "1220", "telephone": "+43 1 2821480", "facilities": ["tobacco", "car_wash", "high_speed_pump", "truck_suitable_site", "toilet", "shop", "bakery_bistro", "wild_bean_cafe", "accepts_routex_cards", "accepts_toll_payments", "reminder_service", "open_saturday", "open_sunday"], "products": ["ad_blue_cannister", "diesel_on", "ultimate", "ultimate_diesel", "ultimate_unleaded", "unleaded_95"], "website": null, "watchlist_id": null, "formatted_address": "Erzherzog-Karl-Stra\u00dfe 253\n1220\nWien", "channel_of_trade": null}, {"id": "AT-724", "name": "Wien 12, Am Fasangarten 9", "lat": 48.1708611, "lng": 16.305914, "site_brand": "BP", "country_code": "AT", "address": "Am Fasangarten 9", "city": "Wien", "state": null, "postcode": "1120", "telephone": "+43 1 8135374", "facilities": ["tobacco", "car_wash", "high_speed_pump", "truck_suitable_site", "toilet", "shop", "bakery_bistro", "wild_bean_cafe", "accepts_routex_cards", "accepts_toll_payments", "reminder_service", "open_saturday", "open_sunday"], "products": ["ad_blue_cannister", "diesel_on", "truck_diesel", "ultimate", "ultimate_diesel", "ultimate_unleaded", "unleaded_95"], "website": null, "watchlist_id": null, "formatted_address": "Am Fasangarten 9\n1120\nWien", "channel_of_trade": null}, {"id": "AT-725", "name": "Wien 03, Franzosengraben 18", "lat": 48.1868885, "lng": 16.4129331, "site_brand": "BP", "country_code": "AT", "address": "Franzosengraben", "city": "Wien", "state": null, "postcode": "1030", "telephone": "+43 676 9209718", "facilities": ["tobacco", "high_speed_pump", "truck_suitable_site", "toilet", "merkur", "shop", "bakery_bistro", "wild_bean_cafe", "accepts_routex_cards", "accepts_toll_payments", "reminder_service", "open_saturday", "open_sunday"], "products": ["ad_blue_cannister", "ad_blue_pump", "diesel_on", "ultimate", "ultimate_diesel", "ultimate_unleaded", "unleaded_95", "ad_blue"], "website": null, "watchlist_id": null, "formatted_address": "Franzosengraben\n1030\nWien", "channel_of_trade": null}, {"id": "AT-726", "name": "Wien 01, Franz Josefskai 17/Morzinpl.", "lat": 48.212817, "lng": 16.375256, "site_brand": "BP", "country_code": "AT", "address": "Franz Josefskai/Morzinpl", "city": "Wien", "state": null, "postcode": "1010", "telephone": "+43 1 5337398", "facilities": ["tobacco", "high_speed_pump", "truck_suitable_site", "toilet", "shop", "bakery_bistro", "wild_bean_cafe", "accepts_routex_cards", "accepts_toll_payments", "reminder_service", "open_saturday", "open_sunday"], "products": ["ad_blue_cannister", "diesel_on", "ultimate", "ultimate_diesel", "ultimate_unleaded", "unleaded_95"], "website": null, "watchlist_id": null, "formatted_address": "Franz Josefskai/Morzinpl\n1010\nWien", "channel_of_trade": null}, {"id": "AT-727", "name": "Wien 16, Gablenzgasse 72", "lat": 48.2059, "lng": 16.3218, "site_brand": "BP", "country_code": "AT", "address": "Gablenzgasse 72", "city": "Wien", "state": null, "postcode": "1160", "telephone": "+43 1 4921006", "facilities": ["tobacco", "high_speed_pump", "truck_suitable_site", "toilet", "merkur", "shop", "bakery_bistro", "wild_bean_cafe", "accepts_routex_cards", "reminder_service", "open_saturday", "open_sunday"], "products": ["ad_blue_cannister", "diesel_on", "ultimate", "ultimate_diesel", "ultimate_unleaded", "unleaded_95"], "website": null, "watchlist_id": null, "formatted_address": "Gablenzgasse 72\n1160\nWien", "channel_of_trade": null}, {"id": "AT-728", "name": "Wien 12, Gaudenzdorfer Guertel 77", "lat": 48.187575, "lng": 16.339478, "site_brand": "BP", "country_code": "AT", "address": "Gaudenzdorfer G\u00fcrtel 75", "city": "Wien", "state": null, "postcode": "1120", "telephone": "+43 1 8155177", "facilities": ["open_24_hours", "tobacco", "high_speed_pump", "truck_suitable_site", "toilet", "merkur", "shop", "bakery_bistro", "wild_bean_cafe", "accepts_routex_cards", "accepts_toll_payments", "reminder_service", "open_saturday", "open_sunday"], "products": ["ad_blue_cannister", "diesel_on", "ultimate", "ultimate_diesel", "ultimate_unleaded", "unleaded_95"], "website": null, "watchlist_id": null, "formatted_address": "Gaudenzdorfer G\u00fcrtel 75\n1120\nWien", "channel_of_trade": null}, {"id": "AT-729", "name": "Wien 11, Geiselbergstr. 47/Hauffg. 35", "lat": 48.174907, "lng": 16.407979, "site_brand": "BP", "country_code": "AT", "address": "Geiselbergstr. 47 / Hauffg. 35", "city": "Wien", "state": null, "postcode": "1110", "telephone": "+43 1 7495599", "facilities": ["tobacco", "car_wash", "high_speed_pump", "truck_suitable_site", "toilet", "merkur", "shop", "bakery_bistro", "wild_bean_cafe", "accepts_routex_cards", "accepts_toll_payments", "reminder_service", "open_saturday", "open_sunday"], "products": ["ad_blue_cannister", "diesel_on", "ultimate", "ultimate_diesel", "ultimate_unleaded", "unleaded_95"], "website": null, "watchlist_id": null, "formatted_address": "Geiselbergstr. 47 / Hauffg. 35\n1110\nWien", "channel_of_trade": null}, {"id": "AT-734", "name": "Wien 17, Hernalser Hauptstr. 32-34", "lat": 48.2171142, "lng": 16.3382813, "site_brand": "BP", "country_code": "AT", "address": "Hernalser Hauptstra\u00dfe 32-34", "city": "Wien", "state": null, "postcode": "1170", "telephone": "+43 1 4064649", "facilities": ["tobacco", "car_wash", "high_speed_pump", "truck_suitable_site", "toilet", "merkur", "shop", "bakery_bistro", "wild_bean_cafe", "accepts_routex_cards", "accepts_toll_payments", "reminder_service", "open_saturday", "open_sunday"], "products": ["ad_blue_cannister", "diesel_on", "ultimate", "ultimate_diesel", "ultimate_unleaded", "unleaded_95"], "website": null, "watchlist_id": null, "formatted_address": "Hernalser Hauptstra\u00dfe 32-34\n1170\nWien", "channel_of_trade": null}, {"id": "AT-735", "name": "Wien 20, Handelskai 90", "lat": 48.2431, "lng": 16.3841, "site_brand": "BP", "country_code": "AT", "address": "Handelskai 90", "city": "Wien", "state": null, "postcode": "1200", "telephone": "800223350", "facilities": ["accepts_routex_cards", "reminder_service", "open_saturday", "open_sunday"], "products": ["diesel_on", "unleaded_95"], "website": null, "watchlist_id": null, "formatted_address": "Handelskai 90\n1200\nWien", "channel_of_trade": null}, {"id": "AT-737", "name": "Wien 02, Handelskai 276-280/Offbg.", "lat": 48.216659, "lng": 16.416943, "site_brand": "BP", "country_code": "AT", "address": "Handelskai 276-280", "city": "Wien", "state": null, "postcode": "1020", "telephone": "+43 676 9209714", "facilities": ["open_24_hours", "tobacco", "car_wash", "high_speed_pump", "truck_suitable_site", "toilet", "merkur", "shop", "bakery_bistro", "wild_bean_cafe", "accepts_routex_cards", "accepts_toll_payments", "reminder_service", "open_saturday", "open_sunday"], "products": ["ad_blue_cannister", "diesel_on", "ultimate", "ultimate_diesel", "ultimate_unleaded", "unleaded_95"], "website": null, "watchlist_id": null, "formatted_address": "Handelskai 276-280\n1020\nWien", "channel_of_trade": null}, {"id": "AT-738", "name": "Wien 14, Hadikgasse 252/Kefergasse", "lat": 48.1927411, "lng": 16.2775969, "site_brand": "BP", "country_code": "AT", "address": "Hadikgasse/Kefergasse", "city": "Wien", "state": null, "postcode": "1140", "telephone": "+43 1 9141238", "facilities": ["open_24_hours", "tobacco", "car_wash", "truck_suitable_site", "toilet", "merkur", "shop", "bakery_bistro", "wild_bean_cafe", "accepts_routex_cards", "accepts_toll_payments", "reminder_service", "open_saturday", "open_sunday"], "products": ["ad_blue_cannister", "diesel_on", "ultimate", "ultimate_diesel", "ultimate_unleaded", "unleaded_95"], "website": null, "watchlist_id": null, "formatted_address": "Hadikgasse/Kefergasse\n1140\nWien", "channel_of_trade": null}, {"id": "AT-739", "name": "Wien 19, Heiligenstaedterstr. 77", "lat": 48.2440263, "lng": 16.3615186, "site_brand": "BP", "country_code": "AT", "address": "Heiligenst\u00e4dterstra\u00dfe 77", "city": "Wien", "state": null, "postcode": "1190", "telephone": "+43 1 3681494", "facilities": ["open_24_hours", "tobacco", "car_wash", "high_speed_pump", "truck_suitable_site", "toilet", "merkur", "shop", "bakery_bistro", "wild_bean_cafe", "accepts_routex_cards", "accepts_toll_payments", "reminder_service", "open_saturday", "open_sunday"], "products": ["ad_blue_cannister", "diesel_on", "ultimate", "ultimate_diesel", "ultimate_unleaded", "unleaded_95"], "website": null, "watchlist_id": null, "formatted_address": "Heiligenst\u00e4dterstra\u00dfe 77\n1190\nWien", "channel_of_trade": null}, {"id": "AT-742", "name": "Wien 13, Hietz. Kai 133-135", "lat": 48.1915, "lng": 16.2798, "site_brand": "BP", "country_code": "AT", "address": "Hietzinger Kai 133-135", "city": "Wien", "state": null, "postcode": "1130", "telephone": "+43 1 8771451", "facilities": ["open_24_hours", "tobacco", "car_wash", "high_speed_pump", "truck_suitable_site", "toilet", "merkur", "shop", "bakery_bistro", "wild_bean_cafe", "accepts_routex_cards", "accepts_toll_payments", "reminder_service", "open_saturday", "open_sunday"], "products": ["ad_blue_cannister", "diesel_on", "ultimate", "ultimate_diesel", "ultimate_unleaded", "unleaded_95"], "website": null, "watchlist_id": null, "formatted_address": "Hietzinger Kai 133-135\n1130\nWien", "channel_of_trade": null}, {"id": "AT-744", "name": "Wien 11, Kaiser Ebersdorfer Str. 248-250", "lat": 48.1596809, "lng": 16.4577638, "site_brand": "BP", "country_code": "AT", "address": "Kaiser Ebersdorferstra\u00dfe 248-250", "city": "Wien", "state": null, "postcode": "1110", "telephone": "+43 676 5606735", "facilities": ["tobacco", "car_wash", "high_speed_pump", "truck_suitable_site", "toilet", "merkur", "shop", "bakery_bistro", "wild_bean_cafe", "accepts_routex_cards", "accepts_toll_payments", "reminder_service", "open_saturday", "open_sunday"], "products": ["ad_blue_cannister", "diesel_on", "ultimate", "ultimate_diesel", "ultimate_unleaded", "unleaded_95"], "website": null, "watchlist_id": null, "formatted_address": "Kaiser Ebersdorferstra\u00dfe 248-250\n1110\nWien", "channel_of_trade": null}, {"id": "AT-745377994", "name": "SEEBODEN,HAUPTSTRASSE 30", "lat": 46.8166, "lng": 13.5101, "site_brand": "BP", "country_code": "AT", "address": "Hauptstra\u00dfe 30", "city": "Seeboden", "state": null, "postcode": "9871", "telephone": "+43 50 8300 7500", "facilities": ["open_24_hours", "accepts_routex_cards", "accepts_toll_payments", "reminder_service", "open_saturday", "open_sunday"], "products": ["ad_blue_pump", "diesel_on", "ultimate", "ultimate_diesel", "ultimate_unleaded", "unleaded_95", "ad_blue"], "website": null, "watchlist_id": null, "formatted_address": "Hauptstra\u00dfe 30\n9871\nSeeboden", "channel_of_trade": null}, {"id": "AT-746", "name": "Wien 19, Krottenbachstr. 17", "lat": 48.240355, "lng": 16.341965, "site_brand": "BP", "country_code": "AT", "address": "Krottenbachstra\u00dfe 17", "city": "Wien", "state": null, "postcode": "1190", "telephone": "+43 1 3681379", "facilities": ["tobacco", "high_speed_pump", "truck_suitable_site", "toilet", "merkur", "shop", "bakery_bistro", "wild_bean_cafe", "accepts_routex_cards", "accepts_toll_payments", "reminder_service", "open_saturday", "open_sunday"], "products": ["ad_blue_cannister", "diesel_on", "ultimate", "ultimate_diesel", "ultimate_unleaded", "unleaded_95"], "website": null, "watchlist_id": null, "formatted_address": "Krottenbachstra\u00dfe 17\n1190\nWien", "channel_of_trade": null}, {"id": "AT-748", "name": "Wien 10, Laxenburgerstr. 2A", "lat": 48.183289, "lng": 16.373414, "site_brand": "BP", "country_code": "AT", "address": "Laxenburgerstra\u00dfe", "city": "Wien", "state": null, "postcode": "1100", "telephone": "+43 1 6044132", "facilities": ["open_24_hours", "tobacco", "car_wash", "high_speed_pump", "truck_suitable_site", "toilet", "shop", "bakery_bistro", "wild_bean_cafe", "accepts_routex_cards", "accepts_toll_payments", "reminder_service", "open_saturday", "open_sunday"], "products": ["ad_blue_cannister", "diesel_on", "ultimate", "ultimate_diesel", "ultimate_unleaded", "unleaded_95"], "website": null, "watchlist_id": null, "formatted_address": "Laxenburgerstra\u00dfe\n1100\nWien", "channel_of_trade": null}, {"id": "AT-751", "name": "Wien 06, Linke Wienzeile 90-92", "lat": 48.1948633, "lng": 16.3537291, "site_brand": "BP", "country_code": "AT", "address": "Linke Wienzeile 90-92", "city": "Wien", "state": null, "postcode": "1060", "telephone": "+43 1 5856962", "facilities": ["tobacco", "high_speed_pump", "truck_suitable_site", "toilet", "shop", "bakery_bistro", "wild_bean_cafe", "accepts_routex_cards", "accepts_toll_payments", "reminder_service", "open_saturday", "open_sunday"], "products": ["ad_blue_cannister", "diesel_on", "ultimate", "ultimate_diesel", "ultimate_unleaded", "unleaded_95"], "website": null, "watchlist_id": null, "formatted_address": "Linke Wienzeile 90-92\n1060\nWien", "channel_of_trade": null}, {"id": "AT-752", "name": "Wien 14, Linzerstr. 135-137", "lat": 48.1934, "lng": 16.3017, "site_brand": "BP", "country_code": "AT", "address": "Linzer Stra\u00dfe 135-137", "city": "Wien", "state": null, "postcode": "1140", "telephone": "+43 1 9854327", "facilities": ["tobacco", "car_wash", "high_speed_pump", "truck_suitable_site", "toilet", "merkur", "shop", "bakery_bistro", "wild_bean_cafe", "accepts_routex_cards", "accepts_toll_payments", "reminder_service", "open_saturday", "open_sunday"], "products": ["ad_blue_cannister", "diesel_on", "ultimate", "ultimate_diesel", "ultimate_unleaded", "unleaded_95"], "website": null, "watchlist_id": null, "formatted_address": "Linzer Stra\u00dfe 135-137\n1140\nWien", "channel_of_trade": null}, {"id": "AT-754", "name": "Wien 05, Margaretenguertel 43-45", "lat": 48.1798, "lng": 16.3517, "site_brand": "BP", "country_code": "AT", "address": "Margareteng\u00fcrtel 43-45", "city": "Wien", "state": null, "postcode": "1050", "telephone": "+43 1 5480292", "facilities": ["open_24_hours", "tobacco", "car_wash", "high_speed_pump", "truck_suitable_site", "toilet", "merkur", "shop", "bakery_bistro", "wild_bean_cafe", "accepts_routex_cards", "accepts_toll_payments", "reminder_service", "open_saturday", "open_sunday"], "products": ["ad_blue_cannister", "diesel_on", "ultimate", "ultimate_diesel", "ultimate_unleaded", "unleaded_95"], "website": null, "watchlist_id": null, "formatted_address": "Margareteng\u00fcrtel 43-45\n1050\nWien", "channel_of_trade": null}, {"id": "AT-755", "name": "Wien 14, Maroltingergasse 5", "lat": 48.2034159, "lng": 16.3028248, "site_brand": "BP", "country_code": "AT", "address": "Maroltingergasse 5", "city": "Wien", "state": null, "postcode": "1140", "telephone": "+43 1 9143237", "facilities": ["open_24_hours", "tobacco", "high_speed_pump", "truck_suitable_site", "toilet", "shop", "bakery_bistro", "wild_bean_cafe", "accepts_routex_cards", "accepts_toll_payments", "reminder_service", "open_saturday", "open_sunday"], "products": ["ad_blue_cannister", "diesel_on", "ultimate", "ultimate_diesel", "ultimate_unleaded", "unleaded_95"], "website": null, "watchlist_id": null, "formatted_address": "Maroltingergasse 5\n1140\nWien", "channel_of_trade": null}, {"id": "AT-763264043", "name": "Leopoldsdorf im Marchfeld, Hauptstr. 22", "lat": 48.2258029, "lng": 16.6952783, "site_brand": "BP", "country_code": "AT", "address": "Hauptstra\u00dfe 22", "city": "Leopoldsdorf im Marchfeld", "state": null, "postcode": "2285", "telephone": "+43 2216 202363", "facilities": ["car_wash", "shop", "accepts_routex_cards", "accepts_toll_payments", "reminder_service", "open_saturday", "open_sunday"], "products": ["ad_blue_cannister", "ad_blue_pump", "diesel_on", "ultimate", "ultimate_diesel", "ultimate_unleaded", "unleaded_95", "ad_blue"], "website": null, "watchlist_id": null, "formatted_address": "Hauptstra\u00dfe 22\n2285\nLeopoldsdorf im Marchfeld", "channel_of_trade": null}, {"id": "AT-765", "name": "Wien 10, Triesterstr. 104", "lat": 48.1573, "lng": 16.3411, "site_brand": "BP", "country_code": "AT", "address": "Triesterstra\u00dfe 104", "city": "Wien", "state": null, "postcode": "1100", "telephone": "+43 1 6674134", "facilities": ["open_24_hours", "tobacco", "car_wash", "high_speed_pump", "truck_suitable_site", "toilet", "merkur", "shop", "bakery_bistro", "wild_bean_cafe", "accepts_routex_cards", "accepts_toll_payments", "reminder_service", "open_saturday", "open_sunday"], "products": ["ad_blue_cannister", "diesel_on", "ultimate", "ultimate_diesel", "ultimate_unleaded", "unleaded_95"], "website": null, "watchlist_id": null, "formatted_address": "Triesterstra\u00dfe 104\n1100\nWien", "channel_of_trade": null}, {"id": "AT-766", "name": "Wien 10, Triesterstr. 153", "lat": 48.1565, "lng": 16.3416, "site_brand": "BP", "country_code": "AT", "address": "Triesterstra\u00dfe 153", "city": "Wien", "state": null, "postcode": "1100", "telephone": "+43 1 6167464", "facilities": ["open_24_hours", "tobacco", "car_wash", "high_speed_pump", "truck_suitable_site", "toilet", "merkur", "shop", "bakery_bistro", "wild_bean_cafe", "accepts_routex_cards", "accepts_toll_payments", "reminder_service", "open_saturday", "open_sunday"], "products": ["ad_blue_cannister", "ad_blue_pump", "diesel_on", "ultimate", "ultimate_diesel", "ultimate_unleaded", "unleaded_95", "ad_blue"], "website": null, "watchlist_id": null, "formatted_address": "Triesterstra\u00dfe 153\n1100\nWien", "channel_of_trade": null}, {"id": "AT-768", "name": "Wien 12, Wienerbergstr. 29", "lat": 48.1709, "lng": 16.3368, "site_brand": "BP", "country_code": "AT", "address": "Wienerbergstra\u00dfe 29", "city": "Wien", "state": null, "postcode": "1120", "telephone": "+43 1 8156279", "facilities": ["tobacco", "car_wash", "high_speed_pump", "truck_suitable_site", "toilet", "merkur", "shop", "bakery_bistro", "wild_bean_cafe", "accepts_routex_cards", "accepts_toll_payments", "reminder_service", "open_saturday", "open_sunday"], "products": ["ad_blue_cannister", "diesel_on", "ultimate", "ultimate_diesel", "ultimate_unleaded", "unleaded_95"], "website": null, "watchlist_id": null, "formatted_address": "Wienerbergstra\u00dfe 29\n1120\nWien", "channel_of_trade": null}, {"id": "AT-769", "name": "Wien 22, Wr. Nordrandstr. B302 Gew. Park Stadlau", "lat": 48.2476153, "lng": 16.4658336, "site_brand": "BP", "country_code": "AT", "address": "Gewerbeparkstr.On1 Gew.Park Stadlau", "city": "Wien", "state": null, "postcode": "1220", "telephone": "+43 1 7344935", "facilities": ["open_24_hours", "tobacco", "car_wash", "high_speed_pump", "truck_parking", "truck_suitable_site", "toilet", "shop", "bakery_bistro", "wild_bean_cafe", "accepts_routex_cards", "accepts_toll_payments", "reminder_service", "open_saturday", "open_sunday"], "products": ["ad_blue_cannister", "ad_blue_pump", "diesel_on", "ultimate", "ultimate_diesel", "ultimate_unleaded", "unleaded_95", "ad_blue"], "website": null, "watchlist_id": null, "formatted_address": "Gewerbeparkstr.On1 Gew.Park Stadlau\n1220\nWien", "channel_of_trade": null}, {"id": "AT-770", "name": "Wien 11, Zinnergasse 4", "lat": 48.1612, "lng": 16.4715, "site_brand": "BP", "country_code": "AT", "address": "Zinnergasse 4", "city": "Wien", "state": null, "postcode": "1110", "telephone": "+43 1 7676404", "facilities": ["tobacco", "car_wash", "high_speed_pump", "truck_suitable_site", "toilet", "shop", "bakery_bistro", "wild_bean_cafe", "accepts_routex_cards", "accepts_toll_payments", "reminder_service", "open_saturday", "open_sunday"], "products": ["ad_blue_cannister", "diesel_on", "ultimate", "ultimate_diesel", "ultimate_unleaded", "unleaded_95"], "website": null, "watchlist_id": null, "formatted_address": "Zinnergasse 4\n1110\nWien", "channel_of_trade": null}, {"id": "AT-771", "name": "Wieselburg, Zur Autobahn 2", "lat": 48.135225, "lng": 15.141678, "site_brand": "BP", "country_code": "AT", "address": "Zur Autobahn 2", "city": "Wieselburg", "state": null, "postcode": "3250", "telephone": "+43 7416 58788", "facilities": ["tobacco", "car_wash", "high_speed_pump", "truck_suitable_site", "toilet", "shop", "bakery_bistro", "wild_bean_cafe", "accepts_routex_cards", "accepts_toll_payments", "reminder_service", "open_saturday", "open_sunday"], "products": ["ad_blue_cannister", "diesel_on", "ultimate", "ultimate_diesel", "ultimate_unleaded", "unleaded_95"], "website": null, "watchlist_id": null, "formatted_address": "Zur Autobahn 2\n3250\nWieselburg", "channel_of_trade": null}, {"id": "AT-772", "name": "Linz-Auhof, Altenberger Str. 7", "lat": 48.3316879, "lng": 14.3173009, "site_brand": "BP", "country_code": "AT", "address": "Altenberger Stra\u00dfe 7", "city": "Linz-Auhof", "state": null, "postcode": "4040", "telephone": "+43 732 245847", "facilities": ["open_24_hours", "tobacco", "car_wash", "high_speed_pump", "truck_suitable_site", "toilet", "merkur", "shop", "wild_bean_cafe", "accepts_routex_cards", "accepts_toll_payments", "reminder_service", "open_saturday", "open_sunday"], "products": ["ad_blue_cannister", "diesel_on", "ultimate", "ultimate_diesel", "ultimate_unleaded", "unleaded_95"], "website": null, "watchlist_id": null, "formatted_address": "Altenberger Stra\u00dfe 7\n4040\nLinz-Auhof", "channel_of_trade": null}, {"id": "AT-778", "name": "Woellersdorf, Autobahnzubringer", "lat": 47.859765, "lng": 16.180752, "site_brand": "BP", "country_code": "AT", "address": "Bundesstra\u00dfe 21, 406", "city": "W\u00f6llersdorf", "state": null, "postcode": "2752", "telephone": "+43 2633 42822", "facilities": ["tobacco", "high_speed_pump", "truck_suitable_site", "toilet", "shop", "bakery_bistro", "bistro", "accepts_routex_cards", "accepts_toll_payments", "reminder_service", "open_saturday", "open_sunday"], "products": ["ad_blue_cannister", "diesel_on", "ultimate", "ultimate_diesel", "ultimate_unleaded", "unleaded_95"], "website": null, "watchlist_id": null, "formatted_address": "Bundesstra\u00dfe 21, 406\n2752\nW\u00f6llersdorf", "channel_of_trade": null}, {"id": "AT-781", "name": "Wr. Neudorf, IZ Sued II", "lat": 48.0788244, "lng": 16.323924, "site_brand": "BP", "country_code": "AT", "address": "Industriezentrum S\u00fcd II", "city": "Wiener Neudorf", "state": null, "postcode": "2351", "telephone": "+43 2236 62430", "facilities": ["tobacco", "car_wash", "high_speed_pump", "truck_suitable_site", "toilet", "shop", "bakery_bistro", "wild_bean_cafe", "accepts_routex_cards", "accepts_toll_payments", "reminder_service", "open_saturday", "open_sunday"], "products": ["ad_blue_cannister", "ad_blue_pump", "diesel_on", "ultimate", "ultimate_diesel", "ultimate_unleaded", "unleaded_95", "ad_blue"], "website": null, "watchlist_id": null, "formatted_address": "Industriezentrum S\u00fcd II\n2351\nWiener Neudorf", "channel_of_trade": null}, {"id": "AT-783031554", "name": "Unken, Niederland 112", "lat": 47.665194, "lng": 12.752882, "site_brand": "BP", "country_code": "AT", "address": "Niederland 112", "city": "Unken", "state": null, "postcode": "5091", "telephone": "+43 50 8300 3400", "facilities": ["alcohol", "tobacco", "high_speed_pump", "truck_suitable_site", "disabled_facilities", "toilet", "accepts_routex_cards", "accepts_toll_payments", "reminder_service", "open_saturday", "open_sunday"], "products": ["ad_blue_cannister", "ad_blue_pump", "diesel_on", "ultimate", "ultimate_diesel", "ultimate_unleaded", "unleaded_95", "ad_blue"], "website": null, "watchlist_id": null, "formatted_address": "Niederland 112\n5091\nUnken", "channel_of_trade": null}, {"id": "AT-784", "name": "Ybbsitz, Alte Poststr. 23", "lat": 47.9486638, "lng": 14.8964086, "site_brand": "BP", "country_code": "AT", "address": "Alte Poststra\u00dfe 25", "city": "Ybbsitz", "state": null, "postcode": "3341", "telephone": "+43 7443 86514", "facilities": ["open_24_hours", "tobacco", "car_wash", "high_speed_pump", "truck_suitable_site", "toilet", "shop", "accepts_routex_cards", "reminder_service", "open_saturday", "open_sunday"], "products": ["ad_blue_cannister", "diesel_on", "ultimate", "ultimate_diesel", "ultimate_unleaded", "unleaded_95"], "website": null, "watchlist_id": null, "formatted_address": "Alte Poststra\u00dfe 25\n3341\nYbbsitz", "channel_of_trade": null}, {"id": "AT-813823608", "name": "K-TROEPOLACH, NR. 83", "lat": 46.615, "lng": 13.2806, "site_brand": "BP", "country_code": "AT", "address": "Nr. 83", "city": "Tr\u00f6polach", "state": null, "postcode": "9631", "telephone": "+43 4285 234", "facilities": ["open_24_hours", "accepts_routex_cards", "open_saturday", "open_sunday"], "products": ["ad_blue_cannister", "ad_blue_pump", "diesel_on", "ultimate", "ultimate_diesel", "ultimate_unleaded", "unleaded_95", "ad_blue"], "website": null, "watchlist_id": null, "formatted_address": "Nr. 83\n9631\nTr\u00f6polach", "channel_of_trade": null}, {"id": "AT-819646853", "name": "Wagrain, Markt 130", "lat": 47.3365068, "lng": 13.3028488, "site_brand": "BP", "country_code": "AT", "address": "Markt 130", "city": "Wagrain", "state": null, "postcode": "5602", "telephone": "+43 6413 8289", "facilities": ["toilet", "shop", "accepts_routex_cards", "accepts_toll_payments", "reminder_service", "open_saturday", "open_sunday"], "products": ["ad_blue_cannister", "ad_blue_pump", "diesel_on", "ultimate", "ultimate_diesel", "ultimate_unleaded", "unleaded_95", "ad_blue"], "website": null, "watchlist_id": null, "formatted_address": "Markt 130\n5602\nWagrain", "channel_of_trade": null}, {"id": "AT-825158955", "name": "St. Johann, Bundesstrasse 2", "lat": 47.334402, "lng": 13.1893444, "site_brand": "BP", "country_code": "AT", "address": "Bundesstra\u00dfe 2", "city": "St. Johann im Pongau", "state": null, "postcode": "5600", "telephone": "+43 50 8300 3250", "facilities": ["alcohol", "tobacco", "high_speed_pump", "truck_suitable_site", "disabled_facilities", "toilet", "bakery_bistro", "accepts_routex_cards", "accepts_toll_payments", "reminder_service", "open_saturday", "open_sunday"], "products": ["ad_blue_cannister", "ad_blue_pump", "diesel_on", "natural_gas", "ultimate", "ultimate_diesel", "ultimate_unleaded", "unleaded_95", "ad_blue"], "website": null, "watchlist_id": null, "formatted_address": "Bundesstra\u00dfe 2\n5600\nSt. Johann im Pongau", "channel_of_trade": null}, {"id": "AT-87249014", "name": "Steyr-Gleink, Ennser Str. 95", "lat": 48.0819055, "lng": 14.4271206, "site_brand": "BP", "country_code": "AT", "address": "Ennserstra\u00dfe 95", "city": "Steyr-Gleink", "state": null, "postcode": "4407", "telephone": "+43 732 664001", "facilities": ["toilet", "accepts_routex_cards", "reminder_service", "open_saturday", "open_sunday"], "products": ["ad_blue_cannister", "diesel_on", "ultimate", "ultimate_diesel", "ultimate_unleaded", "unleaded_95"], "website": null, "watchlist_id": "87249014", "formatted_address": "Ennserstra\u00dfe 95\n4407\nSteyr-Gleink", "channel_of_trade": null}, {"id": "AT-8758", "name": "Schwechat-Flughafen, Ausfahrtsstr. 1", "lat": 48.124809, "lng": 16.561996, "site_brand": "BP", "country_code": "AT", "address": "Ausfahrtsstra\u00dfe", "city": "Schwechat-Flughafen", "state": null, "postcode": "1300", "telephone": "+43 1 700732618", "facilities": ["open_24_hours", "tobacco", "car_wash", "high_speed_pump", "truck_suitable_site", "toilet", "shop", "bakery_bistro", "wild_bean_cafe", "accepts_routex_cards", "accepts_toll_payments", "reminder_service", "open_saturday", "open_sunday"], "products": ["ad_blue_cannister", "diesel_on", "ultimate", "ultimate_diesel", "ultimate_unleaded", "unleaded_95"], "website": null, "watchlist_id": null, "formatted_address": "Ausfahrtsstra\u00dfe\n1300\nSchwechat-Flughafen", "channel_of_trade": null}, {"id": "AT-8945", "name": "Leoben-Goess, Hirschgraben 7", "lat": 47.3640164, "lng": 15.0961791, "site_brand": "BP", "country_code": "AT", "address": "Hirschgraben", "city": "Leoben-Goess", "state": null, "postcode": "8707", "telephone": "+43 3842 22194", "facilities": ["open_24_hours", "tobacco", "car_wash", "high_speed_pump", "truck_suitable_site", "toilet", "merkur", "shop", "bakery_bistro", "wild_bean_cafe", "accepts_routex_cards", "accepts_toll_payments", "reminder_service", "open_saturday", "open_sunday"], "products": ["ad_blue_cannister", "diesel_on", "ultimate", "ultimate_diesel", "ultimate_unleaded", "unleaded_95"], "website": null, "watchlist_id": null, "formatted_address": "Hirschgraben\n8707\nLeoben-Goess", "channel_of_trade": null}, {"id": "AT-8946", "name": "Knittelfeld, Wiener Str. 51", "lat": 47.2202, "lng": 14.829, "site_brand": "BP", "country_code": "AT", "address": "Wiener Stra\u00dfe 51", "city": "Knittelfeld", "state": null, "postcode": "8720", "telephone": "+43 3512 83710", "facilities": ["tobacco", "car_wash", "high_speed_pump", "truck_suitable_site", "toilet", "accepts_routex_cards", "accepts_toll_payments", "reminder_service", "open_saturday", "open_sunday"], "products": ["ad_blue_cannister", "ad_blue_pump", "diesel_on", "ultimate", "ultimate_diesel", "ultimate_unleaded", "unleaded_95", "ad_blue"], "website": null, "watchlist_id": null, "formatted_address": "Wiener Stra\u00dfe 51\n8720\nKnittelfeld", "channel_of_trade": null}, {"id": "AT-8947", "name": "Schaerding, Passauer Str. 29", "lat": 48.4642133, "lng": 13.4356022, "site_brand": "BP", "country_code": "AT", "address": "Passauer Stra\u00dfe 29", "city": "Sch\u00e4rding", "state": null, "postcode": "4780", "telephone": "+43 7712 50021", "facilities": ["tobacco", "car_wash", "high_speed_pump", "truck_suitable_site", "toilet", "merkur", "shop", "bakery_bistro", "wild_bean_cafe", "accepts_routex_cards", "accepts_toll_payments", "reminder_service", "open_saturday", "open_sunday"], "products": ["ad_blue_cannister", "diesel_on", "ultimate", "ultimate_diesel", "ultimate_unleaded", "unleaded_95"], "website": null, "watchlist_id": null, "formatted_address": "Passauer Stra\u00dfe 29\n4780\nSch\u00e4rding", "channel_of_trade": null}, {"id": "AT-8952", "name": "Maishofen, Zellerstr. 29", "lat": 47.3507, "lng": 12.8005, "site_brand": "BP", "country_code": "AT", "address": "Zellerstra\u00dfe 29", "city": "Maishofen", "state": null, "postcode": "5751", "telephone": "+43 6542 68056", "facilities": ["tobacco", "car_wash", "high_speed_pump", "truck_suitable_site", "toilet", "merkur", "shop", "bakery_bistro", "wild_bean_cafe", "accepts_routex_cards", "accepts_toll_payments", "reminder_service", "open_saturday", "open_sunday"], "products": ["ad_blue_cannister", "diesel_on", "natural_gas", "ultimate", "ultimate_diesel", "ultimate_unleaded", "unleaded_95"], "website": null, "watchlist_id": null, "formatted_address": "Zellerstra\u00dfe 29\n5751\nMaishofen", "channel_of_trade": null}, {"id": "AT-8955", "name": "Natschbach, Schnellstr. S6", "lat": 47.7067365, "lng": 16.102159, "site_brand": "BP", "country_code": "AT", "address": "Schnellstra\u00dfe S 6", "city": "Natschbach", "state": null, "postcode": "2620", "telephone": "+43 2635 69714", "facilities": ["open_24_hours", "tobacco", "high_speed_pump", "truck_suitable_site", "toilet", "bakery_bistro", "accepts_routex_cards", "accepts_toll_payments", "reminder_service", "open_saturday", "open_sunday"], "products": ["ad_blue_cannister", "diesel_on", "ultimate", "ultimate_diesel", "ultimate_unleaded", "unleaded_95"], "website": null, "watchlist_id": null, "formatted_address": "Schnellstra\u00dfe S 6\n2620\nNatschbach", "channel_of_trade": null}, {"id": "AT-8956", "name": "Sattledt", "lat": 48.0670337, "lng": 14.033948, "site_brand": "BP", "country_code": "AT", "address": "Voralpenkreuz A8", "city": "Sattledt/Voralpenkreuz", "state": null, "postcode": "4642", "telephone": "+43 7244 20189", "facilities": ["open_24_hours", "tobacco", "high_speed_pump", "truck_parking", "truck_suitable_site", "toilet", "wifi", "motorway_site", "shop", "bakery_bistro", "restaurant", "wild_bean_cafe", "accepts_routex_cards", "accepts_toll_payments", "reminder_service", "open_saturday", "open_sunday"], "products": ["ad_blue_cannister", "ad_blue_pump", "diesel_on", "ultimate", "ultimate_diesel", "ultimate_unleaded", "unleaded_95", "ad_blue"], "website": null, "watchlist_id": null, "formatted_address": "Voralpenkreuz A8\n4642\nSattledt/Voralpenkreuz", "channel_of_trade": null}, {"id": "AT-8957", "name": "St. Poelten, Mariazellerstr. 264", "lat": 48.1574248, "lng": 15.6142557, "site_brand": "BP", "country_code": "AT", "address": "Mariazeller Stra\u00dfe 264", "city": "St. P\u00f6lten", "state": null, "postcode": "3100", "telephone": "+43 2742 883738", "facilities": ["tobacco", "car_wash", "high_speed_pump", "truck_suitable_site", "toilet", "shop", "bakery_bistro", "wild_bean_cafe", "accepts_routex_cards", "accepts_toll_payments", "reminder_service", "open_saturday", "open_sunday"], "products": ["ad_blue_cannister", "diesel_on", "ultimate", "ultimate_diesel", "ultimate_unleaded", "unleaded_95"], "website": null, "watchlist_id": null, "formatted_address": "Mariazeller Stra\u00dfe 264\n3100\nSt. P\u00f6lten", "channel_of_trade": null}, {"id": "AT-8960", "name": "Bergheim/Lengfelden, B156", "lat": 47.8441697, "lng": 13.0505776, "site_brand": "BP", "country_code": "AT", "address": "Lamprechtshausener Str. 3. B156", "city": "Bergheim / Lengfelden", "state": null, "postcode": "5101", "telephone": "+43 662 453775", "facilities": ["open_24_hours", "tobacco", "car_wash", "high_speed_pump", "truck_suitable_site", "toilet", "merkur", "shop", "bakery_bistro", "wild_bean_cafe", "accepts_routex_cards", "accepts_toll_payments", "reminder_service", "open_saturday", "open_sunday"], "products": ["ad_blue_cannister", "ad_blue_pump", "diesel_on", "natural_gas", "ultimate", "ultimate_diesel", "ultimate_unleaded", "unleaded_95", "ad_blue"], "website": null, "watchlist_id": null, "formatted_address": "Lamprechtshausener Str. 3. B156\n5101\nBergheim / Lengfelden", "channel_of_trade": null}, {"id": "AT-8961", "name": "Voellerndorf Truck-only, A1", "lat": 48.176044, "lng": 15.556898, "site_brand": "BP", "country_code": "AT", "address": "An Der Raststation-Lkw", "city": "V\u00f6llerndorf/St.P\u00f6lten", "state": null, "postcode": "3385", "telephone": "800223350", "facilities": ["open_24_hours", "high_speed_pump", "truck_parking", "truck_suitable_site", "toilet", "motorway_site", "shop", "bakery_bistro", "bistro", "restaurant", "accepts_routex_cards", "reminder_service", "open_saturday", "open_sunday"], "products": ["ad_blue_pump", "diesel_on", "hvo", "ad_blue"], "website": null, "watchlist_id": null, "formatted_address": "An Der Raststation-Lkw\n3385\nV\u00f6llerndorf/St.P\u00f6lten", "channel_of_trade": null}, {"id": "AT-8962", "name": "Wien 12, Breitenfurterstr. 112", "lat": 48.160533, "lng": 16.309534, "site_brand": "BP", "country_code": "AT", "address": "Breitenfurter Stra\u00dfe 112", "city": "Wien", "state": null, "postcode": "1120", "telephone": "+43 1 8023624", "facilities": ["tobacco", "high_speed_pump", "truck_suitable_site", "toilet", "shop", "bakery_bistro", "wild_bean_cafe", "accepts_routex_cards", "accepts_toll_payments", "reminder_service", "open_saturday", "open_sunday"], "products": ["ad_blue_cannister", "diesel_on", "ultimate", "ultimate_diesel", "ultimate_unleaded", "unleaded_95"], "website": null, "watchlist_id": null, "formatted_address": "Breitenfurter Stra\u00dfe 112\n1120\nWien", "channel_of_trade": null}, {"id": "AT-897575300", "name": "Werndorf, Gewerbepark 1", "lat": 46.933411, "lng": 15.467321, "site_brand": "BP", "country_code": "AT", "address": "Gewerbepark 1", "city": "Werndorf", "state": null, "postcode": "8402", "telephone": "+43 3135 57199", "facilities": ["open_24_hours", "high_speed_pump", "truck_parking", "truck_suitable_site", "restaurant", "accepts_routex_cards", "accepts_toll_payments", "reminder_service", "open_saturday", "open_sunday"], "products": ["ad_blue_cannister", "ad_blue_pump", "diesel_on", "hvo", "ultimate", "ultimate_diesel", "ultimate_unleaded", "unleaded_95", "ad_blue"], "website": null, "watchlist_id": null, "formatted_address": "Gewerbepark 1\n8402\nWerndorf", "channel_of_trade": null}, {"id": "AT-9832", "name": "Bludenz, Montafoner Str. 29", "lat": 47.141829, "lng": 9.833412, "site_brand": "BP", "country_code": "AT", "address": "Montafoner Strasse 29", "city": "Bludenz", "state": null, "postcode": "6700", "telephone": "+43 50 8300 4550", "facilities": ["alcohol", "tobacco", "high_speed_pump", "truck_suitable_site", "toilet", "shop", "bakery_bistro", "accepts_routex_cards", "accepts_toll_payments", "reminder_service", "open_saturday", "open_sunday"], "products": ["ad_blue_cannister", "ad_blue_pump", "diesel_on", "ultimate", "ultimate_diesel", "ultimate_unleaded", "unleaded_95", "ad_blue"], "website": null, "watchlist_id": null, "formatted_address": "Montafoner Strasse 29\n6700\nBludenz", "channel_of_trade": null}, {"id": "AT-9833", "name": "Pressbaum, Hauptstr. 54", "lat": 48.1803, "lng": 16.078, "site_brand": "BP", "country_code": "AT", "address": "Hauptstra\u00dfe 54", "city": "Pressbaum", "state": null, "postcode": "3021", "telephone": "+43 2233 52543", "facilities": ["tobacco", "car_wash", "high_speed_pump", "truck_suitable_site", "toilet", "merkur", "shop", "bakery_bistro", "restaurant", "wild_bean_cafe", "accepts_routex_cards", "accepts_toll_payments", "reminder_service", "open_saturday", "open_sunday"], "products": ["ad_blue_cannister", "diesel_on", "ultimate", "ultimate_diesel", "ultimate_unleaded", "unleaded_95"], "website": null, "watchlist_id": null, "formatted_address": "Hauptstra\u00dfe 54\n3021\nPressbaum", "channel_of_trade": null}, {"id": "AT-9834", "name": "Rankweil, Stiegstr. 63", "lat": 47.2798, "lng": 9.64971, "site_brand": "BP", "country_code": "AT", "address": "Stiegstra\u00dfe 63", "city": "Rankweil", "state": null, "postcode": "6830", "telephone": "+43 5522 44581", "facilities": ["tobacco", "car_wash", "high_speed_pump", "truck_suitable_site", "shop", "bakery_bistro", "wild_bean_cafe", "accepts_routex_cards", "accepts_toll_payments", "reminder_service", "open_saturday", "open_sunday"], "products": ["ad_blue_cannister", "diesel_on", "ultimate", "ultimate_diesel", "ultimate_unleaded", "unleaded_95"], "website": null, "watchlist_id": null, "formatted_address": "Stiegstra\u00dfe 63\n6830\nRankweil", "channel_of_trade": null}, {"id": "AT-9836", "name": "Traiskirchen, Wiener Str. 58", "lat": 48.021232, "lng": 16.297963, "site_brand": "BP", "country_code": "AT", "address": "Wiener Stra\u00dfe 58", "city": "Traiskirchen", "state": null, "postcode": "2514", "telephone": "+43 2252 52359", "facilities": ["tobacco", "car_wash", "high_speed_pump", "truck_suitable_site", "toilet", "shop", "wild_bean_cafe", "accepts_routex_cards", "accepts_toll_payments", "reminder_service", "open_saturday", "open_sunday"], "products": ["ad_blue_cannister", "diesel_on", "ultimate", "ultimate_diesel", "ultimate_unleaded", "unleaded_95"], "website": null, "watchlist_id": null, "formatted_address": "Wiener Stra\u00dfe 58\n2514\nTraiskirchen", "channel_of_trade": null}, {"id": "AT-9839", "name": "Lustenau, Reichshofstr.", "lat": 47.4243142, "lng": 9.6517039, "site_brand": "BP", "country_code": "AT", "address": "Reichshofstra\u00dfe", "city": "Lustenau", "state": null, "postcode": "6890", "telephone": "+43 5577 62385", "facilities": ["tobacco", "car_wash", "high_speed_pump", "truck_suitable_site", "toilet", "accepts_routex_cards", "accepts_toll_payments", "reminder_service", "open_saturday", "open_sunday"], "products": ["ad_blue_cannister", "diesel_on", "ultimate", "ultimate_diesel", "ultimate_unleaded", "unleaded_95"], "website": null, "watchlist_id": null, "formatted_address": "Reichshofstra\u00dfe\n6890\nLustenau", "channel_of_trade": null}, {"id": "AT-9849", "name": "Feldkirch-Gisingen, Haemmerlestr. 99", "lat": 47.2411, "lng": 9.59102, "site_brand": "BP", "country_code": "AT", "address": "H\u00e4mmerlestra\u00dfe 99", "city": "Feldkirch-Gisingen", "state": null, "postcode": "6805", "telephone": "+43 5522 73455", "facilities": ["tobacco", "car_wash", "high_speed_pump", "truck_suitable_site", "toilet", "merkur", "shop", "bakery_bistro", "wild_bean_cafe", "accepts_routex_cards", "accepts_toll_payments", "reminder_service", "open_saturday", "open_sunday"], "products": ["ad_blue_cannister", "diesel_on", "ultimate", "ultimate_diesel", "ultimate_unleaded", "unleaded_95"], "website": null, "watchlist_id": null, "formatted_address": "H\u00e4mmerlestra\u00dfe 99\n6805\nFeldkirch-Gisingen", "channel_of_trade": null}, {"id": "AT-9850", "name": "Berndorf, Leobersdorfer Str. 12", "lat": 47.9436, "lng": 16.1115, "site_brand": "BP", "country_code": "AT", "address": "Leobersdorfer Stra\u00dfe 12", "city": "Berndorf", "state": null, "postcode": "2560", "telephone": "+43 2672 82579", "facilities": ["tobacco", "car_wash", "high_speed_pump", "truck_suitable_site", "toilet", "merkur", "shop", "bakery_bistro", "wild_bean_cafe", "accepts_routex_cards", "accepts_toll_payments", "reminder_service", "open_saturday", "open_sunday"], "products": ["ad_blue_cannister", "diesel_on", "ultimate", "ultimate_diesel", "ultimate_unleaded", "unleaded_95"], "website": null, "watchlist_id": null, "formatted_address": "Leobersdorfer Stra\u00dfe 12\n2560\nBerndorf", "channel_of_trade": null}, {"id": "AT-9851", "name": "Wien 10, Triesterstr. 68", "lat": 48.1656, "lng": 16.3465, "site_brand": "BP", "country_code": "AT", "address": "Triesterstra\u00dfe 68", "city": "Wien", "state": null, "postcode": "1100", "telephone": "+43 1 6676173", "facilities": ["open_24_hours", "tobacco", "car_wash", "high_speed_pump", "truck_suitable_site", "toilet", "merkur", "shop", "bakery_bistro", "wild_bean_cafe", "accepts_routex_cards", "accepts_toll_payments", "reminder_service", "shop_open_24_hours", "open_saturday", "open_sunday"], "products": ["ad_blue_cannister", "auto_gas", "diesel_on", "natural_gas", "ultimate", "ultimate_diesel", "ultimate_unleaded", "unleaded_95"], "website": null, "watchlist_id": null, "formatted_address": "Triesterstra\u00dfe 68\n1100\nWien", "channel_of_trade": null}, {"id": "AT-9854", "name": "Telfs, Bundesstr. 1", "lat": 47.307517, "lng": 11.079287, "site_brand": "BP", "country_code": "AT", "address": "Untermarktstra\u00dfe 61", "city": "Telfs", "state": null, "postcode": "6410", "telephone": "+43 5262 62162", "facilities": ["tobacco", "high_speed_pump", "truck_suitable_site", "toilet", "shop", "wild_bean_cafe", "accepts_routex_cards", "accepts_toll_payments", "reminder_service", "open_saturday", "open_sunday"], "products": ["ad_blue_cannister", "diesel_on", "ultimate", "ultimate_diesel", "ultimate_unleaded", "unleaded_95"], "website": null, "watchlist_id": null, "formatted_address": "Untermarktstra\u00dfe 61\n6410\nTelfs", "channel_of_trade": null}, {"id": "AT-9855", "name": "Fuegen im Zillertal, Bundesstr. 271", "lat": 47.3454, "lng": 11.8528, "site_brand": "BP", "country_code": "AT", "address": "Zillertalstra\u00dfe 35", "city": "F\u00fcgen", "state": null, "postcode": "6263", "telephone": "+43 5288 62413", "facilities": ["tobacco", "high_speed_pump", "truck_suitable_site", "toilet", "accepts_routex_cards", "accepts_toll_payments", "reminder_service", "open_saturday", "open_sunday"], "products": ["ad_blue_cannister", "diesel_on", "ultimate", "ultimate_diesel", "ultimate_unleaded", "unleaded_95"], "website": null, "watchlist_id": null, "formatted_address": "Zillertalstra\u00dfe 35\n6263\nF\u00fcgen", "channel_of_trade": null}, {"id": "AT-9859", "name": "Nauders, Bundesstr. 292", "lat": 46.894343, "lng": 10.498367, "site_brand": "BP", "country_code": "AT", "address": "Bundesstra\u00dfe 292", "city": "Nauders", "state": null, "postcode": "6543", "telephone": "+43 5473 87336", "facilities": ["tobacco", "high_speed_pump", "truck_suitable_site", "toilet", "accepts_routex_cards", "accepts_toll_payments", "reminder_service", "open_saturday", "open_sunday"], "products": ["ad_blue_cannister", "diesel_on", "ultimate", "ultimate_diesel", "ultimate_unleaded", "unleaded_95"], "website": null, "watchlist_id": null, "formatted_address": "Bundesstra\u00dfe 292\n6543\nNauders", "channel_of_trade": null}, {"id": "AT-9861", "name": "Steyrermuehl, Laakirchner Hauptstr. 43", "lat": 47.9893129, "lng": 13.811732, "site_brand": "BP", "country_code": "AT", "address": "Laakirchner Hauptstra\u00dfe 43", "city": "Steyrerm\u00fchl", "state": null, "postcode": "4662", "telephone": "+43 7613 2217", "facilities": ["tobacco", "car_wash", "high_speed_pump", "truck_suitable_site", "toilet", "merkur", "shop", "bakery_bistro", "wild_bean_cafe", "accepts_routex_cards", "accepts_toll_payments", "reminder_service", "open_saturday", "open_sunday"], "products": ["ad_blue_cannister", "diesel_on", "hvo", "ultimate", "ultimate_diesel", "ultimate_unleaded", "unleaded_95"], "website": null, "watchlist_id": null, "formatted_address": "Laakirchner Hauptstra\u00dfe 43\n4662\nSteyrerm\u00fchl", "channel_of_trade": null}, {"id": "AT-9865", "name": "Fussach, Harderstr. 84", "lat": 47.4674, "lng": 9.65825, "site_brand": "BP", "country_code": "AT", "address": "Harderstra\u00dfe 84", "city": "Fussach", "state": null, "postcode": "6972", "telephone": "+43 5578 75718", "facilities": ["tobacco", "car_wash", "high_speed_pump", "truck_suitable_site", "toilet", "merkur", "shop", "bakery_bistro", "wild_bean_cafe", "accepts_routex_cards", "accepts_toll_payments", "reminder_service", "open_saturday", "open_sunday"], "products": ["ad_blue_cannister", "diesel_on", "ultimate", "ultimate_diesel", "ultimate_unleaded", "unleaded_95"], "website": null, "watchlist_id": null, "formatted_address": "Harderstra\u00dfe 84\n6972\nFussach", "channel_of_trade": null}, {"id": "AT-9866", "name": "Friesach, Neumarkter Str. 32", "lat": 46.9600032, "lng": 14.4010809, "site_brand": "BP", "country_code": "AT", "address": "Neumarkter Stra\u00dfe 32", "city": "Friesach", "state": null, "postcode": "9360", "telephone": "+43 4268 2504", "facilities": ["tobacco", "car_wash", "high_speed_pump", "truck_suitable_site", "toilet", "accepts_routex_cards", "accepts_toll_payments", "reminder_service", "open_saturday", "open_sunday"], "products": ["ad_blue_cannister", "ad_blue_pump", "diesel_on", "ultimate", "ultimate_diesel", "ultimate_unleaded", "unleaded_95", "ad_blue"], "website": null, "watchlist_id": null, "formatted_address": "Neumarkter Stra\u00dfe 32\n9360\nFriesach", "channel_of_trade": null}, {"id": "AT-9867", "name": "Soelden, Dorfstr. 148", "lat": 46.9631, "lng": 11.0077, "site_brand": "BP", "country_code": "AT", "address": "Dorfstra\u00dfe 148", "city": "S\u00f6lden", "state": null, "postcode": "6450", "telephone": "+43 5254 2466", "facilities": ["tobacco", "car_wash", "high_speed_pump", "truck_suitable_site", "toilet", "shop", "bakery_bistro", "wild_bean_cafe", "accepts_routex_cards", "accepts_toll_payments", "reminder_service", "open_saturday", "open_sunday"], "products": ["ad_blue_cannister", "diesel_on", "ultimate", "ultimate_diesel", "ultimate_unleaded", "unleaded_95"], "website": null, "watchlist_id": null, "formatted_address": "Dorfstra\u00dfe 148\n6450\nS\u00f6lden", "channel_of_trade": null}, {"id": "AT-9868", "name": "Mutters, Innsbrucker Str. 24", "lat": 47.2302, "lng": 11.3809, "site_brand": "BP", "country_code": "AT", "address": "Innsbrucker Stra\u00dfe 24", "city": "Mutters", "state": null, "postcode": "6162", "telephone": "+43 5224 9090062", "facilities": ["tobacco", "high_speed_pump", "truck_suitable_site", "toilet", "accepts_routex_cards", "accepts_toll_payments", "reminder_service", "open_saturday", "open_sunday"], "products": ["ad_blue_cannister", "ad_blue_pump", "diesel_on", "lpg", "ultimate", "ultimate_diesel", "ultimate_unleaded", "unleaded_95", "ad_blue"], "website": null, "watchlist_id": null, "formatted_address": "Innsbrucker Stra\u00dfe 24\n6162\nMutters", "channel_of_trade": null}, {"id": "AT-9869", "name": "Moellbruecke, Moelltalstr. 33", "lat": 46.8367, "lng": 13.3737, "site_brand": "BP", "country_code": "AT", "address": "M\u00f6lltalstra\u00dfe 33", "city": "M\u00f6llbr\u00fccke", "state": null, "postcode": "9813", "telephone": "+43 4769 2458", "facilities": ["tobacco", "car_wash", "high_speed_pump", "truck_suitable_site", "toilet", "bakery_bistro", "accepts_routex_cards", "accepts_toll_payments", "reminder_service", "open_saturday", "open_sunday"], "products": ["ad_blue_cannister", "diesel_on", "ultimate", "ultimate_diesel", "ultimate_unleaded", "unleaded_95"], "website": null, "watchlist_id": null, "formatted_address": "M\u00f6lltalstra\u00dfe 33\n9813\nM\u00f6llbr\u00fccke", "channel_of_trade": null}, {"id": "AT-9871", "name": "Goetzis, Im Buch 43", "lat": 47.3397706, "lng": 9.6521602, "site_brand": "BP", "country_code": "AT", "address": "Im Buch 43", "city": "G\u00f6tzis", "state": null, "postcode": "6840", "telephone": "+43 5523 62719", "facilities": ["tobacco", "car_wash", "truck_suitable_site", "toilet", "shop", "bakery_bistro", "wild_bean_cafe", "accepts_routex_cards", "accepts_toll_payments", "reminder_service", "open_saturday", "open_sunday"], "products": ["ad_blue_cannister", "diesel_on", "ultimate", "ultimate_diesel", "ultimate_unleaded", "unleaded_95"], "website": null, "watchlist_id": null, "formatted_address": "Im Buch 43\n6840\nG\u00f6tzis", "channel_of_trade": null}, {"id": "AT-9872", "name": "Weiz, Gleisdorfer Str. 60", "lat": 47.2123, "lng": 15.6293, "site_brand": "BP", "country_code": "AT", "address": "Gleisdorfer Stra\u00dfe 60", "city": "Weiz", "state": null, "postcode": "8160", "telephone": "+43 3172 41724", "facilities": ["tobacco", "car_wash", "high_speed_pump", "truck_suitable_site", "toilet", "merkur", "shop", "bakery_bistro", "wild_bean_cafe", "accepts_routex_cards", "accepts_toll_payments", "reminder_service", "open_saturday", "open_sunday"], "products": ["ad_blue_cannister", "diesel_on", "ultimate", "ultimate_diesel", "ultimate_unleaded", "unleaded_95"], "website": null, "watchlist_id": null, "formatted_address": "Gleisdorfer Stra\u00dfe 60\n8160\nWeiz", "channel_of_trade": null}, {"id": "AT-9873", "name": "Voellerndorf, Autobahn, PKW", "lat": 48.1774881, "lng": 15.5527113, "site_brand": "BP", "country_code": "AT", "address": "Autobahn St.P\u00f6lten-Pkw", "city": "V\u00f6llerndorf/St.P\u00f6lten", "state": null, "postcode": "3385", "telephone": "+43 2749 2511", "facilities": ["open_24_hours", "tobacco", "high_speed_pump", "truck_suitable_site", "toilet", "wifi", "motorway_site", "shop", "bakery_bistro", "restaurant", "wild_bean_cafe", "accepts_routex_cards", "accepts_toll_payments", "reminder_service", "open_saturday", "open_sunday"], "products": ["ad_blue_cannister", "diesel_on", "ultimate", "ultimate_diesel", "ultimate_unleaded", "unleaded_95"], "website": null, "watchlist_id": null, "formatted_address": "Autobahn St.P\u00f6lten-Pkw\n3385\nV\u00f6llerndorf/St.P\u00f6lten", "channel_of_trade": null}, {"id": "AT-9875", "name": "Egg im Bregenzerwald, Bundesstr.", "lat": 47.432516, "lng": 9.895364, "site_brand": "BP", "country_code": "AT", "address": "Bundesstra\u00dfe", "city": "Egg im Bregenzerwald", "state": null, "postcode": "6863", "telephone": "+43 5512 2530", "facilities": ["tobacco", "car_wash", "high_speed_pump", "truck_suitable_site", "toilet", "shop", "bakery_bistro", "wild_bean_cafe", "accepts_routex_cards", "accepts_toll_payments", "reminder_service", "open_saturday", "open_sunday"], "products": ["ad_blue_cannister", "diesel_on", "ultimate", "ultimate_diesel", "ultimate_unleaded", "unleaded_95"], "website": null, "watchlist_id": null, "formatted_address": "Bundesstra\u00dfe\n6863\nEgg im Bregenzerwald", "channel_of_trade": null}, {"id": "AT-9876", "name": "Fladnitz, Schrems 3", "lat": 47.2685733, "lng": 15.4807577, "site_brand": "BP", "country_code": "AT", "address": "Schrems 3", "city": "Fladnitz", "state": null, "postcode": "8163", "telephone": "+43 3179 6132", "facilities": ["tobacco", "car_wash", "high_speed_pump", "truck_suitable_site", "truck_wash", "toilet", "shop", "restaurant", "accepts_routex_cards", "accepts_toll_payments", "reminder_service", "open_saturday", "open_sunday"], "products": ["ad_blue_cannister", "diesel_on", "ultimate", "ultimate_diesel", "ultimate_unleaded", "unleaded_95"], "website": null, "watchlist_id": null, "formatted_address": "Schrems 3\n8163\nFladnitz", "channel_of_trade": null}, {"id": "AT-9877", "name": "Innsbruck, Amraser Seestr. 10", "lat": 47.2609, "lng": 11.4213, "site_brand": "BP", "country_code": "AT", "address": "Amraser Seestra\u00dfe 10", "city": "Innsbruck", "state": null, "postcode": "6020", "telephone": "+43 50 8300 4000", "facilities": ["alcohol", "tobacco", "high_speed_pump", "truck_suitable_site", "toilet", "accepts_routex_cards", "accepts_toll_payments", "reminder_service", "open_saturday", "open_sunday"], "products": ["ad_blue_cannister", "ad_blue_pump", "diesel_on", "ultimate", "ultimate_diesel", "ultimate_unleaded", "unleaded_95", "ad_blue"], "website": null, "watchlist_id": null, "formatted_address": "Amraser Seestra\u00dfe 10\n6020\nInnsbruck", "channel_of_trade": null}, {"id": "AT-9883", "name": "Flachau/Tauernalm", "lat": 47.2488361, "lng": 13.4247908, "site_brand": "BP", "country_code": "AT", "address": "Flachauwinklstra\u00dfe 182", "city": "Flachau/Tauernalm", "state": null, "postcode": "5542", "telephone": "+43 6457 33737", "facilities": ["open_24_hours", "tobacco", "high_speed_pump", "truck_parking", "truck_suitable_site", "toilet", "wifi", "motorway_site", "shop", "bakery_bistro", "restaurant", "wild_bean_cafe", "accepts_routex_cards", "accepts_toll_payments", "reminder_service", "open_saturday", "open_sunday"], "products": ["ad_blue_cannister", "ad_blue_pump", "diesel_on", "hvo", "ultimate", "ultimate_diesel", "ultimate_unleaded", "unleaded_95", "ad_blue"], "website": null, "watchlist_id": null, "formatted_address": "Flachauwinklstra\u00dfe 182\n5542\nFlachau/Tauernalm", "channel_of_trade": null}, {"id": "AT-9884", "name": "Aistersheim (A8)", "lat": 48.1789656, "lng": 13.7470789, "site_brand": "BP", "country_code": "AT", "address": "Innkreisautobahn A8", "city": "Aistersheim", "state": null, "postcode": "4676", "telephone": "+43 7734 2232", "facilities": ["open_24_hours", "tobacco", "high_speed_pump", "truck_parking", "truck_suitable_site", "toilet", "wifi", "motorway_site", "shop", "bakery_bistro", "restaurant", "wild_bean_cafe", "accepts_routex_cards", "accepts_toll_payments", "reminder_service", "open_saturday", "open_sunday"], "products": ["ad_blue_cannister", "ad_blue_pump", "diesel_on", "hvo", "ultimate", "ultimate_diesel", "ultimate_unleaded", "unleaded_95", "ad_blue"], "website": null, "watchlist_id": null, "formatted_address": "Innkreisautobahn A8\n4676\nAistersheim", "channel_of_trade": null}, {"id": "AT-9885", "name": "Marchtrenk, Linzerstr. 62", "lat": 48.1914, "lng": 14.1214, "site_brand": "BP", "country_code": "AT", "address": "Linzerstra\u00dfe 62", "city": "Marchtrenk", "state": null, "postcode": "4614", "telephone": "+43 7243 54456", "facilities": ["open_24_hours", "tobacco", "car_wash", "high_speed_pump", "truck_suitable_site", "toilet", "shop", "bakery_bistro", "wild_bean_cafe", "accepts_routex_cards", "accepts_toll_payments", "reminder_service", "open_saturday", "open_sunday"], "products": ["ad_blue_cannister", "diesel_on", "ultimate", "ultimate_diesel", "ultimate_unleaded", "unleaded_95"], "website": null, "watchlist_id": null, "formatted_address": "Linzerstra\u00dfe 62\n4614\nMarchtrenk", "channel_of_trade": null}, {"id": "AT-9886", "name": "Strasswalchen, Braunauer Str. 28", "lat": 47.9881, "lng": 13.2495, "site_brand": "BP", "country_code": "AT", "address": "Braunauer Stra\u00dfe 28", "city": "Strasswalchen", "state": null, "postcode": "5204", "telephone": "+43 50 8300 3150", "facilities": ["alcohol", "tobacco", "toilet", "shop", "bistro", "accepts_routex_cards", "accepts_toll_payments", "reminder_service", "open_saturday", "open_sunday"], "products": ["ad_blue_cannister", "ad_blue_pump", "diesel_on", "ultimate", "ultimate_diesel", "ultimate_unleaded", "unleaded_95", "ad_blue"], "website": null, "watchlist_id": null, "formatted_address": "Braunauer Stra\u00dfe 28\n5204\nStrasswalchen", "channel_of_trade": null}, {"id": "AT-9888", "name": "Ischgl, Nr. 315", "lat": 47.0157, "lng": 10.2969, "site_brand": "BP", "country_code": "AT", "address": "Silvrettastra\u00dfe 17", "city": "Ischgl", "state": null, "postcode": "6561", "telephone": "+43 5444 5787", "facilities": ["tobacco", "car_wash", "high_speed_pump", "truck_suitable_site", "toilet", "shop", "bakery_bistro", "wild_bean_cafe", "accepts_routex_cards", "accepts_toll_payments", "reminder_service", "open_saturday", "open_sunday"], "products": ["ad_blue_cannister", "diesel_on", "ultimate", "ultimate_diesel", "ultimate_unleaded", "unleaded_95"], "website": null, "watchlist_id": null, "formatted_address": "Silvrettastra\u00dfe 17\n6561\nIschgl", "channel_of_trade": null}, {"id": "AT-9890", "name": "Steinach am Brenner, Erlach 138", "lat": 47.0953, "lng": 11.4655, "site_brand": "BP", "country_code": "AT", "address": "Erlach 138", "city": "Steinach am Brenner", "state": null, "postcode": "6150", "telephone": "+43 5272 2260", "facilities": ["tobacco", "car_wash", "high_speed_pump", "truck_suitable_site", "toilet", "shop", "bakery_bistro", "wild_bean_cafe", "accepts_routex_cards", "accepts_toll_payments", "reminder_service", "open_saturday", "open_sunday"], "products": ["ad_blue_cannister", "diesel_on", "ultimate", "ultimate_diesel", "ultimate_unleaded", "unleaded_95"], "website": null, "watchlist_id": null, "formatted_address": "Erlach 138\n6150\nSteinach am Brenner", "channel_of_trade": null}, {"id": "AT-9891", "name": "Krems, Wiener Str. 76", "lat": 48.415, "lng": 15.6175, "site_brand": "BP", "country_code": "AT", "address": "Wiener Stra\u00dfe 76", "city": "Krems", "state": null, "postcode": "3500", "telephone": "+43 2732 77998", "facilities": ["open_24_hours", "tobacco", "car_wash", "high_speed_pump", "truck_suitable_site", "toilet", "merkur", "shop", "bakery_bistro", "restaurant", "wild_bean_cafe", "accepts_routex_cards", "accepts_toll_payments", "reminder_service", "open_saturday", "open_sunday"], "products": ["ad_blue_cannister", "diesel_on", "ultimate", "ultimate_diesel", "ultimate_unleaded", "unleaded_95"], "website": null, "watchlist_id": null, "formatted_address": "Wiener Stra\u00dfe 76\n3500\nKrems", "channel_of_trade": null}, {"id": "AT-9893", "name": "Kufstein, Rosenheimer Str. 6", "lat": 47.5938, "lng": 12.1773, "site_brand": "BP", "country_code": "AT", "address": "Rosenheimer Stra\u00dfe 6", "city": "Kufstein", "state": null, "postcode": "6330", "telephone": "+43 5372 71021", "facilities": ["open_24_hours", "tobacco", "car_wash", "high_speed_pump", "truck_suitable_site", "toilet", "merkur", "shop", "bakery_bistro", "wild_bean_cafe", "accepts_routex_cards", "accepts_toll_payments", "reminder_service", "open_saturday", "open_sunday"], "products": ["ad_blue_cannister", "ad_blue_pump", "diesel_on", "lpg", "ultimate", "ultimate_diesel", "ultimate_unleaded", "unleaded_95", "ad_blue"], "website": null, "watchlist_id": null, "formatted_address": "Rosenheimer Stra\u00dfe 6\n6330\nKufstein", "channel_of_trade": null}, {"id": "AT-9895", "name": "Wien 21, Bruennerstr. 186", "lat": 48.2837235, "lng": 16.4133932, "site_brand": "BP", "country_code": "AT", "address": "Br\u00fcnnerstra\u00dfe 186", "city": "Wien", "state": null, "postcode": "1210", "telephone": "+43 1 2926869", "facilities": ["open_24_hours", "tobacco", "car_wash", "high_speed_pump", "truck_suitable_site", "toilet", "merkur", "shop", "bakery_bistro", "restaurant", "wild_bean_cafe", "accepts_routex_cards", "accepts_toll_payments", "reminder_service", "open_saturday", "open_sunday"], "products": ["ad_blue_cannister", "diesel_on", "ultimate", "ultimate_diesel", "ultimate_unleaded", "unleaded_95"], "website": null, "watchlist_id": null, "formatted_address": "Br\u00fcnnerstra\u00dfe 186\n1210\nWien", "channel_of_trade": null}, {"id": "AT-9896", "name": "Hohenems, Lustenauer Str. 112A", "lat": 47.3736, "lng": 9.67759, "site_brand": "BP", "country_code": "AT", "address": "Lustenauer Stra\u00dfe 112a", "city": "Hohenems", "state": null, "postcode": "6845", "telephone": "+43 5576 74262", "facilities": ["open_24_hours", "tobacco", "car_wash", "high_speed_pump", "truck_suitable_site", "toilet", "merkur", "shop", "bakery_bistro", "wild_bean_cafe", "accepts_routex_cards", "accepts_toll_payments", "reminder_service", "open_saturday", "open_sunday"], "products": ["ad_blue_cannister", "ad_blue_pump", "diesel_on", "ultimate", "ultimate_diesel", "ultimate_unleaded", "unleaded_95", "ad_blue"], "website": null, "watchlist_id": null, "formatted_address": "Lustenauer Stra\u00dfe 112a\n6845\nHohenems", "channel_of_trade": null}, {"id": "AT-9897", "name": "Steyr, Ennser Str. 10A", "lat": 48.0543944, "lng": 14.421037, "site_brand": "BP", "country_code": "AT", "address": "Ennser Stra\u00dfe 10 A", "city": "Steyr", "state": null, "postcode": "4400", "telephone": "+43 7252 82255", "facilities": ["open_24_hours", "tobacco", "car_wash", "high_speed_pump", "truck_parking", "truck_suitable_site", "toilet", "merkur", "shop", "bakery_bistro", "restaurant", "wild_bean_cafe", "accepts_routex_cards", "accepts_toll_payments", "reminder_service", "open_saturday", "open_sunday"], "products": ["ad_blue_cannister", "diesel_on", "ultimate", "ultimate_diesel", "ultimate_unleaded", "unleaded_95"], "website": null, "watchlist_id": null, "formatted_address": "Ennser Stra\u00dfe 10 A\n4400\nSteyr", "channel_of_trade": null}, {"id": "AT-9898", "name": "Graz, Puntigamer Str. 130", "lat": 47.0335, "lng": 15.4427, "site_brand": "BP", "country_code": "AT", "address": "Puntigamer Stra\u00dfe 130", "city": "Graz", "state": null, "postcode": "8055", "telephone": "+43 316 292492", "facilities": ["open_24_hours", "tobacco", "car_wash", "high_speed_pump", "truck_suitable_site", "toilet", "merkur", "shop", "bakery_bistro", "wild_bean_cafe", "accepts_routex_cards", "accepts_toll_payments", "reminder_service", "open_saturday", "open_sunday"], "products": ["ad_blue_cannister", "ad_blue_pump", "diesel_on", "ultimate", "ultimate_diesel", "ultimate_unleaded", "unleaded_95", "ad_blue"], "website": null, "watchlist_id": null, "formatted_address": "Puntigamer Stra\u00dfe 130\n8055\nGraz", "channel_of_trade": null}, {"id": "AT-9899", "name": "Brixen im Thale, Brixentalerstr. 13", "lat": 47.4449, "lng": 12.2335, "site_brand": "BP", "country_code": "AT", "address": "Brixentalerstra\u00dfe 13", "city": "Brixen im Thale", "state": null, "postcode": "6364", "telephone": "+43 5334 2880", "facilities": ["tobacco", "car_wash", "high_speed_pump", "truck_suitable_site", "toilet", "shop", "wild_bean_cafe", "accepts_routex_cards", "accepts_toll_payments", "reminder_service", "open_saturday", "open_sunday"], "products": ["ad_blue_cannister", "diesel_on", "ultimate", "ultimate_diesel", "ultimate_unleaded", "unleaded_95"], "website": null, "watchlist_id": null, "formatted_address": "Brixentalerstra\u00dfe 13\n6364\nBrixen im Thale", "channel_of_trade": null}, {"id": "AT-9900", "name": "St. Poelten, Noe-Ring 20", "lat": 48.198098, "lng": 15.639392, "site_brand": "BP", "country_code": "AT", "address": "Nieder\u00f6sterreichring 20", "city": "St. P\u00f6lten", "state": null, "postcode": "3100", "telephone": "+43 2742 230033", "facilities": ["tobacco", "car_wash", "high_speed_pump", "truck_suitable_site", "toilet", "merkur", "shop", "bakery_bistro", "wild_bean_cafe", "accepts_routex_cards", "accepts_toll_payments", "reminder_service", "open_saturday", "open_sunday"], "products": ["ad_blue_cannister", "diesel_on", "ultimate", "ultimate_diesel", "ultimate_unleaded", "unleaded_95"], "website": null, "watchlist_id": null, "formatted_address": "Nieder\u00f6sterreichring 20\n3100\nSt. P\u00f6lten", "channel_of_trade": null}, {"id": "AT-9901", "name": "Linz, Salzburgerstr. 383", "lat": 48.247276, "lng": 14.264803, "site_brand": "BP", "country_code": "AT", "address": "Salzburgerstra\u00dfe 383", "city": "Linz", "state": null, "postcode": "4030", "telephone": "+43 732 372021", "facilities": ["open_24_hours", "tobacco", "car_wash", "high_speed_pump", "truck_suitable_site", "toilet", "merkur", "shop", "bakery_bistro", "restaurant", "wild_bean_cafe", "accepts_routex_cards", "accepts_toll_payments", "reminder_service", "open_saturday", "open_sunday"], "products": ["ad_blue_cannister", "diesel_on", "ultimate", "ultimate_diesel", "ultimate_unleaded", "unleaded_95"], "website": null, "watchlist_id": null, "formatted_address": "Salzburgerstra\u00dfe 383\n4030\nLinz", "channel_of_trade": null}, {"id": "AT-9902", "name": "Wien 10, L.V.Hoehnelgasse 11", "lat": 48.159663, "lng": 16.3866275, "site_brand": "BP", "country_code": "AT", "address": "L.V.H\u00f6hnelgasse", "city": "Wien", "state": null, "postcode": "1100", "telephone": "+43 1 6881900", "facilities": ["tobacco", "car_wash", "high_speed_pump", "truck_suitable_site", "toilet", "shop", "bakery_bistro", "wild_bean_cafe", "accepts_routex_cards", "accepts_toll_payments", "reminder_service", "open_saturday", "open_sunday"], "products": ["ad_blue_cannister", "diesel_on", "ultimate", "ultimate_diesel", "ultimate_unleaded", "unleaded_95"], "website": null, "watchlist_id": null, "formatted_address": "L.V.H\u00f6hnelgasse\n1100\nWien", "channel_of_trade": null}, {"id": "AT-9903", "name": "Vorchdorf, Neue Landstr. 68", "lat": 48.0083, "lng": 13.9233, "site_brand": "BP", "country_code": "AT", "address": "Neue Landstra\u00dfe 68", "city": "Vorchdorf", "state": null, "postcode": "4655", "telephone": "+43 7614 5360", "facilities": ["tobacco", "car_wash", "high_speed_pump", "truck_suitable_site", "toilet", "merkur", "shop", "bakery_bistro", "wild_bean_cafe", "accepts_routex_cards", "accepts_toll_payments", "reminder_service", "open_saturday", "open_sunday"], "products": ["ad_blue_cannister", "diesel_on", "ultimate", "ultimate_diesel", "ultimate_unleaded", "unleaded_95"], "website": null, "watchlist_id": null, "formatted_address": "Neue Landstra\u00dfe 68\n4655\nVorchdorf", "channel_of_trade": null}, {"id": "AT-9905", "name": "Eugendorf-Strass, Gewerbestr. 1", "lat": 47.8616356, "lng": 13.1284904, "site_brand": "BP", "country_code": "AT", "address": "Gewerbestra\u00dfe 1", "city": "Eugendorf-Strass", "state": null, "postcode": "5301", "telephone": "+43 6225 2405", "facilities": ["open_24_hours", "tobacco", "car_wash", "high_speed_pump", "truck_suitable_site", "toilet", "merkur", "shop", "bakery_bistro", "wild_bean_cafe", "accepts_routex_cards", "accepts_toll_payments", "reminder_service", "open_saturday", "open_sunday"], "products": ["ad_blue_cannister", "ad_blue_pump", "diesel_on", "natural_gas", "ultimate", "ultimate_diesel", "ultimate_unleaded", "unleaded_95", "ad_blue"], "website": null, "watchlist_id": null, "formatted_address": "Gewerbestra\u00dfe 1\n5301\nEugendorf-Strass", "channel_of_trade": null}, {"id": "AT-9906", "name": "Lienz, Iseltalerstr. 25", "lat": 46.8298, "lng": 12.7547, "site_brand": "BP", "country_code": "AT", "address": "Iseltalerstra\u00dfe 25", "city": "Lienz", "state": null, "postcode": "9900", "telephone": "+43 4852 62659", "facilities": ["tobacco", "car_wash", "high_speed_pump", "truck_suitable_site", "toilet", "merkur", "shop", "bakery_bistro", "restaurant", "wild_bean_cafe", "accepts_routex_cards", "accepts_toll_payments", "reminder_service", "open_saturday", "open_sunday"], "products": ["ad_blue_cannister", "diesel_on", "ultimate", "ultimate_diesel", "ultimate_unleaded", "unleaded_95"], "website": null, "watchlist_id": null, "formatted_address": "Iseltalerstra\u00dfe 25\n9900\nLienz", "channel_of_trade": null}, {"id": "AT-9911", "name": "Imlau 65", "lat": 47.4603427, "lng": 13.1987387, "site_brand": "BP", "country_code": "AT", "address": "Imlau  65", "city": "Imlau", "state": null, "postcode": "5452", "telephone": "+43 6468 5327", "facilities": ["tobacco", "car_wash", "high_speed_pump", "truck_suitable_site", "toilet", "shop", "bakery_bistro", "wild_bean_cafe", "accepts_routex_cards", "accepts_toll_payments", "reminder_service", "open_saturday", "open_sunday"], "products": ["ad_blue_cannister", "diesel_on", "ultimate", "ultimate_diesel", "ultimate_unleaded", "unleaded_95"], "website": null, "watchlist_id": null, "formatted_address": "Imlau  65\n5452\nImlau", "channel_of_trade": null}]