[{"id": "CH-1007857519", "name": "BP Service Ruemlang", "lat": 47.452633, "lng": 8.537591, "site_brand": "BP", "country_code": "CH", "address": "Flughofstrasse 47", "city": "Ruemlang", "state": null, "postcode": "8153", "telephone": "+41 44 500 38 67", "facilities": ["alcohol", "lotto", "tobacco", "truck_parking", "truck_suitable_site", "motorway_site", "shop", "accepts_routex_cards", "open_saturday", "open_sunday"], "products": ["ad_blue_cannister"], "website": null, "watchlist_id": null, "formatted_address": "Flughofstrasse 47\n8153\nRuemlang", "channel_of_trade": null}, {"id": "CH-1009756561", "name": "BP SERVICE GLARNERLAND", "lat": 47.137939, "lng": 9.050838, "site_brand": "BP", "country_code": "CH", "address": "Tschachen 2", "city": "Ziegelbruecke", "state": null, "postcode": "8866", "telephone": "+41 79 595 91 54", "facilities": ["alcohol", "lotto", "tobacco", "truck_parking", "truck_suitable_site", "motorway_site", "shop", "accepts_routex_cards", "open_saturday", "open_sunday"], "products": ["ad_blue_cannister", "natural_gas"], "website": null, "watchlist_id": null, "formatted_address": "Tschachen 2\n8866\nZiegelbruecke", "channel_of_trade": null}, {"id": "CH-1011010886", "name": "BP Tankstelle Muehlental", "lat": 47.7155, "lng": 8.63209, "site_brand": "BP", "country_code": "CH", "address": "Bruderhoelistrasse 12", "city": "Schaffhausen", "state": null, "postcode": "8203", "telephone": "+41 52 624 38 29", "facilities": ["truck_parking", "truck_suitable_site", "motorway_site", "accepts_routex_cards", "automatic_site", "open_saturday", "open_sunday"], "products": [], "website": null, "watchlist_id": null, "formatted_address": "Bruderhoelistrasse 12\n8203\nSchaffhausen", "channel_of_trade": null}, {"id": "CH-1011236542", "name": "BP Service Petit-Lancy", "lat": 46.19058, "lng": 6.11968, "site_brand": "BP", "country_code": "CH", "address": "Route de Chancy 17 bis", "city": "Petit-Lancy", "state": null, "postcode": "1213", "telephone": "+41 22 792 87 40", "facilities": ["alcohol", "lotto", "tobacco", "truck_parking", "truck_suitable_site", "motorway_site", "shop", "accepts_routex_cards", "open_saturday", "open_sunday"], "products": ["ad_blue_cannister"], "website": null, "watchlist_id": null, "formatted_address": "Route de Chancy 17 bis\n1213\nPetit-Lancy", "channel_of_trade": null}, {"id": "CH-1012284746", "name": "BP Tankstelle Rotkreuz", "lat": 47.14547, "lng": 8.43185, "site_brand": "BP", "country_code": "CH", "address": "Chamerstrasse 2", "city": "Rotkreuz", "state": null, "postcode": "6343", "telephone": "+41 41 790 11 21", "facilities": ["motorway_site", "accepts_routex_cards", "automatic_site", "open_saturday", "open_sunday"], "products": [], "website": null, "watchlist_id": null, "formatted_address": "Chamerstrasse 2\n6343\nRotkreuz", "channel_of_trade": null}, {"id": "CH-1016093469", "name": "BP Service Agno", "lat": 46.006113, "lng": 8.902236, "site_brand": "BP", "country_code": "CH", "address": "Strada Regina", "city": "Agno", "state": null, "postcode": "6982", "telephone": "+41 26 436 57 09", "facilities": ["open_24_hours", "toilet", "shop", "accepts_routex_cards", "accepts_toll_payments", "open_saturday", "open_sunday"], "products": ["ad_blue_cannister", "diesel_on", "ultimate", "ultimate_unleaded", "unleaded_95"], "website": null, "watchlist_id": null, "formatted_address": "Strada Regina\n6982\nAgno", "channel_of_trade": null}, {"id": "CH-1017168267", "name": "BP Service Bellevue", "lat": 46.25376, "lng": 6.1534, "site_brand": "BP", "country_code": "CH", "address": "Route de Lausanne 321", "city": "Bellevue", "state": null, "postcode": "1293", "telephone": "+41 22 510 10 39", "facilities": ["alcohol", "lotto", "tobacco", "truck_parking", "truck_suitable_site", "motorway_site", "shop", "accepts_routex_cards", "open_saturday", "open_sunday"], "products": ["ad_blue_cannister"], "website": null, "watchlist_id": null, "formatted_address": "Route de Lausanne 321\n1293\nBellevue", "channel_of_trade": null}, {"id": "CH-1020281757", "name": "BP Service du Stand Martigny", "lat": 46.096911, "lng": 7.069276, "site_brand": "BP", "country_code": "CH", "address": "avenue Grand-St-Bernard 39", "city": "Martigny", "state": null, "postcode": "1920", "telephone": "+41 27 722 28 15", "facilities": ["alcohol", "lotto", "tobacco", "motorway_site", "shop", "accepts_routex_cards", "open_saturday", "open_sunday"], "products": ["ad_blue_cannister"], "website": null, "watchlist_id": null, "formatted_address": "avenue Grand-St-Bernard 39\n1920\nMartigny", "channel_of_trade": null}, {"id": "CH-1020378553", "name": "BP Station Route Blanche Nord", "lat": 46.1898, "lng": 6.19937, "site_brand": "BP", "country_code": "CH", "address": "Route Blanche 10", "city": "Thonex", "state": null, "postcode": "1226", "telephone": "+41 62 556 61 61", "facilities": ["motorway_site", "accepts_routex_cards", "automatic_site", "open_saturday", "open_sunday"], "products": [], "website": null, "watchlist_id": null, "formatted_address": "Route Blanche 10\n1226\nThonex", "channel_of_trade": null}, {"id": "CH-1024577640", "name": "BP Tankstelle Allschwil", "lat": 47.5486533, "lng": 7.5572794, "site_brand": "BP", "country_code": "CH", "address": "Steinb\u00fchlallee 182", "city": "Allschwil", "state": null, "postcode": "4123", "telephone": "+41 79 100 31 19", "facilities": ["open_24_hours", "accepts_routex_cards", "open_saturday", "open_sunday"], "products": ["diesel_on", "unleaded_95"], "website": null, "watchlist_id": null, "formatted_address": "Steinb\u00fchlallee 182\n4123\nAllschwil", "channel_of_trade": null}, {"id": "CH-1025491756", "name": "BP Stazione Vira", "lat": 46.144173, "lng": 8.84352, "site_brand": "BP", "country_code": "CH", "address": "Via Cantonale", "city": "Vira (Gambarogno)", "state": null, "postcode": "6574", "telephone": "+41 91 795 15 67", "facilities": ["motorway_site", "accepts_routex_cards", "automatic_site", "open_saturday", "open_sunday"], "products": [], "website": null, "watchlist_id": null, "formatted_address": "Via Cantonale\n6574\nVira (Gambarogno)", "channel_of_trade": null}, {"id": "CH-1027593035", "name": "BP Service Schwarzenbach", "lat": 47.444062, "lng": 9.068948, "site_brand": "BP", "country_code": "CH", "address": "Wilerstrasse 21", "city": "Jonschwil", "state": null, "postcode": "9243", "telephone": "+41 76 311 84 03", "facilities": ["alcohol", "lotto", "tobacco", "truck_parking", "truck_suitable_site", "motorway_site", "shop", "accepts_routex_cards", "open_saturday", "open_sunday"], "products": ["ad_blue_cannister"], "website": null, "watchlist_id": null, "formatted_address": "Wilerstrasse 21\n9243\nJonschwil", "channel_of_trade": null}, {"id": "CH-1028393061", "name": "BP Station Saint-Imier", "lat": 47.15009, "lng": 6.99961, "site_brand": "BP", "country_code": "CH", "address": "Rue de l'Envers 24", "city": "St-Imier", "state": null, "postcode": "2610", "telephone": "+41 32 941 16 13", "facilities": ["motorway_site", "accepts_routex_cards", "automatic_site", "open_saturday", "open_sunday"], "products": [], "website": null, "watchlist_id": null, "formatted_address": "Rue de l'Envers 24\n2610\nSt-Imier", "channel_of_trade": null}, {"id": "CH-1028784678", "name": "BP Service Marly", "lat": 46.78144, "lng": 7.14922, "site_brand": "BP", "country_code": "CH", "address": "Route de Fribourg 21", "city": "Marly", "state": null, "postcode": "1723", "telephone": "+41 26 436 57 09", "facilities": ["alcohol", "lotto", "tobacco", "car_wash", "truck_parking", "truck_suitable_site", "motorway_site", "shop", "accepts_routex_cards", "open_saturday", "open_sunday"], "products": ["ad_blue_cannister"], "website": null, "watchlist_id": null, "formatted_address": "Route de Fribourg 21\n1723\nMarly", "channel_of_trade": null}, {"id": "CH-1037442740", "name": "BP Service Martigny", "lat": 46.109957, "lng": 7.077322, "site_brand": "BP", "country_code": "CH", "address": "Avenue de Fully 40", "city": "Martigny", "state": null, "postcode": "1920", "telephone": "+41 27 723 32 20", "facilities": ["alcohol", "lotto", "tobacco", "car_wash", "truck_parking", "truck_suitable_site", "motorway_site", "shop", "accepts_routex_cards", "open_saturday", "open_sunday"], "products": ["ad_blue_cannister"], "website": null, "watchlist_id": null, "formatted_address": "Avenue de Fully 40\n1920\nMartigny", "channel_of_trade": null}, {"id": "CH-1038251914", "name": "BP Tankstelle Dulliken", "lat": 47.3539101, "lng": 7.9327865, "site_brand": "BP", "country_code": "CH", "address": "Im Sch\u00e4fer 2", "city": "Dulliken", "state": null, "postcode": "4657", "telephone": "+41 76 341 18 59", "facilities": ["open_24_hours", "shop", "accepts_routex_cards", "open_saturday", "open_sunday"], "products": ["ad_blue_cannister", "diesel_on", "unleaded_95"], "website": null, "watchlist_id": null, "formatted_address": "Im Sch\u00e4fer 2\n4657\nDulliken", "channel_of_trade": null}, {"id": "CH-1038634398", "name": "BP Service Grand-Saconnex Est", "lat": 46.23609, "lng": 6.1242, "site_brand": "BP", "country_code": "CH", "address": "Route de Ferney 206", "city": "Le Grand-Saconnex", "state": null, "postcode": "1218", "telephone": "+41 76 311 77 79", "facilities": ["alcohol", "lotto", "tobacco", "car_wash", "truck_parking", "truck_suitable_site", "motorway_site", "shop", "accepts_routex_cards", "open_saturday", "open_sunday"], "products": ["ad_blue_cannister"], "website": null, "watchlist_id": null, "formatted_address": "Route de Ferney 206\n1218\nLe Grand-Saconnex", "channel_of_trade": null}, {"id": "CH-1039090162", "name": "BP Tankstelle Jona", "lat": 47.24438, "lng": 8.82984, "site_brand": "BP", "country_code": "CH", "address": "Ruetistrasse 163", "city": "Jona", "state": null, "postcode": "8645", "telephone": "+41 848 848 490", "facilities": ["motorway_site", "accepts_routex_cards", "automatic_site", "open_saturday", "open_sunday"], "products": ["natural_gas"], "website": null, "watchlist_id": null, "formatted_address": "Ruetistrasse 163\n8645\nJona", "channel_of_trade": null}, {"id": "CH-1039133019", "name": "BP Tankstelle Rufi", "lat": 47.1781, "lng": 9.051539, "site_brand": "BP", "country_code": "CH", "address": "Gasterstrasse Haupstrasse", "city": "Rufi", "state": null, "postcode": "8723", "telephone": "+41 55 615 11 10", "facilities": ["motorway_site", "accepts_routex_cards", "automatic_site", "open_saturday", "open_sunday"], "products": [], "website": null, "watchlist_id": null, "formatted_address": "Gasterstrasse Haupstrasse\n8723\nRufi", "channel_of_trade": null}, {"id": "CH-1043844253", "name": "BP Service Vallorbe", "lat": 46.730873, "lng": 6.386946, "site_brand": "BP", "country_code": "CH", "address": "Le Creux", "city": "Vallorbe", "state": null, "postcode": "1337", "telephone": "+41 21 843 15 74", "facilities": ["alcohol", "lotto", "tobacco", "truck_parking", "truck_suitable_site", "motorway_site", "shop", "accepts_routex_cards", "open_saturday", "open_sunday"], "products": ["ad_blue_cannister"], "website": null, "watchlist_id": null, "formatted_address": "Le Creux\n1337\nVallorbe", "channel_of_trade": null}, {"id": "CH-1045250108", "name": "BP Station Finhaut", "lat": 46.053918, "lng": 6.951484, "site_brand": "BP", "country_code": "CH", "address": "Route Cantonale 2", "city": "Finhaut", "state": null, "postcode": "1925", "telephone": "+41 62 836 85 04", "facilities": ["open_24_hours", "shop", "accepts_routex_cards", "open_saturday", "open_sunday"], "products": ["ad_blue_pump", "diesel_on", "unleaded_95", "ad_blue"], "website": null, "watchlist_id": null, "formatted_address": "Route Cantonale 2\n1925\nFinhaut", "channel_of_trade": null}, {"id": "CH-1054613063", "name": "BP Tankstelle Altstaetten", "lat": 47.37938, "lng": 9.54472, "site_brand": "BP", "country_code": "CH", "address": "Rorschacherstrasse 24", "city": "Altstaetten SG", "state": null, "postcode": "9450", "telephone": "+41 71 757 80 20", "facilities": ["motorway_site", "accepts_routex_cards", "automatic_site", "open_saturday", "open_sunday"], "products": [], "website": null, "watchlist_id": null, "formatted_address": "Rorschacherstrasse 24\n9450\nAltstaetten SG", "channel_of_trade": null}, {"id": "CH-1057080172", "name": "BP Service Kemptthal Nord", "lat": 47.45191, "lng": 8.70142, "site_brand": "BP", "country_code": "CH", "address": "A1", "city": "Kemptthal", "state": null, "postcode": "8310", "telephone": "+41 76 701 15 78", "facilities": ["alcohol", "lotto", "tobacco", "truck_parking", "truck_suitable_site", "motorway_site", "shop", "accepts_routex_cards", "open_saturday", "open_sunday"], "products": ["ad_blue_cannister"], "website": null, "watchlist_id": null, "formatted_address": "A1\n8310\nKemptthal", "channel_of_trade": null}, {"id": "CH-1063400387", "name": "BP Tankstelle Orvin", "lat": 47.1597647, "lng": 7.2145098, "site_brand": "BP", "country_code": "CH", "address": "Le Coin 21A", "city": "Orvin", "state": null, "postcode": "2534", "telephone": "+41 78 728 85 09", "facilities": ["motorway_site", "accepts_routex_cards", "automatic_site"], "products": [], "website": null, "watchlist_id": null, "formatted_address": "Le Coin 21A\n2534\nOrvin", "channel_of_trade": null}, {"id": "CH-1066475225", "name": "BP Service Coldrerio", "lat": 45.8504, "lng": 8.981699, "site_brand": "BP", "country_code": "CH", "address": "Via San Giorgio 37", "city": "Coldrerio", "state": null, "postcode": "6877", "telephone": "+41 91 640 35 50", "facilities": ["open_24_hours", "truck_suitable_site", "toilet", "motorway_site", "shop", "accepts_routex_cards", "open_saturday", "open_sunday"], "products": ["ad_blue_cannister", "ad_blue_pump", "auto_gas", "diesel_on", "lpg", "ultimate", "ultimate_diesel", "ultimate_unleaded", "unleaded_95", "ad_blue"], "website": null, "watchlist_id": null, "formatted_address": "Via San Giorgio 37\n6877\nColdrerio", "channel_of_trade": null}, {"id": "CH-1067304742", "name": "BP Service Horgen", "lat": 47.237656, "lng": 8.611923, "site_brand": "BP", "country_code": "CH", "address": "Moveri AG", "city": "Horgen", "state": null, "postcode": "8810", "telephone": "+41 44 725 12 31", "facilities": ["shop", "accepts_routex_cards"], "products": [], "website": null, "watchlist_id": null, "formatted_address": "Moveri AG\n8810\nHorgen", "channel_of_trade": null}, {"id": "CH-1067605184", "name": "BP Tankstelle Beinwil am See", "lat": 47.26907, "lng": 8.20258, "site_brand": "BP", "country_code": "CH", "address": "Aarauerstrasse 46", "city": "Beinwil am See", "state": null, "postcode": "5712", "telephone": "064 7713408", "facilities": ["motorway_site", "accepts_routex_cards", "automatic_site", "open_saturday", "open_sunday"], "products": [], "website": null, "watchlist_id": null, "formatted_address": "Aarauerstrasse 46\n5712\nBeinwil am See", "channel_of_trade": null}, {"id": "CH-1070394534", "name": "BP Service Thurau Sued", "lat": 47.459999, "lng": 9.093654, "site_brand": "BP", "country_code": "CH", "address": "A1", "city": "Wil SG 1", "state": null, "postcode": "9501", "telephone": "+41 71 944 19 66", "facilities": ["alcohol", "lotto", "tobacco", "motorway_site", "shop", "accepts_routex_cards", "open_saturday", "open_sunday"], "products": ["ad_blue_cannister"], "website": null, "watchlist_id": null, "formatted_address": "A1\n9501\nWil SG 1", "channel_of_trade": null}, {"id": "CH-1073543609", "name": "BP Tankstelle Maloja", "lat": 46.400176, "lng": 9.695533, "site_brand": "BP", "country_code": "CH", "address": "Strada Cantonale 344", "city": "Maloja", "state": null, "postcode": "7516", "telephone": "+41 81 837 37 77", "facilities": ["motorway_site", "accepts_routex_cards", "automatic_site", "open_saturday", "open_sunday"], "products": [], "website": null, "watchlist_id": null, "formatted_address": "Strada Cantonale 344\n7516\nMaloja", "channel_of_trade": null}, {"id": "CH-1084280140", "name": "BP Service Graechen", "lat": 46.2018059, "lng": 7.8414893, "site_brand": "BP", "country_code": "CH", "address": "Kantonsstrasse", "city": "Graechen", "state": null, "postcode": "3925", "telephone": "+41 62 556 61 22", "facilities": ["alcohol", "lotto", "tobacco", "car_wash", "motorway_site", "shop", "accepts_routex_cards", "open_saturday", "open_sunday"], "products": ["ad_blue_cannister"], "website": null, "watchlist_id": null, "formatted_address": "Kantonsstrasse\n3925\nGraechen", "channel_of_trade": null}, {"id": "CH-1089212023", "name": "BP Service Oberbueren", "lat": 47.451464, "lng": 9.155443, "site_brand": "BP", "country_code": "CH", "address": "Westumfahrung 16", "city": "Oberbueren", "state": null, "postcode": "9245", "telephone": "+41 58 510 22 53", "facilities": ["alcohol", "lotto", "tobacco", "motorway_site", "shop", "accepts_routex_cards", "open_saturday", "open_sunday"], "products": ["ad_blue_cannister", "natural_gas"], "website": null, "watchlist_id": null, "formatted_address": "Westumfahrung 16\n9245\nOberbueren", "channel_of_trade": null}, {"id": "CH-1120452612", "name": "BP Tankstelle Sevelen Betriebs", "lat": 47.125685, "lng": 9.478781, "site_brand": "BP", "country_code": "CH", "address": "Glat 243", "city": "Sevelen", "state": null, "postcode": "9475", "telephone": "+41 81 740 17 03", "facilities": ["motorway_site", "accepts_routex_cards", "automatic_site", "open_saturday", "open_sunday"], "products": [], "website": null, "watchlist_id": null, "formatted_address": "Glat 243\n9475\nSevelen", "channel_of_trade": null}, {"id": "CH-1121037961", "name": "BP Service Unterterzen", "lat": 47.112527, "lng": 9.266457, "site_brand": "BP", "country_code": "CH", "address": "Bergsboden", "city": "Unterterzen", "state": null, "postcode": "8882", "telephone": "+41 81 738 12 12", "facilities": ["alcohol", "lotto", "tobacco", "motorway_site", "shop", "accepts_routex_cards", "open_saturday", "open_sunday"], "products": ["ad_blue_cannister"], "website": null, "watchlist_id": null, "formatted_address": "Bergsboden\n8882\nUnterterzen", "channel_of_trade": null}, {"id": "CH-1128062653", "name": "BP Service Lully", "lat": 46.83121, "lng": 6.85615, "site_brand": "BP", "country_code": "CH", "address": "RestoRoute Rose de la Broye 3", "city": "Lully FR", "state": null, "postcode": "1470", "telephone": "+41 79 799 51 67", "facilities": ["open_24_hours", "alcohol", "lotto", "tobacco", "truck_parking", "truck_suitable_site", "motorway_site", "shop", "accepts_routex_cards", "open_saturday", "open_sunday"], "products": ["ad_blue_cannister"], "website": null, "watchlist_id": null, "formatted_address": "RestoRoute Rose de la Broye 3\n1470\nLully FR", "channel_of_trade": null}, {"id": "CH-1128248172", "name": "BP Service Wil Churfirstenstra", "lat": 47.457854, "lng": 9.046187, "site_brand": "BP", "country_code": "CH", "address": "Churfirstenstrasse 40", "city": "Wil SG", "state": null, "postcode": "9500", "telephone": "+41 71 929 32 20", "facilities": ["motorway_site", "accepts_routex_cards", "open_saturday", "open_sunday"], "products": ["ad_blue_pump", "natural_gas", "ad_blue"], "website": null, "watchlist_id": null, "formatted_address": "Churfirstenstrasse 40\n9500\nWil SG", "channel_of_trade": null}, {"id": "CH-115993901", "name": "BP Tankstelle Nesslau", "lat": 47.2262, "lng": 9.1991, "site_brand": "BP", "country_code": "CH", "address": "Hauptstrasse 25", "city": "Nesslau", "state": null, "postcode": "9650", "telephone": "+41 848 848 490", "facilities": ["motorway_site", "accepts_routex_cards", "automatic_site", "open_saturday", "open_sunday"], "products": [], "website": null, "watchlist_id": null, "formatted_address": "Hauptstrasse 25\n9650\nNesslau", "channel_of_trade": null}, {"id": "CH-1175506021", "name": "BP Service Wattwil", "lat": 47.297619, "lng": 9.092152, "site_brand": "BP", "country_code": "CH", "address": "Ebnaterstrasse 63", "city": "Wattwil", "state": null, "postcode": "9630", "telephone": "+41 71 511 21 46", "facilities": ["alcohol", "lotto", "tobacco", "truck_parking", "truck_suitable_site", "motorway_site", "shop", "accepts_routex_cards", "open_saturday", "open_sunday"], "products": ["ad_blue_cannister"], "website": null, "watchlist_id": null, "formatted_address": "Ebnaterstrasse 63\n9630\nWattwil", "channel_of_trade": null}, {"id": "CH-1239665779", "name": "BP Service Kriessern", "lat": 47.35923, "lng": 9.60888, "site_brand": "BP", "country_code": "CH", "address": "Schuetzenwiese 1", "city": "Kriessern", "state": null, "postcode": "9451", "telephone": "+41 71 755 79 22", "facilities": ["alcohol", "lotto", "tobacco", "car_wash", "truck_parking", "truck_suitable_site", "motorway_site", "shop", "accepts_routex_cards", "open_saturday", "open_sunday"], "products": ["ad_blue_cannister"], "website": null, "watchlist_id": null, "formatted_address": "Schuetzenwiese 1\n9451\nKriessern", "channel_of_trade": null}, {"id": "CH-1280167328", "name": "BP Service Affoltern", "lat": 47.2878, "lng": 8.45202, "site_brand": "BP", "country_code": "CH", "address": "Zuerichstrasse 187", "city": "Affoltern am Albis", "state": null, "postcode": "8910", "telephone": "+41 44 500 42 18", "facilities": ["alcohol", "lotto", "tobacco", "car_wash", "truck_parking", "truck_suitable_site", "motorway_site", "shop", "accepts_routex_cards", "open_saturday", "open_sunday"], "products": ["ad_blue_cannister"], "website": null, "watchlist_id": null, "formatted_address": "Zuerichstrasse 187\n8910\nAffoltern am Albis", "channel_of_trade": null}, {"id": "CH-1289814692", "name": "BP Tankstelle Waengi", "lat": 47.499351, "lng": 8.950432, "site_brand": "BP", "country_code": "CH", "address": "Frauenfelderstrasse 29", "city": "Waengi", "state": null, "postcode": "9545", "telephone": "+41 848 848 490", "facilities": ["motorway_site", "accepts_routex_cards", "automatic_site", "open_saturday", "open_sunday"], "products": [], "website": null, "watchlist_id": null, "formatted_address": "Frauenfelderstrasse 29\n9545\nWaengi", "channel_of_trade": null}, {"id": "CH-129968074", "name": "BP Tankstelle Niedergoesgen", "lat": 47.372602, "lng": 7.99438, "site_brand": "BP", "country_code": "CH", "address": "Oltnerstrasse 45", "city": "Niedergoesgen", "state": null, "postcode": "5013", "telephone": "+41 62 858 40 38", "facilities": ["motorway_site", "accepts_routex_cards", "automatic_site", "open_saturday", "open_sunday"], "products": [], "website": null, "watchlist_id": null, "formatted_address": "Oltnerstrasse 45\n5013\nNiedergoesgen", "channel_of_trade": null}, {"id": "CH-1305265770", "name": "BP Tankstelle Wil Zuercherstra", "lat": 47.46496, "lng": 9.03435, "site_brand": "BP", "country_code": "CH", "address": "Zuercherstrasse 59", "city": "Wil SG", "state": null, "postcode": "9500", "telephone": "+41 71 913 30 30", "facilities": ["motorway_site", "accepts_routex_cards", "automatic_site", "open_saturday", "open_sunday"], "products": [], "website": null, "watchlist_id": null, "formatted_address": "Zuercherstrasse 59\n9500\nWil SG", "channel_of_trade": null}, {"id": "CH-1313665595", "name": "BP Service Herisau", "lat": 47.3894, "lng": 9.28961, "site_brand": "BP", "country_code": "CH", "address": "Kasernenstrasse 68", "city": "Herisau", "state": null, "postcode": "9100", "telephone": "+41 71 511 02 18", "facilities": ["alcohol", "lotto", "tobacco", "truck_parking", "truck_suitable_site", "motorway_site", "shop", "accepts_routex_cards", "open_saturday", "open_sunday"], "products": ["ad_blue_cannister"], "website": null, "watchlist_id": null, "formatted_address": "Kasernenstrasse 68\n9100\nHerisau", "channel_of_trade": null}, {"id": "CH-1313988207", "name": "BP Tankstelle Hittnau", "lat": 47.36853, "lng": 8.82204, "site_brand": "BP", "country_code": "CH", "address": "Isikerstrasse 2", "city": "Hittnau", "state": null, "postcode": "8335", "telephone": "+41 79 595 91 54", "facilities": ["motorway_site", "accepts_routex_cards", "automatic_site", "open_saturday", "open_sunday"], "products": [], "website": null, "watchlist_id": null, "formatted_address": "Isikerstrasse 2\n8335\nHittnau", "channel_of_trade": null}, {"id": "CH-1314758839", "name": "BP Service Le Mont", "lat": 46.55778, "lng": 6.63578, "site_brand": "BP", "country_code": "CH", "address": "Route de Lausanne 5", "city": "Mont-sur-Lausanne", "state": null, "postcode": "1052", "telephone": "+41 76 311 79 96", "facilities": ["alcohol", "lotto", "tobacco", "truck_parking", "truck_suitable_site", "motorway_site", "shop", "accepts_routex_cards", "open_saturday", "open_sunday"], "products": ["ad_blue_cannister"], "website": null, "watchlist_id": null, "formatted_address": "Route de Lausanne 5\n1052\nMont-sur-Lausanne", "channel_of_trade": null}, {"id": "CH-1320291716", "name": "BP Service Deitingen", "lat": 47.22589, "lng": 7.61572, "site_brand": "BP", "country_code": "CH", "address": "Mittelland-S\u00fcd", "city": "Deitingen", "state": null, "postcode": "4543", "telephone": "+41 32 614 13 55", "facilities": ["open_24_hours", "truck_parking", "truck_suitable_site", "toilet", "motorway_site", "shop", "wild_bean_cafe", "accepts_routex_cards", "accepts_toll_payments", "open_saturday", "open_sunday"], "products": ["ad_blue_cannister", "ad_blue_pump", "diesel_on", "natural_gas", "ultimate", "ultimate_diesel", "ultimate_unleaded", "unleaded_95", "ad_blue"], "website": null, "watchlist_id": null, "formatted_address": "Mittelland-S\u00fcd\n4543\nDeitingen", "channel_of_trade": null}, {"id": "CH-1322367091", "name": "BP Service Holligen", "lat": 46.94392, "lng": 7.42077, "site_brand": "BP", "country_code": "CH", "address": "Koenizstrasse 12a", "city": "Bern", "state": null, "postcode": "3008", "telephone": "+41 31 506 66 92", "facilities": ["alcohol", "lotto", "tobacco", "car_wash", "truck_parking", "truck_suitable_site", "motorway_site", "shop", "accepts_routex_cards", "open_saturday", "open_sunday"], "products": ["ad_blue_cannister"], "website": null, "watchlist_id": null, "formatted_address": "Koenizstrasse 12a\n3008\nBern", "channel_of_trade": null}, {"id": "CH-1322454190", "name": "BP Tankstelle Frauenfeld Langf", "lat": 47.57145, "lng": 8.9144, "site_brand": "BP", "country_code": "CH", "address": "Langfeldstrasse 105", "city": "Frauenfeld", "state": null, "postcode": "8500", "telephone": "+41 848 848 490", "facilities": ["motorway_site", "accepts_routex_cards", "automatic_site", "open_saturday", "open_sunday"], "products": [], "website": null, "watchlist_id": null, "formatted_address": "Langfeldstrasse 105\n8500\nFrauenfeld", "channel_of_trade": null}, {"id": "CH-132272090", "name": "BP Tankstelle Lenk", "lat": 46.45881, "lng": 7.44234, "site_brand": "BP", "country_code": "CH", "address": "Simmengueetlistrasse 1", "city": "Lenk im Simmental", "state": null, "postcode": "3775", "telephone": "+41 33 733 10 59", "facilities": ["motorway_site", "accepts_routex_cards", "automatic_site", "open_saturday", "open_sunday"], "products": [], "website": null, "watchlist_id": null, "formatted_address": "Simmengueetlistrasse 1\n3775\nLenk im Simmental", "channel_of_trade": null}, {"id": "CH-1325194607", "name": "BP Service Meyrin Kammacher", "lat": 46.223234, "lng": 6.068648, "site_brand": "BP", "country_code": "CH", "address": "Rue du Nant-d'Avril 90", "city": "Geneve", "state": null, "postcode": "1217", "telephone": "+41 22 782 17 60", "facilities": ["alcohol", "lotto", "tobacco", "car_wash", "truck_parking", "truck_suitable_site", "motorway_site", "shop", "accepts_routex_cards", "open_saturday", "open_sunday"], "products": ["ad_blue_cannister"], "website": null, "watchlist_id": null, "formatted_address": "Rue du Nant-d'Avril 90\n1217\nGeneve", "channel_of_trade": null}, {"id": "CH-1325920365", "name": "BP Service Buchs", "lat": 47.156831, "lng": 9.480225, "site_brand": "BP", "country_code": "CH", "address": "Churerstrasse 63", "city": "Buchs SG", "state": null, "postcode": "9470", "telephone": "+41 848 848 490", "facilities": ["alcohol", "lotto", "tobacco", "truck_parking", "truck_suitable_site", "motorway_site", "shop", "accepts_routex_cards", "open_saturday", "open_sunday"], "products": ["ad_blue_cannister"], "website": null, "watchlist_id": null, "formatted_address": "Churerstrasse 63\n9470\nBuchs SG", "channel_of_trade": null}, {"id": "CH-133170755", "name": "BP Tankstelle Ettingen", "lat": 47.4832455, "lng": 7.5460508, "site_brand": "BP", "country_code": "CH", "address": "Hauptstrasse 6", "city": "Ettingen", "state": null, "postcode": "4107", "telephone": "+41 61 721 29 76", "facilities": ["motorway_site", "accepts_routex_cards", "automatic_site", "open_saturday", "open_sunday"], "products": [], "website": null, "watchlist_id": null, "formatted_address": "Hauptstrasse 6\n4107\nEttingen", "channel_of_trade": null}, {"id": "CH-1336802490", "name": "BP Tankstelle Turtmann", "lat": 46.30209, "lng": 7.70717, "site_brand": "BP", "country_code": "CH", "address": "Kantonsstrasse 1", "city": "Turtmann", "state": null, "postcode": "3946", "telephone": "+41 27 933 71 71", "facilities": ["motorway_site", "accepts_routex_cards", "automatic_site", "open_saturday", "open_sunday"], "products": [], "website": null, "watchlist_id": null, "formatted_address": "Kantonsstrasse 1\n3946\nTurtmann", "channel_of_trade": null}, {"id": "CH-1339233115", "name": "BP Service Deitingen", "lat": 47.22589, "lng": 7.61572, "site_brand": "BP", "country_code": "CH", "address": "E25 Mittelland-Sued", "city": "Deitingen", "state": null, "postcode": "4543", "telephone": "+41 32 510 07 44", "facilities": ["open_24_hours", "alcohol", "lotto", "tobacco", "truck_parking", "truck_suitable_site", "motorway_site", "shop", "accepts_routex_cards", "open_saturday", "open_sunday"], "products": ["ad_blue_cannister", "natural_gas"], "website": null, "watchlist_id": null, "formatted_address": "E25 Mittelland-Sued\n4543\nDeitingen", "channel_of_trade": null}, {"id": "CH-1355878205", "name": "BP Tankstelle Rueti", "lat": 47.26297, "lng": 8.86601, "site_brand": "BP", "country_code": "CH", "address": "Walderstrasse 74", "city": "Rueti ZH", "state": null, "postcode": "8630", "telephone": "+41 71 913 33 33", "facilities": ["motorway_site", "accepts_routex_cards", "automatic_site", "open_saturday", "open_sunday"], "products": [], "website": null, "watchlist_id": null, "formatted_address": "Walderstrasse 74\n8630\nRueti ZH", "channel_of_trade": null}, {"id": "CH-1357038191", "name": "BP Tankstelle Niederbueren", "lat": 47.46872, "lng": 9.20605, "site_brand": "BP", "country_code": "CH", "address": "Staatsstrasse 57", "city": "Niederbueren", "state": null, "postcode": "9246", "telephone": "+41 71 913 33 33", "facilities": ["motorway_site", "accepts_routex_cards", "automatic_site", "open_saturday", "open_sunday"], "products": [], "website": null, "watchlist_id": null, "formatted_address": "Staatsstrasse 57\n9246\nNiederbueren", "channel_of_trade": null}, {"id": "CH-1357969542", "name": "BP Service Renens", "lat": 46.54684, "lng": 6.56509, "site_brand": "BP", "country_code": "CH", "address": "Boulkevard de l'Arc-en-Ciel 43", "city": "Bussigny", "state": null, "postcode": "1030", "telephone": "+41 76 311 77 82", "facilities": ["alcohol", "lotto", "tobacco", "truck_parking", "truck_suitable_site", "motorway_site", "shop", "accepts_routex_cards", "open_saturday", "open_sunday"], "products": ["ad_blue_cannister"], "website": null, "watchlist_id": null, "formatted_address": "Boulkevard de l'Arc-en-Ciel 43\n1030\nBussigny", "channel_of_trade": null}, {"id": "CH-1371492787", "name": "BP Tanstelle Lichtensteig Lore", "lat": 47.329035, "lng": 9.084641, "site_brand": "BP", "country_code": "CH", "address": "Loretostrasse 57", "city": "Lichtensteig", "state": null, "postcode": "9620", "telephone": "+41 848 848 490", "facilities": ["motorway_site", "accepts_routex_cards", "automatic_site", "open_saturday", "open_sunday"], "products": [], "website": null, "watchlist_id": null, "formatted_address": "Loretostrasse 57\n9620\nLichtensteig", "channel_of_trade": null}, {"id": "CH-1373564983", "name": "BP Tankstelle Sulgen", "lat": 47.54538, "lng": 9.18372, "site_brand": "BP", "country_code": "CH", "address": "Romanshornstrasse 13", "city": "Donzhausen", "state": null, "postcode": "8583", "telephone": "+41 848 848 490", "facilities": ["motorway_site", "accepts_routex_cards", "automatic_site", "open_saturday", "open_sunday"], "products": [], "website": null, "watchlist_id": null, "formatted_address": "Romanshornstrasse 13\n8583\nDonzhausen", "channel_of_trade": null}, {"id": "CH-137536307", "name": "BP Service Arlesheim", "lat": 47.4990472, "lng": 7.618261, "site_brand": "BP", "country_code": "CH", "address": "Birseckstrasse 5", "city": "Arlesheim", "state": null, "postcode": "4144", "telephone": "+41 61 511 08 23", "facilities": ["alcohol", "lotto", "tobacco", "motorway_site", "shop", "accepts_routex_cards", "open_saturday", "open_sunday"], "products": ["ad_blue_cannister"], "website": null, "watchlist_id": null, "formatted_address": "Birseckstrasse 5\n4144\nArlesheim", "channel_of_trade": null}, {"id": "CH-1377664632", "name": "BP Tankstelle Reinach", "lat": 47.4983336, "lng": 7.5969141, "site_brand": "BP", "country_code": "CH", "address": "Baselstrasse 44", "city": "Reinach", "state": null, "postcode": "4153", "telephone": "+41 76 341 27 86", "facilities": ["open_24_hours", "shop", "accepts_routex_cards", "open_saturday", "open_sunday"], "products": ["ad_blue_cannister", "diesel_on", "unleaded_95"], "website": null, "watchlist_id": null, "formatted_address": "Baselstrasse 44\n4153\nReinach", "channel_of_trade": null}, {"id": "CH-1377750477", "name": "BP Tankstelle Buetschwil", "lat": 47.363106, "lng": 9.07343, "site_brand": "BP", "country_code": "CH", "address": "Landstrasse 46", "city": "Buetschwil", "state": null, "postcode": "9606", "telephone": "+41 848 848 490", "facilities": ["motorway_site", "accepts_routex_cards", "automatic_site", "open_saturday", "open_sunday"], "products": [], "website": null, "watchlist_id": null, "formatted_address": "Landstrasse 46\n9606\nBuetschwil", "channel_of_trade": null}, {"id": "CH-1377808525", "name": "BP Service Frenkendorf", "lat": 47.51478, "lng": 7.71978, "site_brand": "BP", "country_code": "CH", "address": "Rheinstrasse 119", "city": "Frenkendorf", "state": null, "postcode": "4402", "telephone": "+41 76 311 77 72", "facilities": ["alcohol", "lotto", "tobacco", "car_wash", "motorway_site", "shop", "accepts_routex_cards", "open_saturday", "open_sunday"], "products": ["ad_blue_cannister"], "website": null, "watchlist_id": null, "formatted_address": "Rheinstrasse 119\n4402\nFrenkendorf", "channel_of_trade": null}, {"id": "CH-1377967492", "name": "BP Tankstelle Sevelen Gonzenst", "lat": 47.12326, "lng": 9.48776, "site_brand": "BP", "country_code": "CH", "address": "Gonzenstrasse 7", "city": "Sevelen", "state": null, "postcode": "9475", "telephone": "+41 71 913 33 33", "facilities": ["motorway_site", "accepts_routex_cards", "automatic_site", "open_saturday", "open_sunday"], "products": [], "website": null, "watchlist_id": null, "formatted_address": "Gonzenstrasse 7\n9475\nSevelen", "channel_of_trade": null}, {"id": "CH-139590765", "name": "BP Service Uznach", "lat": 47.22754, "lng": 8.97245, "site_brand": "BP", "country_code": "CH", "address": "Zuercherstrasse 71", "city": "Uznach", "state": null, "postcode": "8730", "telephone": "+41 62 556 61 22", "facilities": ["alcohol", "lotto", "tobacco", "motorway_site", "shop", "accepts_routex_cards", "open_saturday", "open_sunday"], "products": ["ad_blue_cannister"], "website": null, "watchlist_id": null, "formatted_address": "Zuercherstrasse 71\n8730\nUznach", "channel_of_trade": null}, {"id": "CH-1397161292", "name": "BP Service Gunzgen Sued", "lat": 47.31017, "lng": 7.83094, "site_brand": "BP", "country_code": "CH", "address": "Gunzgen Sued", "city": "Kappel SO", "state": null, "postcode": "4616", "telephone": "+41 76 592 84 72", "facilities": ["open_24_hours", "alcohol", "lotto", "tobacco", "truck_parking", "truck_suitable_site", "motorway_site", "shop", "accepts_routex_cards", "open_saturday", "open_sunday"], "products": ["ad_blue_cannister"], "website": null, "watchlist_id": null, "formatted_address": "Gunzgen Sued\n4616\nKappel SO", "channel_of_trade": null}, {"id": "CH-139722632", "name": "BP Service Muelenen", "lat": 46.63795, "lng": 7.69185, "site_brand": "BP", "country_code": "CH", "address": "Hauptstrasse 1", "city": "Muelenen", "state": null, "postcode": "3711", "telephone": "+41 33 676 29 76", "facilities": ["alcohol", "lotto", "tobacco", "car_wash", "motorway_site", "shop", "accepts_routex_cards", "open_saturday", "open_sunday"], "products": ["ad_blue_cannister"], "website": null, "watchlist_id": null, "formatted_address": "Hauptstrasse 1\n3711\nMuelenen", "channel_of_trade": null}, {"id": "CH-14237798", "name": "BP Tankstelle Brunnen", "lat": 47.00127, "lng": 8.6147, "site_brand": "BP", "country_code": "CH", "address": "Schwyzerstrasse 11", "city": "Brunnen", "state": null, "postcode": "6440", "telephone": "+41 41 825 30 60", "facilities": ["motorway_site", "accepts_routex_cards", "automatic_site", "open_saturday", "open_sunday"], "products": ["ad_blue_pump", "ad_blue"], "website": null, "watchlist_id": "14237798", "formatted_address": "Schwyzerstrasse 11\n6440\nBrunnen", "channel_of_trade": null}, {"id": "CH-1460879904", "name": "BP Tankstelle Maerwil", "lat": 47.533668, "lng": 9.070067, "site_brand": "BP", "country_code": "CH", "address": "Bahnhofgarage, Hauptstrasse 14", "city": "Maerwil", "state": null, "postcode": "9562", "telephone": "+41 848 848 490", "facilities": ["motorway_site", "accepts_routex_cards", "automatic_site", "open_saturday", "open_sunday"], "products": [], "website": null, "watchlist_id": null, "formatted_address": "Bahnhofgarage, Hauptstrasse 14\n9562\nMaerwil", "channel_of_trade": null}, {"id": "CH-1476833468", "name": "BP Service Rothenburg", "lat": 47.11301, "lng": 8.23188, "site_brand": "BP", "country_code": "CH", "address": "Raststaette Ost Tankstelle E35 Neue", "city": "Rothenburg", "state": null, "postcode": "6023", "telephone": "+41 41 289 30 30", "facilities": ["alcohol", "lotto", "tobacco", "truck_parking", "truck_suitable_site", "motorway_site", "shop", "accepts_routex_cards", "open_saturday", "open_sunday"], "products": ["ad_blue_cannister"], "website": null, "watchlist_id": null, "formatted_address": "Raststaette Ost Tankstelle E35 Neue\n6023\nRothenburg", "channel_of_trade": null}, {"id": "CH-1478438957", "name": "BP Tankstelle Schoeftland", "lat": 47.31248, "lng": 8.04703, "site_brand": "BP", "country_code": "CH", "address": "Holzikerstrasse 14", "city": "Schoeftland", "state": null, "postcode": "5040", "telephone": "+41 62 721 15 60", "facilities": ["motorway_site", "accepts_routex_cards", "automatic_site", "open_saturday", "open_sunday"], "products": [], "website": null, "watchlist_id": null, "formatted_address": "Holzikerstrasse 14\n5040\nSchoeftland", "channel_of_trade": null}, {"id": "CH-148970790", "name": "BP Tankstelle Rupperswil", "lat": 47.407582, "lng": 8.137003, "site_brand": "BP", "country_code": "CH", "address": "Bruggerstrasse 47", "city": "Rupperswil", "state": null, "postcode": "5102", "telephone": "+41 848 848 490", "facilities": ["truck_parking", "truck_suitable_site", "motorway_site", "accepts_routex_cards", "automatic_site", "open_saturday", "open_sunday"], "products": [], "website": null, "watchlist_id": null, "formatted_address": "Bruggerstrasse 47\n5102\nRupperswil", "channel_of_trade": null}, {"id": "CH-1491287675", "name": "BP Tankstelle Aarberg", "lat": 47.043823, "lng": 7.273249, "site_brand": "BP", "country_code": "CH", "address": "Murtenstrasse 4", "city": "Aarberg", "state": null, "postcode": "3270", "telephone": "+41 32 391 71 21", "facilities": ["car_wash", "motorway_site", "accepts_routex_cards", "automatic_site", "open_saturday", "open_sunday"], "products": ["ad_blue_pump", "ad_blue"], "website": null, "watchlist_id": null, "formatted_address": "Murtenstrasse 4\n3270\nAarberg", "channel_of_trade": null}, {"id": "CH-1491530379", "name": "BP Stazione Manno", "lat": 46.03707, "lng": 8.92545, "site_brand": "BP", "country_code": "CH", "address": "Via Vedeggio 3", "city": "Manno", "state": null, "postcode": "6928", "telephone": "+41 91 605 28 26", "facilities": ["motorway_site", "accepts_routex_cards", "automatic_site", "open_saturday", "open_sunday"], "products": [], "website": null, "watchlist_id": null, "formatted_address": "Via Vedeggio 3\n6928\nManno", "channel_of_trade": null}, {"id": "CH-1494076567", "name": "BP Service Corseaux", "lat": 46.47101, "lng": 6.84046, "site_brand": "BP", "country_code": "CH", "address": "Route de Chatel-St-Denis 18", "city": "Coreaux", "state": null, "postcode": "1902", "telephone": "+41 76 615 75 01", "facilities": ["alcohol", "lotto", "tobacco", "car_wash", "motorway_site", "shop", "accepts_routex_cards", "open_saturday", "open_sunday"], "products": ["ad_blue_cannister"], "website": null, "watchlist_id": null, "formatted_address": "Route de Chatel-St-Denis 18\n1902\nCoreaux", "channel_of_trade": null}, {"id": "CH-1496310500", "name": "BP Tankstelle Niederuzwil", "lat": 47.44639, "lng": 9.13876, "site_brand": "BP", "country_code": "CH", "address": "Bankstrasse 7b", "city": "Niederuzwil", "state": null, "postcode": "9244", "telephone": "+41 848 848 490", "facilities": ["motorway_site", "accepts_routex_cards", "automatic_site", "open_saturday", "open_sunday"], "products": [], "website": null, "watchlist_id": null, "formatted_address": "Bankstrasse 7b\n9244\nNiederuzwil", "channel_of_trade": null}, {"id": "CH-150122682", "name": "BP Service Bex", "lat": 46.24768, "lng": 7.00692, "site_brand": "BP", "country_code": "CH", "address": "Route du Simplon 15", "city": "Bex", "state": null, "postcode": "1880", "telephone": "+41 24 463 38 30", "facilities": ["alcohol", "lotto", "tobacco", "motorway_site", "shop", "accepts_routex_cards", "open_saturday", "open_sunday"], "products": ["ad_blue_cannister"], "website": null, "watchlist_id": null, "formatted_address": "Route du Simplon 15\n1880\nBex", "channel_of_trade": null}, {"id": "CH-1509105200", "name": "BP Service Gondo", "lat": 46.196557, "lng": 8.137779, "site_brand": "BP", "country_code": "CH", "address": "Simplonstrasse 2", "city": "Gondo", "state": null, "postcode": "3907", "telephone": "+41 848 848 490", "facilities": ["alcohol", "lotto", "tobacco", "motorway_site", "shop", "accepts_routex_cards", "open_saturday", "open_sunday"], "products": ["ad_blue_cannister"], "website": null, "watchlist_id": null, "formatted_address": "Simplonstrasse 2\n3907\nGondo", "channel_of_trade": null}, {"id": "CH-1547105096", "name": "BP Tankstelle Moeriken", "lat": 47.41529, "lng": 8.18534, "site_brand": "BP", "country_code": "CH", "address": "Bruneggerstrasse 8", "city": "Moeriken AG", "state": null, "postcode": "5103", "telephone": "+41 62 887 80 90", "facilities": ["motorway_site", "accepts_routex_cards", "automatic_site", "open_saturday", "open_sunday"], "products": [], "website": null, "watchlist_id": null, "formatted_address": "Bruneggerstrasse 8\n5103\nMoeriken AG", "channel_of_trade": null}, {"id": "CH-1547497554", "name": "BP Service Flamatt", "lat": 46.88976, "lng": 7.31182, "site_brand": "BP", "country_code": "CH", "address": "Bernstrasse 6", "city": "Flamatt", "state": null, "postcode": "3175", "telephone": "+41 848 848 490", "facilities": ["toilet", "shop", "accepts_routex_cards", "accepts_toll_payments", "automatic_site", "open_saturday", "open_sunday"], "products": ["ad_blue_cannister", "ad_blue_pump", "diesel_on", "ultimate", "ultimate_unleaded", "unleaded_95", "ad_blue"], "website": null, "watchlist_id": null, "formatted_address": "Bernstrasse 6\n3175\nFlamatt", "channel_of_trade": null}, {"id": "CH-1557148531", "name": "BP Station Yverdon", "lat": 46.79356, "lng": 6.62789, "site_brand": "BP", "country_code": "CH", "address": "Le Bey", "city": "Yverdon", "state": null, "postcode": "1400", "telephone": "+41 32 723 97 97", "facilities": ["car_wash", "motorway_site", "accepts_routex_cards", "automatic_site", "open_saturday", "open_sunday"], "products": [], "website": null, "watchlist_id": null, "formatted_address": "Le Bey\n1400\nYverdon", "channel_of_trade": null}, {"id": "CH-15593832", "name": "BP Tankstelle Littau-Luzern", "lat": 47.06616, "lng": 8.2695, "site_brand": "BP", "country_code": "CH", "address": "Staldenhof 1", "city": "Littau", "state": null, "postcode": "6014", "telephone": "+41 41 259 60 50", "facilities": ["motorway_site", "accepts_routex_cards", "automatic_site", "open_saturday", "open_sunday"], "products": [], "website": null, "watchlist_id": "15593832", "formatted_address": "Staldenhof 1\n6014\nLittau", "channel_of_trade": null}, {"id": "CH-1559447463", "name": "BP Station Saint-Sulpice", "lat": 46.51511, "lng": 6.56068, "site_brand": "BP", "country_code": "CH", "address": "Route Cantonale 55", "city": "St-Sulpice VD", "state": null, "postcode": "1025", "telephone": "+41 21 691 66 46", "facilities": ["motorway_site", "accepts_routex_cards", "automatic_site", "open_saturday", "open_sunday"], "products": [], "website": null, "watchlist_id": null, "formatted_address": "Route Cantonale 55\n1025\nSt-Sulpice VD", "channel_of_trade": null}, {"id": "CH-1573802951", "name": "BP Tankstelle Bronschhofen", "lat": 47.481462, "lng": 9.033041, "site_brand": "BP", "country_code": "CH", "address": "Hauptstrasse 47", "city": "Bronschhofen", "state": null, "postcode": "9552", "telephone": "+41 71 913 85 85", "facilities": ["motorway_site", "accepts_routex_cards", "automatic_site", "open_saturday", "open_sunday"], "products": [], "website": null, "watchlist_id": null, "formatted_address": "Hauptstrasse 47\n9552\nBronschhofen", "channel_of_trade": null}, {"id": "CH-1576535737", "name": "BP Station Aigle", "lat": 46.3179, "lng": 6.95824, "site_brand": "BP", "country_code": "CH", "address": "Route d'Evian 21", "city": "Aigle", "state": null, "postcode": "1860", "telephone": "+41 24 466 13 16", "facilities": ["motorway_site", "accepts_routex_cards", "automatic_site", "open_saturday", "open_sunday"], "products": [], "website": null, "watchlist_id": null, "formatted_address": "Route d'Evian 21\n1860\nAigle", "channel_of_trade": null}, {"id": "CH-1581436737", "name": "BP Tankstelle Maerstetten Gill", "lat": 47.584906, "lng": 9.057755, "site_brand": "BP", "country_code": "CH", "address": "Gillhofstrasse 9", "city": "Maerstetten", "state": null, "postcode": "8560", "telephone": "+41 848 848 490", "facilities": ["motorway_site", "accepts_routex_cards", "automatic_site", "open_saturday", "open_sunday"], "products": [], "website": null, "watchlist_id": null, "formatted_address": "Gillhofstrasse 9\n8560\nMaerstetten", "channel_of_trade": null}, {"id": "CH-1591964308", "name": "BP Tankstelle Sisseln", "lat": 47.5531913, "lng": 7.9913357, "site_brand": "BP", "country_code": "CH", "address": "Hauptstrasse 37", "city": "Sisseln", "state": null, "postcode": "4334", "telephone": "+41 79 322 42 01", "facilities": ["open_24_hours", "accepts_routex_cards", "open_saturday", "open_sunday"], "products": ["ad_blue_pump", "diesel_on", "unleaded_95", "ad_blue"], "website": null, "watchlist_id": null, "formatted_address": "Hauptstrasse 37\n4334\nSisseln", "channel_of_trade": null}, {"id": "CH-1593904694", "name": "BP Service Reichenburg", "lat": 47.169773, "lng": 8.975433, "site_brand": "BP", "country_code": "CH", "address": "Glaenternstrasse", "city": "Reichenburg", "state": null, "postcode": "8864", "telephone": "+41 848 848 490", "facilities": ["alcohol", "lotto", "tobacco", "truck_parking", "truck_suitable_site", "motorway_site", "shop", "accepts_routex_cards", "open_saturday", "open_sunday"], "products": ["ad_blue_cannister", "natural_gas"], "website": null, "watchlist_id": null, "formatted_address": "Glaenternstrasse\n8864\nReichenburg", "channel_of_trade": null}, {"id": "CH-1596440453", "name": "BP Service Montolivet", "lat": 46.510618, "lng": 6.639536, "site_brand": "BP", "country_code": "CH", "address": "Avenue Montchoisi 63", "city": "Lausane", "state": null, "postcode": "1006", "telephone": "+41 21 616 62 68", "facilities": ["alcohol", "lotto", "tobacco", "motorway_site", "shop", "accepts_routex_cards", "open_saturday", "open_sunday"], "products": ["ad_blue_cannister"], "website": null, "watchlist_id": null, "formatted_address": "Avenue Montchoisi 63\n1006\nLausane", "channel_of_trade": null}, {"id": "CH-1610612932", "name": "BP Tankstelle Suenikon", "lat": 47.4911296, "lng": 8.4371241, "site_brand": "BP", "country_code": "CH", "address": "Wehntalerstrasse 54", "city": "Suenikon", "state": null, "postcode": "8162", "telephone": "+41 76 319 75 85", "facilities": ["accepts_routex_cards"], "products": ["ad_blue_cannister"], "website": null, "watchlist_id": null, "formatted_address": "Wehntalerstrasse 54\n8162\nSuenikon", "channel_of_trade": null}, {"id": "CH-1610764763", "name": "BP Service Heidiland, A13", "lat": 47.011199, "lng": 9.512288, "site_brand": "BP", "country_code": "CH", "address": "A13", "city": "Maienfeld", "state": null, "postcode": "7304", "telephone": "+41 81 302 64 47", "facilities": ["alcohol", "lotto", "tobacco", "truck_parking", "truck_suitable_site", "motorway_site", "shop", "accepts_routex_cards", "open_saturday", "open_sunday"], "products": ["ad_blue_cannister"], "website": null, "watchlist_id": null, "formatted_address": "A13\n7304\nMaienfeld", "channel_of_trade": null}, {"id": "CH-1613799558", "name": "BP Service Werdenberg", "lat": 47.173714, "lng": 9.465247, "site_brand": "BP", "country_code": "CH", "address": "St. Gallerstrasse 67", "city": "Werdenberg", "state": null, "postcode": "9470", "telephone": "+41 848 848 490", "facilities": ["alcohol", "lotto", "tobacco", "truck_parking", "truck_suitable_site", "motorway_site", "shop", "accepts_routex_cards", "open_saturday", "open_sunday"], "products": ["ad_blue_cannister"], "website": null, "watchlist_id": null, "formatted_address": "St. Gallerstrasse 67\n9470\nWerdenberg", "channel_of_trade": null}, {"id": "CH-1622197894", "name": "BP Service Ruswil", "lat": 47.08005, "lng": 8.13056, "site_brand": "BP", "country_code": "CH", "address": "Hellbuehlerstrasse 30", "city": "Ruswil", "state": null, "postcode": "6017", "telephone": "+41 41 495 18 20", "facilities": ["alcohol", "lotto", "tobacco", "motorway_site", "shop", "accepts_routex_cards", "open_saturday", "open_sunday"], "products": ["ad_blue_cannister"], "website": null, "watchlist_id": null, "formatted_address": "Hellbuehlerstrasse 30\n6017\nRuswil", "channel_of_trade": null}, {"id": "CH-16336807", "name": "BP Service Atlante Melide", "lat": 45.9544, "lng": 8.94958, "site_brand": "BP", "country_code": "CH", "address": "Via Cantonale 15", "city": "Melide", "state": null, "postcode": "6815", "telephone": "+41 91 649 78 20", "facilities": ["alcohol", "lotto", "tobacco", "motorway_site", "shop", "accepts_routex_cards", "open_saturday", "open_sunday"], "products": ["ad_blue_cannister"], "website": null, "watchlist_id": "16336807", "formatted_address": "Via Cantonale 15\n6815\nMelide", "channel_of_trade": null}, {"id": "CH-16381795", "name": "BP Service Pfaeffikon", "lat": 47.369, "lng": 8.77913, "site_brand": "BP", "country_code": "CH", "address": "Kemptthalstrasse 54", "city": "Pfaeffikon ZH", "state": null, "postcode": "8330", "telephone": "+41 44 500 23 81", "facilities": ["alcohol", "lotto", "tobacco", "motorway_site", "shop", "accepts_routex_cards", "open_saturday", "open_sunday"], "products": ["ad_blue_cannister"], "website": null, "watchlist_id": "16381795", "formatted_address": "Kemptthalstrasse 54\n8330\nPfaeffikon ZH", "channel_of_trade": null}, {"id": "CH-1638801531", "name": "BP Tankstelle Le Landeron", "lat": 47.056383, "lng": 7.06075, "site_brand": "BP", "country_code": "CH", "address": "Route de Neuchatel 46", "city": "Le Landeron", "state": null, "postcode": "2525", "telephone": "+41 848 848 490", "facilities": ["motorway_site", "accepts_routex_cards", "automatic_site", "open_saturday", "open_sunday"], "products": [], "website": null, "watchlist_id": null, "formatted_address": "Route de Neuchatel 46\n2525\nLe Landeron", "channel_of_trade": null}, {"id": "CH-1641943682", "name": "BP Service Thurau Nord", "lat": 47.460971, "lng": 9.094341, "site_brand": "BP", "country_code": "CH", "address": "A1", "city": "Wil SG 1", "state": null, "postcode": "9501", "telephone": "+41 71 944 19 66", "facilities": ["alcohol", "lotto", "tobacco", "motorway_site", "shop", "accepts_routex_cards", "open_saturday", "open_sunday"], "products": ["ad_blue_cannister"], "website": null, "watchlist_id": null, "formatted_address": "A1\n9501\nWil SG 1", "channel_of_trade": null}, {"id": "CH-1642999617", "name": "BP Service St. Gallen West", "lat": 47.40733, "lng": 9.30264, "site_brand": "BP", "country_code": "CH", "address": "Zuercherstrasse 475", "city": "St Gallen", "state": null, "postcode": "9015", "telephone": "+41 76 311 77 89", "facilities": ["alcohol", "lotto", "tobacco", "motorway_site", "shop", "accepts_routex_cards", "open_saturday", "open_sunday"], "products": ["ad_blue_cannister", "natural_gas"], "website": null, "watchlist_id": null, "formatted_address": "Zuercherstrasse 475\n9015\nSt Gallen", "channel_of_trade": null}, {"id": "CH-1643660251", "name": "BP Station Chesieres", "lat": 46.30184, "lng": 7.04791, "site_brand": "BP", "country_code": "CH", "address": "Avenue Centrale 86", "city": "Chesieres", "state": null, "postcode": "1885", "telephone": "+41 62 556 61 61", "facilities": ["motorway_site", "accepts_routex_cards", "automatic_site", "open_saturday", "open_sunday"], "products": [], "website": null, "watchlist_id": null, "formatted_address": "Avenue Centrale 86\n1885\nChesieres", "channel_of_trade": null}, {"id": "CH-1648147495", "name": "BP Tankstelle Frauenfeld", "lat": 47.56284, "lng": 8.88088, "site_brand": "BP", "country_code": "CH", "address": "Schaffhauserstrasse 50", "city": "Frauenfeld", "state": null, "postcode": "8502", "telephone": "+41 52 723 68 68", "facilities": ["motorway_site", "accepts_routex_cards", "automatic_site", "open_saturday", "open_sunday"], "products": [], "website": null, "watchlist_id": null, "formatted_address": "Schaffhauserstrasse 50\n8502\nFrauenfeld", "channel_of_trade": null}, {"id": "CH-1654788680", "name": "BP Station Route Blanche Sud", "lat": 46.18971, "lng": 6.19794, "site_brand": "BP", "country_code": "CH", "address": "Route Blanche 9", "city": "Thonex", "state": null, "postcode": "1226", "telephone": "+41 76 311 77 73", "facilities": ["alcohol", "lotto", "tobacco", "truck_parking", "truck_suitable_site", "motorway_site", "shop", "accepts_routex_cards", "open_saturday", "open_sunday"], "products": ["ad_blue_cannister"], "website": null, "watchlist_id": null, "formatted_address": "Route Blanche 9\n1226\nThonex", "channel_of_trade": null}, {"id": "CH-1660399115", "name": "BP Service Wettingen", "lat": 47.462707, "lng": 8.33308, "site_brand": "BP", "country_code": "CH", "address": "Landstrasse 148", "city": "Wettingen", "state": null, "postcode": "5430", "telephone": "+41 56 426 33 62", "facilities": ["toilet", "shop", "wild_bean_cafe", "accepts_routex_cards", "accepts_toll_payments", "open_saturday", "open_sunday"], "products": ["ad_blue_cannister", "ad_blue_pump", "diesel_on", "ultimate", "ultimate_diesel", "ultimate_unleaded", "unleaded_95", "ad_blue"], "website": null, "watchlist_id": null, "formatted_address": "Landstrasse 148\n5430\nWettingen", "channel_of_trade": null}, {"id": "CH-1661386284", "name": "BP Service Monthey Manor", "lat": 46.259716, "lng": 6.947684, "site_brand": "BP", "country_code": "CH", "address": "Avenue de l'Europe 19", "city": "Monthey", "state": null, "postcode": "1870", "telephone": "+41 21 601 69 00", "facilities": ["alcohol", "lotto", "tobacco", "motorway_site", "shop", "accepts_routex_cards", "open_saturday", "open_sunday"], "products": ["ad_blue_cannister"], "website": null, "watchlist_id": null, "formatted_address": "Avenue de l'Europe 19\n1870\nMonthey", "channel_of_trade": null}, {"id": "CH-1666248118", "name": "BP Tankstelle Fischenthal", "lat": 47.329756, "lng": 8.918959, "site_brand": "BP", "country_code": "CH", "address": "Toesstalstrasse 438", "city": "Fischenthal", "state": null, "postcode": "8497", "telephone": "+41 848 848 490", "facilities": ["motorway_site", "accepts_routex_cards", "automatic_site", "open_saturday", "open_sunday"], "products": [], "website": null, "watchlist_id": null, "formatted_address": "Toesstalstrasse 438\n8497\nFischenthal", "channel_of_trade": null}, {"id": "CH-166705513", "name": "BP Tankstelle Alt St. Johann", "lat": 47.1909901, "lng": 9.2774361, "site_brand": "BP", "country_code": "CH", "address": "Hauptstrasse 6", "city": "Alt St. Johann", "state": null, "postcode": "9656", "telephone": "+41 71 913 33 46", "facilities": ["motorway_site", "accepts_routex_cards", "automatic_site", "open_saturday", "open_sunday"], "products": [], "website": null, "watchlist_id": null, "formatted_address": "Hauptstrasse 6\n9656\nAlt St. Johann", "channel_of_trade": null}, {"id": "CH-166738326", "name": "BP Tankstelle Koelliken", "lat": 47.3393002, "lng": 8.0260132, "site_brand": "BP", "country_code": "CH", "address": "Hauptstrasse 3", "city": "Koelliken", "state": null, "postcode": "5742", "telephone": "+41 62 723 22 55", "facilities": ["motorway_site", "accepts_routex_cards", "automatic_site", "open_saturday", "open_sunday"], "products": [], "website": null, "watchlist_id": null, "formatted_address": "Hauptstrasse 3\n5742\nKoelliken", "channel_of_trade": null}, {"id": "CH-1712522102", "name": "BP Service Buelach", "lat": 47.51287, "lng": 8.54314, "site_brand": "BP", "country_code": "CH", "address": "Zuerichstrasse 46", "city": "Buelach", "state": null, "postcode": "8180", "telephone": "+41 44 500 49 07", "facilities": ["alcohol", "lotto", "tobacco", "car_wash", "motorway_site", "shop", "accepts_routex_cards", "open_saturday", "open_sunday"], "products": ["ad_blue_cannister"], "website": null, "watchlist_id": null, "formatted_address": "Zuerichstrasse 46\n8180\nBuelach", "channel_of_trade": null}, {"id": "CH-1729085861", "name": "BP Service Wohlen", "lat": 47.35067, "lng": 8.27237, "site_brand": "BP", "country_code": "CH", "address": "Zentralstrasse 54", "city": "Wohlen AG", "state": null, "postcode": "5610", "telephone": "+41 56 511 05 30", "facilities": ["alcohol", "lotto", "tobacco", "truck_parking", "truck_suitable_site", "motorway_site", "shop", "accepts_routex_cards", "open_saturday", "open_sunday"], "products": ["ad_blue_cannister"], "website": null, "watchlist_id": null, "formatted_address": "Zentralstrasse 54\n5610\nWohlen AG", "channel_of_trade": null}, {"id": "CH-1739391367", "name": "BP Station Oron-la-Ville", "lat": 46.57149, "lng": 6.82638, "site_brand": "BP", "country_code": "CH", "address": "Route de Lausanne 3", "city": "Oron-la-Ville", "state": null, "postcode": "1610", "telephone": "+41 21 907 73 30", "facilities": ["motorway_site", "accepts_routex_cards", "automatic_site", "open_saturday", "open_sunday"], "products": [], "website": null, "watchlist_id": null, "formatted_address": "Route de Lausanne 3\n1610\nOron-la-Ville", "channel_of_trade": null}, {"id": "CH-1745287333", "name": "BP Tankstelle Bischofszell", "lat": 47.49785, "lng": 9.24131, "site_brand": "BP", "country_code": "CH", "address": "Amriswilerstrasse 4", "city": "Bischofszell", "state": null, "postcode": "9220", "telephone": "+41 848 848 490", "facilities": ["motorway_site", "accepts_routex_cards", "automatic_site", "open_saturday", "open_sunday"], "products": [], "website": null, "watchlist_id": null, "formatted_address": "Amriswilerstrasse 4\n9220\nBischofszell", "channel_of_trade": null}, {"id": "CH-1776135814", "name": "BP Service Agno", "lat": 46.006113, "lng": 8.902236, "site_brand": "BP", "country_code": "CH", "address": "Strada Regina 151", "city": "Agno", "state": null, "postcode": "6982", "telephone": "+41 91 605 67 86", "facilities": ["alcohol", "lotto", "tobacco", "motorway_site", "shop", "accepts_routex_cards", "open_saturday", "open_sunday"], "products": ["ad_blue_cannister"], "website": null, "watchlist_id": null, "formatted_address": "Strada Regina 151\n6982\nAgno", "channel_of_trade": null}, {"id": "CH-1777200757", "name": "BP Tankstelle Luechingen", "lat": 47.3887, "lng": 9.56129, "site_brand": "BP", "country_code": "CH", "address": "Rorschacherstrasse 132", "city": "Altstaetten SG", "state": null, "postcode": "9450", "telephone": "+41 71 757 80 20", "facilities": ["motorway_site", "accepts_routex_cards", "automatic_site", "open_saturday", "open_sunday"], "products": [], "website": null, "watchlist_id": null, "formatted_address": "Rorschacherstrasse 132\n9450\nAltstaetten SG", "channel_of_trade": null}, {"id": "CH-1812544875", "name": "BP Tankstelle Mettlen", "lat": 47.53088, "lng": 9.12459, "site_brand": "BP", "country_code": "CH", "address": "Buerglenstrasse 1", "city": "Mettlen", "state": null, "postcode": "9517", "telephone": "+41 848 848 490", "facilities": ["motorway_site", "accepts_routex_cards", "automatic_site", "open_saturday", "open_sunday"], "products": [], "website": null, "watchlist_id": null, "formatted_address": "Buerglenstrasse 1\n9517\nMettlen", "channel_of_trade": null}, {"id": "CH-1826376834", "name": "BP Service Wettingen", "lat": 47.462707, "lng": 8.33308, "site_brand": "BP", "country_code": "CH", "address": "Landstrasse 148", "city": "Wettingen", "state": null, "postcode": "5430", "telephone": "+41 56 511 02 44", "facilities": ["alcohol", "lotto", "tobacco", "motorway_site", "shop", "accepts_routex_cards", "open_saturday", "open_sunday"], "products": ["ad_blue_cannister"], "website": null, "watchlist_id": null, "formatted_address": "Landstrasse 148\n5430\nWettingen", "channel_of_trade": null}, {"id": "CH-1827607197", "name": "BP Service Airport", "lat": 47.44886, "lng": 8.56645, "site_brand": "BP", "country_code": "CH", "address": "Flughafenstrasse 79", "city": "Kloten", "state": null, "postcode": "8302", "telephone": "+41 44 500 43 28", "facilities": ["open_24_hours", "alcohol", "lotto", "tobacco", "car_wash", "truck_parking", "truck_suitable_site", "motorway_site", "shop", "accepts_routex_cards", "open_saturday", "open_sunday"], "products": ["ad_blue_cannister"], "website": null, "watchlist_id": null, "formatted_address": "Flughafenstrasse 79\n8302\nKloten", "channel_of_trade": null}, {"id": "CH-1828736427", "name": "BP Service Pratteln-Nord", "lat": 47.52745, "lng": 7.70263, "site_brand": "BP", "country_code": "CH", "address": "Pratteln Nord", "city": "Pratteln", "state": null, "postcode": "4133", "telephone": "+41 61 827 57 00", "facilities": ["open_24_hours", "alcohol", "lotto", "tobacco", "motorway_site", "shop", "accepts_routex_cards", "open_saturday", "open_sunday"], "products": ["ad_blue_cannister", "natural_gas"], "website": null, "watchlist_id": null, "formatted_address": "Pratteln Nord\n4133\nPratteln", "channel_of_trade": null}, {"id": "CH-1829560462", "name": "BP Tankstelle Buelach Kernstra", "lat": 47.52486, "lng": 8.53914, "site_brand": "BP", "country_code": "CH", "address": "Kernstrasse 6", "city": "Buelach", "state": null, "postcode": "8180", "telephone": "+41 44 886 28 55", "facilities": ["motorway_site", "accepts_routex_cards", "automatic_site", "open_saturday", "open_sunday"], "products": [], "website": null, "watchlist_id": null, "formatted_address": "Kernstrasse 6\n8180\nBuelach", "channel_of_trade": null}, {"id": "CH-1840251513", "name": "BP Station La Chaux-de-Fonds C", "lat": 47.094365, "lng": 6.82147, "site_brand": "BP", "country_code": "CH", "address": "Rue de Cretets 90", "city": "La Chaux-de-Fonds", "state": null, "postcode": "2300", "telephone": "+41 32 723 97 97", "facilities": ["motorway_site", "accepts_routex_cards", "automatic_site", "open_saturday", "open_sunday"], "products": [], "website": null, "watchlist_id": null, "formatted_address": "Rue de Cretets 90\n2300\nLa Chaux-de-Fonds", "channel_of_trade": null}, {"id": "CH-1862388193", "name": "BP Tankstelle Goldach", "lat": 47.47711, "lng": 9.46215, "site_brand": "BP", "country_code": "CH", "address": "Bruggmuehlestrasse 26", "city": "Goldach", "state": null, "postcode": "9403", "telephone": "+41 71 913 33 33", "facilities": ["motorway_site", "accepts_routex_cards", "automatic_site", "open_saturday", "open_sunday"], "products": [], "website": null, "watchlist_id": null, "formatted_address": "Bruggmuehlestrasse 26\n9403\nGoldach", "channel_of_trade": null}, {"id": "CH-1864818220", "name": "BP Service Heiligkreuz", "lat": 47.442786, "lng": 9.395078, "site_brand": "BP", "country_code": "CH", "address": "Langgasse 124", "city": "St Gallen", "state": null, "postcode": "9008", "telephone": "+41 71 525 48 74", "facilities": ["alcohol", "lotto", "tobacco", "motorway_site", "shop", "accepts_routex_cards", "open_saturday", "open_sunday"], "products": ["ad_blue_cannister"], "website": null, "watchlist_id": null, "formatted_address": "Langgasse 124\n9008\nSt Gallen", "channel_of_trade": null}, {"id": "CH-1877009209", "name": "BP Tankstelle Buetzberg", "lat": 47.217469, "lng": 7.756369, "site_brand": "BP", "country_code": "CH", "address": "Zuerichstrasse 37", "city": "Buetzberg", "state": null, "postcode": "4922", "telephone": "+41 62 958 60 70", "facilities": ["car_wash", "truck_parking", "truck_suitable_site", "motorway_site", "accepts_routex_cards", "automatic_site", "open_saturday", "open_sunday"], "products": [], "website": null, "watchlist_id": null, "formatted_address": "Zuerichstrasse 37\n4922\nBuetzberg", "channel_of_trade": null}, {"id": "CH-1878397877", "name": "BP Service Muestair", "lat": 46.634, "lng": 10.45738, "site_brand": "BP", "country_code": "CH", "address": "Parc Rom", "city": "Muestair", "state": null, "postcode": "7537", "telephone": "+41 81 858 51 69", "facilities": ["alcohol", "lotto", "tobacco", "truck_parking", "truck_suitable_site", "motorway_site", "shop", "accepts_routex_cards", "open_saturday", "open_sunday"], "products": ["ad_blue_cannister"], "website": null, "watchlist_id": null, "formatted_address": "Parc Rom\n7537\nMuestair", "channel_of_trade": null}, {"id": "CH-1879108753", "name": "BP Service Diepoldsau", "lat": 47.38848, "lng": 9.65159, "site_brand": "BP", "country_code": "CH", "address": "Tramstrasse 19", "city": "Diepoldsau", "state": null, "postcode": "9444", "telephone": "+41 848 848 490", "facilities": ["motorway_site", "shop", "accepts_routex_cards", "open_saturday", "open_sunday"], "products": ["ad_blue_cannister"], "website": null, "watchlist_id": null, "formatted_address": "Tramstrasse 19\n9444\nDiepoldsau", "channel_of_trade": null}, {"id": "CH-1879570845", "name": "BP Service Blecherette", "lat": 46.54148, "lng": 6.61765, "site_brand": "BP", "country_code": "CH", "address": "Avenue du Grey 119", "city": "Lausanne", "state": null, "postcode": "1018", "telephone": "+41 76 311 77 84", "facilities": ["alcohol", "lotto", "tobacco", "truck_parking", "truck_suitable_site", "motorway_site", "shop", "accepts_routex_cards", "open_saturday", "open_sunday"], "products": ["ad_blue_cannister", "natural_gas"], "website": null, "watchlist_id": null, "formatted_address": "Avenue du Grey 119\n1018\nLausanne", "channel_of_trade": null}, {"id": "CH-1881255983", "name": "BP Service Neudorf", "lat": 47.44018, "lng": 9.40996, "site_brand": "BP", "country_code": "CH", "address": "Rorschacherstrasse 271", "city": "St Gallen", "state": null, "postcode": "9016", "telephone": "+41 76 595 23 46", "facilities": ["alcohol", "lotto", "tobacco", "car_wash", "truck_parking", "truck_suitable_site", "motorway_site", "shop", "accepts_routex_cards", "open_saturday", "open_sunday"], "products": ["ad_blue_cannister", "natural_gas"], "website": null, "watchlist_id": null, "formatted_address": "Rorschacherstrasse 271\n9016\nSt Gallen", "channel_of_trade": null}, {"id": "CH-1898518185", "name": "BP Service Rheinfelden", "lat": 47.549066, "lng": 7.771158, "site_brand": "BP", "country_code": "CH", "address": "Weidenweg 24", "city": "Rheinfelden", "state": null, "postcode": "4310", "telephone": "+41 848 848 490", "facilities": ["toilet", "shop", "accepts_routex_cards", "accepts_toll_payments", "open_saturday", "open_sunday"], "products": ["ad_blue_cannister", "diesel_on", "ultimate", "ultimate_unleaded", "unleaded_95"], "website": null, "watchlist_id": null, "formatted_address": "Weidenweg 24\n4310\nRheinfelden", "channel_of_trade": null}, {"id": "CH-1906960040", "name": "BP Station Chalais", "lat": 46.27058, "lng": 7.51686, "site_brand": "BP", "country_code": "CH", "address": "Route de Chippis 35", "city": "Chalais", "state": null, "postcode": "3966", "telephone": "+41 27 458 22 87", "facilities": ["car_wash", "motorway_site", "accepts_routex_cards", "automatic_site", "open_saturday", "open_sunday"], "products": [], "website": null, "watchlist_id": null, "formatted_address": "Route de Chippis 35\n3966\nChalais", "channel_of_trade": null}, {"id": "CH-1912196530", "name": "BP Service Maerstetten Frauenf", "lat": 47.583559, "lng": 9.056616, "site_brand": "BP", "country_code": "CH", "address": "Frauenfelderstrasse 16", "city": "Maerstetten", "state": null, "postcode": "8560", "telephone": "+41 848 848 490", "facilities": ["alcohol", "lotto", "tobacco", "motorway_site", "shop", "accepts_routex_cards", "open_saturday", "open_sunday"], "products": ["ad_blue_cannister"], "website": null, "watchlist_id": null, "formatted_address": "Frauenfelderstrasse 16\n8560\nMaerstetten", "channel_of_trade": null}, {"id": "CH-1917038425", "name": "BP Service Novazzano", "lat": 45.84279, "lng": 8.9742, "site_brand": "BP", "country_code": "CH", "address": "Via Casate 12", "city": "Novazzano", "state": null, "postcode": "6883", "telephone": "+41 91 647 11 64", "facilities": ["alcohol", "lotto", "tobacco", "motorway_site", "shop", "accepts_routex_cards", "open_saturday", "open_sunday"], "products": ["ad_blue_cannister"], "website": null, "watchlist_id": null, "formatted_address": "Via Casate 12\n6883\nNovazzano", "channel_of_trade": null}, {"id": "CH-1918291769", "name": "BP Stazione Acquarossa", "lat": 46.4508458, "lng": 8.9403879, "site_brand": "BP", "country_code": "CH", "address": "Via Cantonale 127", "city": "Acquarossa", "state": null, "postcode": "6716", "telephone": "+41 91 880 70 15", "facilities": ["motorway_site", "accepts_routex_cards", "automatic_site", "open_saturday", "open_sunday"], "products": [], "website": null, "watchlist_id": null, "formatted_address": "Via Cantonale 127\n6716\nAcquarossa", "channel_of_trade": null}, {"id": "CH-1926368926", "name": "BP Tankstelle Rothrist", "lat": 47.30932, "lng": 7.89347, "site_brand": "BP", "country_code": "CH", "address": "Helblingstrasse 1", "city": "Rothrist", "state": null, "postcode": "4852", "telephone": "+41 62 785 20 73", "facilities": ["motorway_site", "accepts_routex_cards", "automatic_site", "open_saturday", "open_sunday"], "products": [], "website": null, "watchlist_id": null, "formatted_address": "Helblingstrasse 1\n4852\nRothrist", "channel_of_trade": null}, {"id": "CH-1927072827", "name": "BP Tankstelle Fislisbach", "lat": 47.437101, "lng": 8.291716, "site_brand": "BP", "country_code": "CH", "address": "Badenerstrasse 14", "city": "Fislisbach", "state": null, "postcode": "5442", "telephone": "+41 56 501 00 57", "facilities": ["alcohol", "lotto", "tobacco", "motorway_site", "shop", "accepts_routex_cards", "open_saturday", "open_sunday"], "products": ["ad_blue_cannister"], "website": null, "watchlist_id": null, "formatted_address": "Badenerstrasse 14\n5442\nFislisbach", "channel_of_trade": null}, {"id": "CH-1928391015", "name": "BP Service Moudon", "lat": 46.66672, "lng": 6.8002, "site_brand": "BP", "country_code": "CH", "address": "Route Cantonale 601", "city": "Moudon", "state": null, "postcode": "1510", "telephone": "+41 76 311 79 91", "facilities": ["alcohol", "lotto", "tobacco", "motorway_site", "shop", "accepts_routex_cards", "open_saturday", "open_sunday"], "products": ["ad_blue_cannister"], "website": null, "watchlist_id": null, "formatted_address": "Route Cantonale 601\n1510\nMoudon", "channel_of_trade": null}, {"id": "CH-1929318547", "name": "BP Station Etoy", "lat": 46.474368, "lng": 6.413154, "site_brand": "BP", "country_code": "CH", "address": "Route d'Allaman 8A", "city": "Etoy", "state": null, "postcode": "1163", "telephone": "+41 21 807 41 41", "facilities": ["motorway_site", "accepts_routex_cards", "automatic_site", "open_saturday", "open_sunday"], "products": [], "website": null, "watchlist_id": null, "formatted_address": "Route d'Allaman 8A\n1163\nEtoy", "channel_of_trade": null}, {"id": "CH-1929779579", "name": "BP Tankstelle Luzern", "lat": 47.05155, "lng": 8.2991, "site_brand": "BP", "country_code": "CH", "address": "Bruchstrasse 3", "city": "Luzern", "state": null, "postcode": "6003", "telephone": "+41 41 240 75 75", "facilities": ["motorway_site", "accepts_routex_cards", "automatic_site", "open_saturday", "open_sunday"], "products": [], "website": null, "watchlist_id": null, "formatted_address": "Bruchstrasse 3\n6003\nLuzern", "channel_of_trade": null}, {"id": "CH-1929832890", "name": "BP Service Arbon", "lat": 47.504189, "lng": 9.426929, "site_brand": "BP", "country_code": "CH", "address": "Landquartstrasse 91", "city": "Arbon", "state": null, "postcode": "9320", "telephone": "+41 76 375 99 46", "facilities": ["alcohol", "lotto", "tobacco", "truck_parking", "truck_suitable_site", "motorway_site", "shop", "accepts_routex_cards", "open_saturday", "open_sunday"], "products": ["ad_blue_cannister"], "website": null, "watchlist_id": null, "formatted_address": "Landquartstrasse 91\n9320\nArbon", "channel_of_trade": null}, {"id": "CH-1930624329", "name": "BP Tankstelle Eurospar Schaeni", "lat": 47.155711, "lng": 9.03795, "site_brand": "BP", "country_code": "CH", "address": "Biltnerstrasse 32", "city": "Schaenis", "state": null, "postcode": "8718", "telephone": "+41 848 848 490", "facilities": ["motorway_site", "accepts_routex_cards", "automatic_site", "open_saturday", "open_sunday"], "products": [], "website": null, "watchlist_id": null, "formatted_address": "Biltnerstrasse 32\n8718\nSchaenis", "channel_of_trade": null}, {"id": "CH-1930870053", "name": "BP Service Bad Ragaz", "lat": 47.007222, "lng": 9.498887, "site_brand": "BP", "country_code": "CH", "address": "Sarganserstrasse 28", "city": "Bad Ragaz", "state": null, "postcode": "7310", "telephone": "+41 81 330 17 67", "facilities": ["alcohol", "lotto", "tobacco", "motorway_site", "shop", "accepts_routex_cards", "open_saturday", "open_sunday"], "products": ["ad_blue_cannister"], "website": null, "watchlist_id": null, "formatted_address": "Sarganserstrasse 28\n7310\nBad Ragaz", "channel_of_trade": null}, {"id": "CH-1933703225", "name": "BP Service Winterthur Frauenfe", "lat": 47.51108, "lng": 8.76049, "site_brand": "BP", "country_code": "CH", "address": "Frauenfelderstrasse 9", "city": "Winterthur", "state": null, "postcode": "8404", "telephone": "+41 52 244 80 00", "facilities": ["open_24_hours", "alcohol", "lotto", "tobacco", "motorway_site", "shop", "accepts_routex_cards", "open_saturday", "open_sunday"], "products": ["ad_blue_cannister", "ad_blue_pump", "ad_blue"], "website": null, "watchlist_id": null, "formatted_address": "Frauenfelderstrasse 9\n8404\nWinterthur", "channel_of_trade": null}, {"id": "CH-1940473478", "name": "BP Service Coldrerio N-S", "lat": 45.8504, "lng": 8.981699, "site_brand": "BP", "country_code": "CH", "address": "Via San Giorgio 37", "city": "Coldrerio", "state": null, "postcode": "6877", "telephone": "+41 91 640 37 10", "facilities": ["open_24_hours", "alcohol", "lotto", "tobacco", "truck_parking", "truck_suitable_site", "motorway_site", "shop", "accepts_routex_cards", "open_saturday", "open_sunday"], "products": ["ad_blue_cannister"], "website": null, "watchlist_id": null, "formatted_address": "Via San Giorgio 37\n6877\nColdrerio", "channel_of_trade": null}, {"id": "CH-1993146298", "name": "BP Service Langenthal", "lat": 47.223547, "lng": 7.778277, "site_brand": "BP", "country_code": "CH", "address": "Bern - Zuerichstrasse 95", "city": "Langenthal", "state": null, "postcode": "4900", "telephone": "+41 848 848 490", "facilities": ["alcohol", "lotto", "tobacco", "motorway_site", "shop", "accepts_routex_cards", "open_saturday", "open_sunday"], "products": ["ad_blue_cannister", "natural_gas"], "website": null, "watchlist_id": null, "formatted_address": "Bern - Zuerichstrasse 95\n4900\nLangenthal", "channel_of_trade": null}, {"id": "CH-1994266584", "name": "BP Tankstelle Sarnen", "lat": 46.89943, "lng": 8.24653, "site_brand": "BP", "country_code": "CH", "address": "Bruenigstrasse 109", "city": "Sarnen", "state": null, "postcode": "6060", "telephone": "+41 41 660 18 88", "facilities": ["motorway_site", "accepts_routex_cards", "automatic_site", "open_saturday", "open_sunday"], "products": [], "website": null, "watchlist_id": null, "formatted_address": "Bruenigstrasse 109\n6060\nSarnen", "channel_of_trade": null}, {"id": "CH-2008227120", "name": "BP Tankstelle Sargans", "lat": 47.047445, "lng": 9.432722, "site_brand": "BP", "country_code": "CH", "address": "Grossfeldstrasse 81", "city": "Sargans", "state": null, "postcode": "7320", "telephone": "+41 81 720 48 68", "facilities": ["motorway_site", "accepts_routex_cards", "automatic_site", "open_saturday", "open_sunday"], "products": [], "website": null, "watchlist_id": null, "formatted_address": "Grossfeldstrasse 81\n7320\nSargans", "channel_of_trade": null}, {"id": "CH-2012269981", "name": "BP Service Pully", "lat": 46.51212, "lng": 6.65927, "site_brand": "BP", "country_code": "CH", "address": "Avenue de Lavaux 38", "city": "Pully", "state": null, "postcode": "1009", "telephone": "+41 76 311 84 01", "facilities": ["alcohol", "lotto", "tobacco", "motorway_site", "shop", "accepts_routex_cards", "open_saturday", "open_sunday"], "products": ["ad_blue_cannister"], "website": null, "watchlist_id": null, "formatted_address": "Avenue de Lavaux 38\n1009\nPully", "channel_of_trade": null}, {"id": "CH-201513306", "name": "BP Service Wiedikon", "lat": 47.37285, "lng": 8.52111, "site_brand": "BP", "country_code": "CH", "address": "Seebahnstrasse 110", "city": "Zuerich", "state": null, "postcode": "8003", "telephone": "+41 44 500 41 57", "facilities": ["open_24_hours", "alcohol", "lotto", "tobacco", "truck_parking", "truck_suitable_site", "motorway_site", "shop", "accepts_routex_cards", "open_saturday", "open_sunday"], "products": ["ad_blue_cannister"], "website": null, "watchlist_id": null, "formatted_address": "Seebahnstrasse 110\n8003\nZuerich", "channel_of_trade": null}, {"id": "CH-2015493968", "name": "BP Station Saxon", "lat": 46.15186, "lng": 7.17943, "site_brand": "BP", "country_code": "CH", "address": "Route du Simplon 7", "city": "Saxon", "state": null, "postcode": "1907", "telephone": "+41 27 744 23 33", "facilities": ["motorway_site", "accepts_routex_cards", "automatic_site", "open_saturday", "open_sunday"], "products": [], "website": null, "watchlist_id": null, "formatted_address": "Route du Simplon 7\n1907\nSaxon", "channel_of_trade": null}, {"id": "CH-201720649", "name": "BP Tankstelle Kuesnacht ZH", "lat": 47.32266, "lng": 8.57816, "site_brand": "BP", "country_code": "CH", "address": "Seestrasse 89", "city": "Kuesnacht ZH", "state": null, "postcode": "8700", "telephone": "+41 44 914 70 80", "facilities": ["motorway_site", "accepts_routex_cards", "automatic_site", "open_saturday", "open_sunday"], "products": [], "website": null, "watchlist_id": null, "formatted_address": "Seestrasse 89\n8700\nKuesnacht ZH", "channel_of_trade": null}, {"id": "CH-201786150", "name": "BP Service Zuerich Witikonerst", "lat": 47.36253, "lng": 8.56802, "site_brand": "BP", "country_code": "CH", "address": "Witikonerstrasse 48", "city": "Zuerich", "state": null, "postcode": "8032", "telephone": "+41 44 381 02 70", "facilities": ["alcohol", "lotto", "tobacco", "motorway_site", "shop", "accepts_routex_cards", "open_saturday", "open_sunday"], "products": ["ad_blue_cannister"], "website": null, "watchlist_id": null, "formatted_address": "Witikonerstrasse 48\n8032\nZuerich", "channel_of_trade": null}, {"id": "CH-2032934282", "name": "BP Tankstelle Lyss", "lat": 47.068014, "lng": 7.315934, "site_brand": "BP", "country_code": "CH", "address": "Bernstrasse 38", "city": "Lyss", "state": null, "postcode": "3250", "telephone": "+41 848 848 490", "facilities": ["motorway_site", "accepts_routex_cards", "automatic_site", "open_saturday", "open_sunday"], "products": [], "website": null, "watchlist_id": null, "formatted_address": "Bernstrasse 38\n3250\nLyss", "channel_of_trade": null}, {"id": "CH-2034415771", "name": "BP Service Spiez", "lat": 46.68706, "lng": 7.66778, "site_brand": "BP", "country_code": "CH", "address": "Simmentalstrasse 30", "city": "Spiez", "state": null, "postcode": "3700", "telephone": "+41 33 654 41 71", "facilities": ["alcohol", "lotto", "tobacco", "motorway_site", "shop", "accepts_routex_cards", "open_saturday", "open_sunday"], "products": ["ad_blue_cannister"], "website": null, "watchlist_id": null, "formatted_address": "Simmentalstrasse 30\n3700\nSpiez", "channel_of_trade": null}, {"id": "CH-2083003864", "name": "BP Tankstelle Tann", "lat": 47.26998, "lng": 8.85274, "site_brand": "BP", "country_code": "CH", "address": "Hauptstrasse 61", "city": "Tann", "state": null, "postcode": "8632", "telephone": "+41 55 241 31 71", "facilities": ["motorway_site", "accepts_routex_cards", "automatic_site", "open_saturday", "open_sunday"], "products": [], "website": null, "watchlist_id": null, "formatted_address": "Hauptstrasse 61\n8632\nTann", "channel_of_trade": null}, {"id": "CH-2084437565", "name": "BP Tankstelle Gruet", "lat": 47.30629, "lng": 8.78048, "site_brand": "BP", "country_code": "CH", "address": "Gruenigerstrasse 80", "city": "Gruet (Gossau ZH)", "state": null, "postcode": "8624", "telephone": "+41 44 932 33 59", "facilities": ["motorway_site", "accepts_routex_cards", "automatic_site", "open_saturday", "open_sunday"], "products": [], "website": null, "watchlist_id": null, "formatted_address": "Gruenigerstrasse 80\n8624\nGruet (Gossau ZH)", "channel_of_trade": null}, {"id": "CH-2091793815", "name": "BP Service Weinland Ost", "lat": 47.58166, "lng": 8.68283, "site_brand": "BP", "country_code": "CH", "address": "Hauptstrasse 4", "city": "Adlikon b. Andelfingen", "state": null, "postcode": "8452", "telephone": "+41 76 815 60 87", "facilities": ["alcohol", "lotto", "tobacco", "truck_parking", "truck_suitable_site", "motorway_site", "shop", "accepts_routex_cards", "open_saturday", "open_sunday"], "products": ["ad_blue_cannister"], "website": null, "watchlist_id": null, "formatted_address": "Hauptstrasse 4\n8452\nAdlikon b. Andelfingen", "channel_of_trade": null}, {"id": "CH-209987616", "name": "BP Tankstelle Basel", "lat": 47.5616083, "lng": 7.5680092, "site_brand": "BP", "country_code": "CH", "address": "Hegenheimerstrasse 105", "city": "Basel", "state": null, "postcode": "4055", "telephone": "+41 44 363 62 42", "facilities": ["open_24_hours", "accepts_routex_cards", "open_saturday", "open_sunday"], "products": ["ad_blue_pump", "diesel_on", "ultimate", "ultimate_unleaded", "unleaded_95", "ad_blue"], "website": null, "watchlist_id": null, "formatted_address": "Hegenheimerstrasse 105\n4055\nBasel", "channel_of_trade": null}, {"id": "CH-2114121801", "name": "BP Service Preverenges", "lat": 46.51591, "lng": 6.53299, "site_brand": "BP", "country_code": "CH", "address": "Route de Geneve 58", "city": "Preverenges", "state": null, "postcode": "1028", "telephone": "+41 21 801 15 44", "facilities": ["alcohol", "lotto", "tobacco", "motorway_site", "shop", "accepts_routex_cards", "open_saturday", "open_sunday"], "products": ["ad_blue_cannister"], "website": null, "watchlist_id": null, "formatted_address": "Route de Geneve 58\n1028\nPreverenges", "channel_of_trade": null}, {"id": "CH-2118188912", "name": "BP Service Grand-Lancy", "lat": 46.173779, "lng": 6.128241, "site_brand": "BP", "country_code": "CH", "address": "Route de St-Julien 70", "city": "Grand-Lancy", "state": null, "postcode": "1212", "telephone": "+41 76 311 77 70", "facilities": ["alcohol", "lotto", "tobacco", "truck_parking", "truck_suitable_site", "motorway_site", "shop", "accepts_routex_cards", "open_saturday", "open_sunday"], "products": ["ad_blue_cannister"], "website": null, "watchlist_id": null, "formatted_address": "Route de St-Julien 70\n1212\nGrand-Lancy", "channel_of_trade": null}, {"id": "CH-2127808565", "name": "BP Tankstelle Mumpf", "lat": 47.5453, "lng": 7.92557, "site_brand": "BP", "country_code": "CH", "address": "Hauptstrasse 5", "city": "Mumpf", "state": null, "postcode": "4322", "telephone": "+41 62 873 12 66", "facilities": ["motorway_site", "accepts_routex_cards", "automatic_site", "open_saturday", "open_sunday"], "products": [], "website": null, "watchlist_id": null, "formatted_address": "Hauptstrasse 5\n4322\nMumpf", "channel_of_trade": null}, {"id": "CH-2131211199", "name": "BP Tankstelle Gaehwil", "lat": 47.397302, "lng": 9.00641, "site_brand": "BP", "country_code": "CH", "address": "Kirchbergerstrasse 36", "city": "Gaehwil", "state": null, "postcode": "9534", "telephone": "+41 848 848 490", "facilities": ["motorway_site", "accepts_routex_cards", "automatic_site", "open_saturday", "open_sunday"], "products": [], "website": null, "watchlist_id": null, "formatted_address": "Kirchbergerstrasse 36\n9534\nGaehwil", "channel_of_trade": null}, {"id": "CH-2132592678", "name": "BP Service Reinach", "lat": 47.4983336, "lng": 7.5969141, "site_brand": "BP", "country_code": "CH", "address": "Baselstrasse 44", "city": "Reinach BL", "state": null, "postcode": "4153", "telephone": "+41 61 511 76 90", "facilities": ["alcohol", "lotto", "tobacco", "motorway_site", "shop", "accepts_routex_cards", "open_saturday", "open_sunday"], "products": ["ad_blue_cannister"], "website": null, "watchlist_id": null, "formatted_address": "Baselstrasse 44\n4153\nReinach BL", "channel_of_trade": null}, {"id": "CH-2136201436", "name": "BP Tankstelle Ricken", "lat": 47.261646, "lng": 9.041845, "site_brand": "BP", "country_code": "CH", "address": "Rapperswilerstrasse 17", "city": "Ricken SG", "state": null, "postcode": "8726", "telephone": "+41 848 848 490", "facilities": ["motorway_site", "accepts_routex_cards", "automatic_site", "open_saturday", "open_sunday"], "products": [], "website": null, "watchlist_id": null, "formatted_address": "Rapperswilerstrasse 17\n8726\nRicken SG", "channel_of_trade": null}, {"id": "CH-2147414630", "name": "BP Station Belfaux", "lat": 46.8213969, "lng": 7.1071785, "site_brand": "BP", "country_code": "CH", "address": "Route du Centre 5", "city": "Belfaux", "state": null, "postcode": "1782", "telephone": "+41 26 475 12 36", "facilities": ["motorway_site", "accepts_routex_cards", "automatic_site", "open_saturday", "open_sunday"], "products": [], "website": null, "watchlist_id": null, "formatted_address": "Route du Centre 5\n1782\nBelfaux", "channel_of_trade": null}, {"id": "CH-216939945", "name": "BP Service Lugano Sud", "lat": 45.99492, "lng": 8.94277, "site_brand": "BP", "country_code": "CH", "address": "Via A. Riva 6", "city": "Lugano", "state": null, "postcode": "6900", "telephone": "+41 91 994 36 51", "facilities": ["alcohol", "lotto", "tobacco", "motorway_site", "shop", "accepts_routex_cards", "open_saturday", "open_sunday"], "products": ["ad_blue_cannister"], "website": null, "watchlist_id": null, "formatted_address": "Via A. Riva 6\n6900\nLugano", "channel_of_trade": null}, {"id": "CH-217047539", "name": "BP Service Gossau St. Gallerst", "lat": 47.41367, "lng": 9.27098, "site_brand": "BP", "country_code": "CH", "address": "St. Gallerstrasse 241", "city": "Gossau SG", "state": null, "postcode": "9200", "telephone": "+41 848 848 490", "facilities": ["alcohol", "lotto", "tobacco", "motorway_site", "shop", "accepts_routex_cards", "open_saturday", "open_sunday"], "products": ["ad_blue_cannister"], "website": null, "watchlist_id": null, "formatted_address": "St. Gallerstrasse 241\n9200\nGossau SG", "channel_of_trade": null}, {"id": "CH-217260617", "name": "BP Service Sion", "lat": 46.22323, "lng": 7.34753, "site_brand": "BP", "country_code": "CH", "address": "Rue de la Traversiere 2", "city": "Sion", "state": null, "postcode": "1950", "telephone": "+41 76 683 86 91", "facilities": ["alcohol", "lotto", "tobacco", "car_wash", "truck_parking", "truck_suitable_site", "motorway_site", "shop", "accepts_routex_cards", "open_saturday", "open_sunday"], "products": ["ad_blue_cannister", "natural_gas"], "website": null, "watchlist_id": null, "formatted_address": "Rue de la Traversiere 2\n1950\nSion", "channel_of_trade": null}, {"id": "CH-218248091", "name": "BP Tankstelle Kriens", "lat": 47.02878, "lng": 8.29691, "site_brand": "BP", "country_code": "CH", "address": "Nidfeld/Sternmattweg 4", "city": "Kriens", "state": null, "postcode": "6010", "telephone": "+41 41 318 02 70", "facilities": ["motorway_site", "accepts_routex_cards", "automatic_site", "open_saturday", "open_sunday"], "products": [], "website": null, "watchlist_id": null, "formatted_address": "Nidfeld/Sternmattweg 4\n6010\nKriens", "channel_of_trade": null}, {"id": "CH-219411086", "name": "BP Tankstelle Biel Boezingenst", "lat": 47.150401, "lng": 7.262649, "site_brand": "BP", "country_code": "CH", "address": "Boezingenstrasse 100", "city": "Biel", "state": null, "postcode": "2502", "telephone": "+41 32 341 55 66", "facilities": ["motorway_site", "accepts_routex_cards", "automatic_site", "open_saturday", "open_sunday"], "products": [], "website": null, "watchlist_id": null, "formatted_address": "Boezingenstrasse 100\n2502\nBiel", "channel_of_trade": null}, {"id": "CH-221183402", "name": "BP Station Bulle", "lat": 46.615407, "lng": 7.052104, "site_brand": "BP", "country_code": "CH", "address": "Rue de Vevey 82", "city": "Bulle", "state": null, "postcode": "1630", "telephone": "+41 26 919 86 30", "facilities": ["motorway_site", "accepts_routex_cards", "automatic_site", "open_saturday", "open_sunday"], "products": [], "website": null, "watchlist_id": null, "formatted_address": "Rue de Vevey 82\n1630\nBulle", "channel_of_trade": null}, {"id": "CH-222555699", "name": "BP Tankstelle Wildhaus", "lat": 47.19877, "lng": 9.37007, "site_brand": "BP", "country_code": "CH", "address": "Saegeboden 560", "city": "Wildhaus", "state": null, "postcode": "9658", "telephone": "+41 79 595 91 54", "facilities": ["motorway_site", "accepts_routex_cards", "automatic_site", "open_saturday", "open_sunday"], "products": [], "website": null, "watchlist_id": null, "formatted_address": "Saegeboden 560\n9658\nWildhaus", "channel_of_trade": null}, {"id": "CH-231656563", "name": "BP Service Riehen", "lat": 47.59442, "lng": 7.65483, "site_brand": "BP", "country_code": "CH", "address": "Loerracherstrasse 153", "city": "Riehen", "state": null, "postcode": "4125", "telephone": "+41 76 705 34 27", "facilities": ["alcohol", "lotto", "tobacco", "motorway_site", "shop", "accepts_routex_cards", "open_saturday", "open_sunday"], "products": ["ad_blue_cannister"], "website": null, "watchlist_id": null, "formatted_address": "Loerracherstrasse 153\n4125\nRiehen", "channel_of_trade": null}, {"id": "CH-233378516", "name": "BP Tankstelle Klosters - Dorf", "lat": 46.883759, "lng": 9.876583, "site_brand": "BP", "country_code": "CH", "address": "Madrisastrasse 3", "city": "Klosters Dorf", "state": null, "postcode": "7252", "telephone": "+41 848 848 490", "facilities": ["motorway_site", "accepts_routex_cards", "automatic_site", "open_saturday", "open_sunday"], "products": [], "website": null, "watchlist_id": null, "formatted_address": "Madrisastrasse 3\n7252\nKlosters Dorf", "channel_of_trade": null}, {"id": "CH-233639321", "name": "BP Station Neyruz", "lat": 46.77007, "lng": 7.06914, "site_brand": "BP", "country_code": "CH", "address": "Route de Fribourg 13", "city": "Neyruz FR", "state": null, "postcode": "1740", "telephone": "+41 26 477 30 00", "facilities": ["motorway_site", "accepts_routex_cards", "automatic_site", "open_saturday", "open_sunday"], "products": [], "website": null, "watchlist_id": null, "formatted_address": "Route de Fribourg 13\n1740\nNeyruz FR", "channel_of_trade": null}, {"id": "CH-240639291", "name": "bp Service Regensdorf", "lat": 47.43226, "lng": 8.4689, "site_brand": "BP", "country_code": "CH", "address": "Roosstrasse 30", "city": "Regensdorf", "state": null, "postcode": "8105", "telephone": "+41 44 500 25 19", "facilities": ["alcohol", "lotto", "tobacco", "truck_parking", "truck_suitable_site", "motorway_site", "shop", "accepts_routex_cards", "open_saturday", "open_sunday"], "products": ["ad_blue_cannister"], "website": null, "watchlist_id": null, "formatted_address": "Roosstrasse 30\n8105\nRegensdorf", "channel_of_trade": null}, {"id": "CH-252509545", "name": "BP Service Dulliken", "lat": 47.3539101, "lng": 7.9327864, "site_brand": "BP", "country_code": "CH", "address": "Im Schaefer 2", "city": "Dulliken", "state": null, "postcode": "4657", "telephone": "+41 62 511 10 42", "facilities": ["alcohol", "lotto", "tobacco", "motorway_site", "shop", "accepts_routex_cards", "open_saturday", "open_sunday"], "products": ["ad_blue_cannister"], "website": null, "watchlist_id": null, "formatted_address": "Im Schaefer 2\n4657\nDulliken", "channel_of_trade": null}, {"id": "CH-253697903", "name": "BP Service Murten", "lat": 46.93221, "lng": 7.12791, "site_brand": "BP", "country_code": "CH", "address": "Loewenberg 2", "city": "Murten", "state": null, "postcode": "3280", "telephone": "+41 26 670 21 21", "facilities": ["alcohol", "lotto", "tobacco", "car_wash", "truck_parking", "truck_suitable_site", "motorway_site", "shop", "accepts_routex_cards", "open_saturday", "open_sunday"], "products": ["ad_blue_cannister", "ad_blue_pump", "ad_blue"], "website": null, "watchlist_id": null, "formatted_address": "Loewenberg 2\n3280\nMurten", "channel_of_trade": null}, {"id": "CH-253750959", "name": "BP Tankstelle Hinwil", "lat": 47.29925, "lng": 8.83736, "site_brand": "BP", "country_code": "CH", "address": "Gossauerstrasse 14", "city": "Hinwil", "state": null, "postcode": "8340", "telephone": "+41 848 848 490", "facilities": ["motorway_site", "accepts_routex_cards", "automatic_site", "open_saturday", "open_sunday"], "products": [], "website": null, "watchlist_id": null, "formatted_address": "Gossauerstrasse 14\n8340\nHinwil", "channel_of_trade": null}, {"id": "CH-254603190", "name": "BP Service Martigny Simplon", "lat": 46.108575, "lng": 7.090433, "site_brand": "BP", "country_code": "CH", "address": "Rue de Simplon 150", "city": "Martigny", "state": null, "postcode": "1920", "telephone": "+41 21 601 69 00", "facilities": ["alcohol", "lotto", "tobacco", "truck_parking", "truck_suitable_site", "motorway_site", "shop", "accepts_routex_cards", "open_saturday", "open_sunday"], "products": ["ad_blue_cannister"], "website": null, "watchlist_id": null, "formatted_address": "Rue de Simplon 150\n1920\nMartigny", "channel_of_trade": null}, {"id": "CH-255848039", "name": "BP Service Neuchatel", "lat": 46.99584, "lng": 6.94369, "site_brand": "BP", "country_code": "CH", "address": "Rue de la Pierre-a-Mazel 25", "city": "Neuchatel 7", "state": null, "postcode": "2007", "telephone": "+41 32 723 97 97", "facilities": ["alcohol", "lotto", "tobacco", "car_wash", "motorway_site", "shop", "accepts_routex_cards", "open_saturday", "open_sunday"], "products": ["ad_blue_cannister", "natural_gas"], "website": null, "watchlist_id": null, "formatted_address": "Rue de la Pierre-a-Mazel 25\n2007\nNeuchatel 7", "channel_of_trade": null}, {"id": "CH-267976836", "name": "BP Tankstelle Heerbrugg", "lat": 47.416472, "lng": 9.633078, "site_brand": "BP", "country_code": "CH", "address": "Auerstrasse 34", "city": "Heerbrugg", "state": null, "postcode": "9435", "telephone": "+41 71 913 33 33", "facilities": ["motorway_site", "accepts_routex_cards", "automatic_site", "open_saturday", "open_sunday"], "products": [], "website": null, "watchlist_id": null, "formatted_address": "Auerstrasse 34\n9435\nHeerbrugg", "channel_of_trade": null}, {"id": "CH-269031092", "name": "BP Tankstelle Giswil", "lat": 46.83928, "lng": 8.19022, "site_brand": "BP", "country_code": "CH", "address": "Bruenigstrasse 16", "city": "Giswil", "state": null, "postcode": "6074", "telephone": "+41 41 675 12 86", "facilities": ["motorway_site", "accepts_routex_cards", "automatic_site", "open_saturday", "open_sunday"], "products": [], "website": null, "watchlist_id": null, "formatted_address": "Bruenigstrasse 16\n6074\nGiswil", "channel_of_trade": null}, {"id": "CH-283001470", "name": "BP Stazione Cadenazzo", "lat": 46.1515962, "lng": 8.9567727, "site_brand": "BP", "country_code": "CH", "address": "Via Cantonale", "city": "Cadenazzo", "state": null, "postcode": "6593", "telephone": "+41 58 211 97 13", "facilities": ["truck_parking", "truck_suitable_site", "motorway_site", "accepts_routex_cards", "automatic_site", "open_saturday", "open_sunday"], "products": [], "website": null, "watchlist_id": null, "formatted_address": "Via Cantonale\n6593\nCadenazzo", "channel_of_trade": null}, {"id": "CH-284704949", "name": "BP Service Flamatt", "lat": 46.88976, "lng": 7.31182, "site_brand": "BP", "country_code": "CH", "address": "Bernstrasse 6", "city": "Flamatt", "state": null, "postcode": "3175", "telephone": "+41 848 848 490", "facilities": ["alcohol", "lotto", "tobacco", "motorway_site", "shop", "accepts_routex_cards", "open_saturday", "open_sunday"], "products": ["ad_blue_cannister"], "website": null, "watchlist_id": null, "formatted_address": "Bernstrasse 6\n3175\nFlamatt", "channel_of_trade": null}, {"id": "CH-285741051", "name": "BP Service R\u00fcmlang", "lat": 47.452633, "lng": 8.537591, "site_brand": "BP", "country_code": "CH", "address": "Flughofstrasse 47", "city": "R\u00fcmlang", "state": null, "postcode": "8153", "telephone": "+41 43 810 60 62", "facilities": ["toilet", "shop", "wild_bean_cafe", "accepts_routex_cards", "accepts_toll_payments", "open_saturday", "open_sunday"], "products": ["ad_blue_cannister", "ad_blue_pump", "diesel_on", "ultimate", "ultimate_diesel", "ultimate_unleaded", "unleaded_95", "ad_blue"], "website": null, "watchlist_id": null, "formatted_address": "Flughofstrasse 47\n8153\nR\u00fcmlang", "channel_of_trade": null}, {"id": "CH-2927993", "name": "BP Service Muensingen West", "lat": 46.87777, "lng": 7.54188, "site_brand": "BP", "country_code": "CH", "address": "A6 West / CH3000MKG4", "city": "Muensingen", "state": null, "postcode": "3110", "telephone": "+41 61 827 57 00", "facilities": ["alcohol", "lotto", "tobacco", "truck_parking", "truck_suitable_site", "motorway_site", "shop", "accepts_routex_cards", "open_saturday", "open_sunday"], "products": ["ad_blue_cannister"], "website": null, "watchlist_id": null, "formatted_address": "A6 West / CH3000MKG4\n3110\nMuensingen", "channel_of_trade": null}, {"id": "CH-297538422", "name": "BP Service La Chaux-de-Fonds V", "lat": 47.10235, "lng": 6.83331, "site_brand": "BP", "country_code": "CH", "address": "Rue de l'Hotel-de-Ville 10", "city": "La Chaux-de-Fonds", "state": null, "postcode": "2300", "telephone": "+41 32 556 12 52", "facilities": ["alcohol", "lotto", "tobacco", "truck_parking", "truck_suitable_site", "motorway_site", "shop", "accepts_routex_cards", "open_saturday", "open_sunday"], "products": ["ad_blue_cannister"], "website": null, "watchlist_id": null, "formatted_address": "Rue de l'Hotel-de-Ville 10\n2300\nLa Chaux-de-Fonds", "channel_of_trade": null}, {"id": "CH-3019587", "name": "BP Tankstelle Bazenheid", "lat": 47.412828, "lng": 9.068698, "site_brand": "BP", "country_code": "CH", "address": "Wilerstrasse 20", "city": "Bazenheid", "state": null, "postcode": "9602", "telephone": "+41 71 931 13 33", "facilities": ["motorway_site", "accepts_routex_cards", "automatic_site", "open_saturday", "open_sunday"], "products": [], "website": null, "watchlist_id": null, "formatted_address": "Wilerstrasse 20\n9602\nBazenheid", "channel_of_trade": null}, {"id": "CH-302105226", "name": "BP Tankstelle Chur Ringstrasse", "lat": 46.84846, "lng": 9.51418, "site_brand": "BP", "country_code": "CH", "address": "Ringstrasse 5-9", "city": "Chur", "state": null, "postcode": "7007", "telephone": "+41 81 287 11 11", "facilities": ["motorway_site", "accepts_routex_cards", "automatic_site", "open_saturday", "open_sunday"], "products": ["ad_blue_pump", "ad_blue"], "website": null, "watchlist_id": null, "formatted_address": "Ringstrasse 5-9\n7007\nChur", "channel_of_trade": null}, {"id": "CH-30272914", "name": "BP Tankstelle Walchwil", "lat": 47.09583, "lng": 8.51792, "site_brand": "BP", "country_code": "CH", "address": "Seefeldquai 3", "city": "Walchwil", "state": null, "postcode": "6318", "telephone": "+41 41 758 11 77", "facilities": ["motorway_site", "accepts_routex_cards", "automatic_site", "open_saturday", "open_sunday"], "products": [], "website": null, "watchlist_id": "30272914", "formatted_address": "Seefeldquai 3\n6318\nWalchwil", "channel_of_trade": null}, {"id": "CH-305643670", "name": "BP Service Emmen-Nord", "lat": 47.08234, "lng": 8.27246, "site_brand": "BP", "country_code": "CH", "address": "Rothenburgstrasse 12", "city": "Emmenbruecke", "state": null, "postcode": "6020", "telephone": "+41 41 510 80 72", "facilities": ["alcohol", "lotto", "tobacco", "car_wash", "truck_parking", "truck_suitable_site", "motorway_site", "shop", "accepts_routex_cards", "open_saturday", "open_sunday"], "products": ["ad_blue_cannister"], "website": null, "watchlist_id": null, "formatted_address": "Rothenburgstrasse 12\n6020\nEmmenbruecke", "channel_of_trade": null}, {"id": "CH-316673382", "name": "BP Service Kreuzlingen", "lat": 47.642095, "lng": 9.189066, "site_brand": "BP", "country_code": "CH", "address": "Romanshornerstrasse 35", "city": "Kreuzlingen", "state": null, "postcode": "8280", "telephone": "+41 76 311 79 98", "facilities": ["alcohol", "lotto", "tobacco", "motorway_site", "shop", "accepts_routex_cards", "open_saturday", "open_sunday"], "products": ["ad_blue_cannister"], "website": null, "watchlist_id": null, "formatted_address": "Romanshornerstrasse 35\n8280\nKreuzlingen", "channel_of_trade": null}, {"id": "CH-316800638", "name": "BP Tankstelle Schlieren", "lat": 47.39697, "lng": 8.44048, "site_brand": "BP", "country_code": "CH", "address": "Badenerstrasse 42", "city": "Schlieren", "state": null, "postcode": "8952", "telephone": "+41 848 848 490", "facilities": ["motorway_site", "accepts_routex_cards", "automatic_site", "open_saturday", "open_sunday"], "products": [], "website": null, "watchlist_id": null, "formatted_address": "Badenerstrasse 42\n8952\nSchlieren", "channel_of_trade": null}, {"id": "CH-317108158", "name": "BP Tankstelle Saland", "lat": 47.39049, "lng": 8.85399, "site_brand": "BP", "country_code": "CH", "address": "Toesstalstrasse 111", "city": "Saland", "state": null, "postcode": "8493", "telephone": "+41 78 850 12 16", "facilities": ["motorway_site", "accepts_routex_cards", "automatic_site", "open_saturday", "open_sunday"], "products": [], "website": null, "watchlist_id": null, "formatted_address": "Toesstalstrasse 111\n8493\nSaland", "channel_of_trade": null}, {"id": "CH-317460295", "name": "BP Service Tafers", "lat": 46.81562, "lng": 7.21542, "site_brand": "BP", "country_code": "CH", "address": "Mariahilfstrasse 1", "city": "Tafers", "state": null, "postcode": "1712", "telephone": "+41 26 494 17 50", "facilities": ["alcohol", "lotto", "tobacco", "car_wash", "truck_parking", "truck_suitable_site", "motorway_site", "shop", "accepts_routex_cards", "open_saturday", "open_sunday"], "products": ["ad_blue_cannister"], "website": null, "watchlist_id": null, "formatted_address": "Mariahilfstrasse 1\n1712\nTafers", "channel_of_trade": null}, {"id": "CH-317772922", "name": "BP Tankstelle Breitenbach", "lat": 47.407865, "lng": 7.5425324, "site_brand": "BP", "country_code": "CH", "address": "Laufenstrasse 6", "city": "Breitenbach", "state": null, "postcode": "4226", "telephone": "+41 61 789 12 33", "facilities": ["open_24_hours", "accepts_routex_cards", "open_saturday", "open_sunday"], "products": ["diesel_on", "ultimate", "ultimate_unleaded", "unleaded_95"], "website": null, "watchlist_id": null, "formatted_address": "Laufenstrasse 6\n4226\nBreitenbach", "channel_of_trade": null}, {"id": "CH-322436156", "name": "BP Tankstelle Muenchwilen", "lat": 47.47747, "lng": 8.99777, "site_brand": "BP", "country_code": "CH", "address": "Wilerstrasse 4", "city": "Muenchwilen TG", "state": null, "postcode": "9542", "telephone": "+41 848 848 490", "facilities": ["motorway_site", "accepts_routex_cards", "automatic_site", "open_saturday", "open_sunday"], "products": [], "website": null, "watchlist_id": null, "formatted_address": "Wilerstrasse 4\n9542\nMuenchwilen TG", "channel_of_trade": null}, {"id": "CH-324088791", "name": "BP Tankstelle Gross", "lat": 47.11793, "lng": 8.77506, "site_brand": "BP", "country_code": "CH", "address": "Grosserstrasse 34", "city": "Gross", "state": null, "postcode": "8841", "telephone": "+41 848 848 490", "facilities": ["motorway_site", "accepts_routex_cards", "automatic_site", "open_saturday", "open_sunday"], "products": [], "website": null, "watchlist_id": null, "formatted_address": "Grosserstrasse 34\n8841\nGross", "channel_of_trade": null}, {"id": "CH-324476477", "name": "BP Service Pully Boulevard de", "lat": 46.52274, "lng": 6.66029, "site_brand": "BP", "country_code": "CH", "address": "Boulevard de la Foret 1", "city": "Pully", "state": null, "postcode": "1009", "telephone": "+41 76 311 79 95", "facilities": ["alcohol", "lotto", "tobacco", "motorway_site", "shop", "accepts_routex_cards", "open_saturday", "open_sunday"], "products": ["ad_blue_cannister"], "website": null, "watchlist_id": null, "formatted_address": "Boulevard de la Foret 1\n1009\nPully", "channel_of_trade": null}, {"id": "CH-333685366", "name": "BP Tankstelle Burgdorf", "lat": 47.062049, "lng": 7.619679, "site_brand": "BP", "country_code": "CH", "address": "Kirchbergstrasse 33", "city": "Burgdorf", "state": null, "postcode": "3400", "telephone": "+41 848 848 490", "facilities": ["motorway_site", "accepts_routex_cards", "automatic_site", "open_saturday", "open_sunday"], "products": [], "website": null, "watchlist_id": null, "formatted_address": "Kirchbergstrasse 33\n3400\nBurgdorf", "channel_of_trade": null}, {"id": "CH-333980332", "name": "BP Service Unteraegeri", "lat": 47.13755, "lng": 8.58, "site_brand": "BP", "country_code": "CH", "address": "Zugerstrasse 33", "city": "Unteraegeri", "state": null, "postcode": "6314", "telephone": "+41 41 754 57 00", "facilities": ["alcohol", "lotto", "tobacco", "car_wash", "motorway_site", "shop", "accepts_routex_cards", "open_saturday", "open_sunday"], "products": ["ad_blue_cannister"], "website": null, "watchlist_id": null, "formatted_address": "Zugerstrasse 33\n6314\nUnteraegeri", "channel_of_trade": null}, {"id": "CH-334245855", "name": "BP Tankstelle Balgrist", "lat": 47.35343, "lng": 8.57688, "site_brand": "BP", "country_code": "CH", "address": "Forchstrasse 351", "city": "Zuerich", "state": null, "postcode": "8008", "telephone": "+41 62 836 85 50", "facilities": ["truck_parking", "truck_suitable_site", "motorway_site", "accepts_routex_cards", "automatic_site", "open_saturday", "open_sunday"], "products": [], "website": null, "watchlist_id": null, "formatted_address": "Forchstrasse 351\n8008\nZuerich", "channel_of_trade": null}, {"id": "CH-334684334", "name": "BP Service Meiringen", "lat": 46.72699, "lng": 8.16985, "site_brand": "BP", "country_code": "CH", "address": "Balmstrasse 2", "city": "Meiringen", "state": null, "postcode": "3860", "telephone": "+41 33 972 60 50", "facilities": ["alcohol", "lotto", "tobacco", "car_wash", "truck_parking", "truck_suitable_site", "motorway_site", "shop", "accepts_routex_cards", "open_saturday", "open_sunday"], "products": ["ad_blue_cannister"], "website": null, "watchlist_id": null, "formatted_address": "Balmstrasse 2\n3860\nMeiringen", "channel_of_trade": null}, {"id": "CH-36499268", "name": "BP Station Savigny", "lat": 46.53856, "lng": 6.73028, "site_brand": "BP", "country_code": "CH", "address": "Route de la Claie-aux-Moines 5", "city": "Savigny", "state": null, "postcode": "1073", "telephone": "+41 21 781 11 07", "facilities": ["car_wash", "motorway_site", "accepts_routex_cards", "automatic_site", "open_saturday", "open_sunday"], "products": [], "website": null, "watchlist_id": "36499268", "formatted_address": "Route de la Claie-aux-Moines 5\n1073\nSavigny", "channel_of_trade": null}, {"id": "CH-36510790", "name": "BP Service Feuerthalen", "lat": 47.69119, "lng": 8.64705, "site_brand": "BP", "country_code": "CH", "address": "Diessenhoferstrasse 28", "city": "Feuerthalen", "state": null, "postcode": "8245", "telephone": "+41 44 500 64 06", "facilities": ["alcohol", "lotto", "tobacco", "car_wash", "truck_parking", "truck_suitable_site", "motorway_site", "shop", "accepts_routex_cards", "open_saturday", "open_sunday"], "products": ["ad_blue_cannister"], "website": null, "watchlist_id": "36510790", "formatted_address": "Diessenhoferstrasse 28\n8245\nFeuerthalen", "channel_of_trade": null}, {"id": "CH-36833465", "name": "BP Tankstelle Speicher", "lat": 47.4085, "lng": 9.44587, "site_brand": "BP", "country_code": "CH", "address": "Trogenerstrasse 1", "city": "Speicher", "state": null, "postcode": "9042", "telephone": "+41 71 344 29 90", "facilities": ["motorway_site", "accepts_routex_cards", "automatic_site", "open_saturday", "open_sunday"], "products": [], "website": null, "watchlist_id": "36833465", "formatted_address": "Trogenerstrasse 1\n9042\nSpeicher", "channel_of_trade": null}, {"id": "CH-370287474", "name": "BP Station Coppet", "lat": 46.31523, "lng": 6.1919, "site_brand": "BP", "country_code": "CH", "address": "Route de Suisse 81", "city": "Coppet", "state": null, "postcode": "1296", "telephone": "+41 22 776 12 12", "facilities": ["motorway_site", "accepts_routex_cards", "automatic_site", "open_saturday", "open_sunday"], "products": [], "website": null, "watchlist_id": null, "formatted_address": "Route de Suisse 81\n1296\nCoppet", "channel_of_trade": null}, {"id": "CH-381634518", "name": "BP Service Wilerwald", "lat": 47.464253, "lng": 9.064979, "site_brand": "BP", "country_code": "CH", "address": "St. Gallerstrasse 75a", "city": "Wil SG", "state": null, "postcode": "9500", "telephone": "+41 76 311 84 02", "facilities": ["alcohol", "lotto", "tobacco", "motorway_site", "shop", "accepts_routex_cards", "open_saturday", "open_sunday"], "products": ["ad_blue_cannister"], "website": null, "watchlist_id": null, "formatted_address": "St. Gallerstrasse 75a\n9500\nWil SG", "channel_of_trade": null}, {"id": "CH-386983561", "name": "BP Tankstelle Brittnau", "lat": 47.27095, "lng": 7.94916, "site_brand": "BP", "country_code": "CH", "address": "Zofingerstrasse 38", "city": "Brittnau", "state": null, "postcode": "4805", "telephone": "+41 848 848 490", "facilities": ["motorway_site", "accepts_routex_cards", "automatic_site", "open_saturday", "open_sunday"], "products": [], "website": null, "watchlist_id": null, "formatted_address": "Zofingerstrasse 38\n4805\nBrittnau", "channel_of_trade": null}, {"id": "CH-387773339", "name": "BP Service Spreitenbach", "lat": 47.4183, "lng": 8.37526, "site_brand": "BP", "country_code": "CH", "address": "Willestrasse 2", "city": "Spreitenbach", "state": null, "postcode": "8957", "telephone": "+41 56 511 05 32", "facilities": ["alcohol", "lotto", "tobacco", "truck_parking", "truck_suitable_site", "motorway_site", "shop", "accepts_routex_cards", "open_saturday", "open_sunday"], "products": ["ad_blue_cannister"], "website": null, "watchlist_id": null, "formatted_address": "Willestrasse 2\n8957\nSpreitenbach", "channel_of_trade": null}, {"id": "CH-418246233", "name": "BP Tankstelle Ibach", "lat": 47.01531, "lng": 8.64389, "site_brand": "BP", "country_code": "CH", "address": "Gotthardstrasse 109", "city": "Ibach", "state": null, "postcode": "6438", "telephone": "+41 41 811 22 77", "facilities": ["motorway_site", "accepts_routex_cards", "automatic_site", "open_saturday", "open_sunday"], "products": [], "website": null, "watchlist_id": null, "formatted_address": "Gotthardstrasse 109\n6438\nIbach", "channel_of_trade": null}, {"id": "CH-420485439", "name": "BP Service Ramsen", "lat": 47.71142, "lng": 8.82216, "site_brand": "BP", "country_code": "CH", "address": "Hauptstrasse 537", "city": "Ramsen", "state": null, "postcode": "8262", "telephone": "+41 52 511 03 74", "facilities": ["alcohol", "lotto", "tobacco", "truck_parking", "truck_suitable_site", "motorway_site", "shop", "accepts_routex_cards", "open_saturday", "open_sunday"], "products": ["ad_blue_cannister"], "website": null, "watchlist_id": null, "formatted_address": "Hauptstrasse 537\n8262\nRamsen", "channel_of_trade": null}, {"id": "CH-421776429", "name": "BP Tankstelle Raron", "lat": 46.303324, "lng": 7.799, "site_brand": "BP", "country_code": "CH", "address": "Kantonsstrasse 46", "city": "Raron", "state": null, "postcode": "3942", "telephone": "+41 27 934 12 12", "facilities": ["motorway_site", "accepts_routex_cards", "automatic_site", "open_saturday", "open_sunday"], "products": [], "website": null, "watchlist_id": null, "formatted_address": "Kantonsstrasse 46\n3942\nRaron", "channel_of_trade": null}, {"id": "CH-422693947", "name": "BP Tankstelle Sissach", "lat": 47.46725, "lng": 7.80058, "site_brand": "BP", "country_code": "CH", "address": "Netzenstrasse 8", "city": "Sissach", "state": null, "postcode": "4450", "telephone": "+41 61 975 84 84", "facilities": ["car_wash", "truck_parking", "truck_suitable_site", "motorway_site", "accepts_routex_cards", "automatic_site", "open_saturday", "open_sunday"], "products": [], "website": null, "watchlist_id": null, "formatted_address": "Netzenstrasse 8\n4450\nSissach", "channel_of_trade": null}, {"id": "CH-446157497", "name": "BP Service Suhr", "lat": 47.373972, "lng": 8.082979, "site_brand": "BP", "country_code": "CH", "address": "Bernstrasse Ost 11", "city": "Suhr", "state": null, "postcode": "5034", "telephone": "+41 76 415 08 82", "facilities": ["alcohol", "lotto", "tobacco", "car_wash", "motorway_site", "shop", "accepts_routex_cards"], "products": ["ad_blue_cannister"], "website": null, "watchlist_id": null, "formatted_address": "Bernstrasse Ost 11\n5034\nSuhr", "channel_of_trade": null}, {"id": "CH-45108349", "name": "BP Service Kueblis", "lat": 46.91381, "lng": 9.77179, "site_brand": "BP", "country_code": "CH", "address": "Hauptstrass 22", "city": "Kueblis", "state": null, "postcode": "7240", "telephone": "+41 81 332 18 33", "facilities": ["alcohol", "lotto", "tobacco", "car_wash", "truck_parking", "truck_suitable_site", "motorway_site", "shop", "accepts_routex_cards", "open_saturday", "open_sunday"], "products": ["ad_blue_cannister"], "website": null, "watchlist_id": "45108349", "formatted_address": "Hauptstrass 22\n7240\nKueblis", "channel_of_trade": null}, {"id": "CH-46332997", "name": "BP Service Grand-Saconnex Oues", "lat": 46.23607, "lng": 6.12371, "site_brand": "BP", "country_code": "CH", "address": "Route de Ferney 187", "city": "Le Grand-Saconnex", "state": null, "postcode": "1218", "telephone": "+41 76 311 77 76", "facilities": ["alcohol", "lotto", "tobacco", "truck_parking", "truck_suitable_site", "motorway_site", "shop", "accepts_routex_cards", "open_saturday", "open_sunday"], "products": ["ad_blue_cannister"], "website": null, "watchlist_id": "46332997", "formatted_address": "Route de Ferney 187\n1218\nLe Grand-Saconnex", "channel_of_trade": null}, {"id": "CH-471852997", "name": "BP Service Pratteln-Sued", "lat": 47.5272, "lng": 7.69919, "site_brand": "BP", "country_code": "CH", "address": "Pratteln Sued", "city": "Pratteln", "state": null, "postcode": "4133", "telephone": "+41 61 827 57 00", "facilities": ["open_24_hours", "alcohol", "lotto", "tobacco", "motorway_site", "shop", "accepts_routex_cards", "open_saturday", "open_sunday"], "products": ["ad_blue_cannister", "natural_gas"], "website": null, "watchlist_id": null, "formatted_address": "Pratteln Sued\n4133\nPratteln", "channel_of_trade": null}, {"id": "CH-471984217", "name": "BP Service Biel", "lat": 47.13411, "lng": 7.24138, "site_brand": "BP", "country_code": "CH", "address": "Bahnhofplatz 1", "city": "Biel", "state": null, "postcode": "2502", "telephone": "+41 848 848 490", "facilities": ["alcohol", "lotto", "tobacco", "motorway_site", "shop", "accepts_routex_cards", "open_saturday", "open_sunday"], "products": ["ad_blue_cannister"], "website": null, "watchlist_id": null, "formatted_address": "Bahnhofplatz 1\n2502\nBiel", "channel_of_trade": null}, {"id": "CH-47391108", "name": "BP Service Onex", "lat": 46.18489, "lng": 6.10283, "site_brand": "BP", "country_code": "CH", "address": "Route de Chancy 102", "city": "Onex", "state": null, "postcode": "1213", "telephone": "+41 76 311 77 71", "facilities": ["alcohol", "lotto", "tobacco", "car_wash", "truck_parking", "truck_suitable_site", "motorway_site", "shop", "accepts_routex_cards", "open_saturday", "open_sunday"], "products": ["ad_blue_cannister"], "website": null, "watchlist_id": "47391108", "formatted_address": "Route de Chancy 102\n1213\nOnex", "channel_of_trade": null}, {"id": "CH-475906593", "name": "BP Service Baar", "lat": 47.184368, "lng": 8.518867, "site_brand": "BP", "country_code": "CH", "address": "Zugerstrasse 60", "city": "Baar", "state": null, "postcode": "6340", "telephone": "+41 41 510 80 74", "facilities": ["alcohol", "lotto", "tobacco", "motorway_site", "shop", "accepts_routex_cards", "open_saturday", "open_sunday"], "products": ["ad_blue_cannister"], "website": null, "watchlist_id": null, "formatted_address": "Zugerstrasse 60\n6340\nBaar", "channel_of_trade": null}, {"id": "CH-487347968", "name": "BP Tankstelle Ebnat - Kappel", "lat": 47.255451, "lng": 9.151225, "site_brand": "BP", "country_code": "CH", "address": "Horben", "city": "Ebnat-Kappel", "state": null, "postcode": "9642", "telephone": "+41 71 913 33 33", "facilities": ["motorway_site", "accepts_routex_cards", "automatic_site", "open_saturday", "open_sunday"], "products": [], "website": null, "watchlist_id": null, "formatted_address": "Horben\n9642\nEbnat-Kappel", "channel_of_trade": null}, {"id": "CH-487710570", "name": "BP Service Frauenfeld", "lat": 47.563764, "lng": 8.87529, "site_brand": "BP", "country_code": "CH", "address": "Schaffhauserstrasse 74", "city": "Frauenfeld", "state": null, "postcode": "8500", "telephone": "+41 76 241 44 68", "facilities": ["alcohol", "lotto", "tobacco", "truck_parking", "truck_suitable_site", "motorway_site", "shop", "accepts_routex_cards", "open_saturday", "open_sunday"], "products": ["ad_blue_cannister", "natural_gas"], "website": null, "watchlist_id": null, "formatted_address": "Schaffhauserstrasse 74\n8500\nFrauenfeld", "channel_of_trade": null}, {"id": "CH-487723854", "name": "BP Service Stockhorn", "lat": 46.73091, "lng": 7.62734, "site_brand": "BP", "country_code": "CH", "address": "Gwattstrasse 83a", "city": "Gwatt (Thun)", "state": null, "postcode": "3645", "telephone": "+41 848 848 490", "facilities": ["alcohol", "lotto", "tobacco", "truck_parking", "truck_suitable_site", "motorway_site", "shop", "accepts_routex_cards", "open_saturday", "open_sunday"], "products": ["ad_blue_cannister"], "website": null, "watchlist_id": null, "formatted_address": "Gwattstrasse 83a\n3645\nGwatt (Thun)", "channel_of_trade": null}, {"id": "CH-489669567", "name": "BP Tankstelle Gommiswald", "lat": 47.23449, "lng": 9.021154, "site_brand": "BP", "country_code": "CH", "address": "Rickenstrasse 40", "city": "Gommiswald", "state": null, "postcode": "8737", "telephone": "+41 848 848 490", "facilities": ["motorway_site", "accepts_routex_cards", "automatic_site", "open_saturday", "open_sunday"], "products": [], "website": null, "watchlist_id": null, "formatted_address": "Rickenstrasse 40\n8737\nGommiswald", "channel_of_trade": null}, {"id": "CH-49520826", "name": "BP Service Pfaeffikon SZ", "lat": 47.202077, "lng": 8.7901929, "site_brand": "BP", "country_code": "CH", "address": "Churerstrasse 136", "city": "Pfaeffikon SZ", "state": null, "postcode": "8808", "telephone": "+41 55 410 50 92", "facilities": ["alcohol", "lotto", "tobacco", "motorway_site", "shop", "accepts_routex_cards", "open_saturday", "open_sunday"], "products": ["ad_blue_cannister"], "website": null, "watchlist_id": "49520826", "formatted_address": "Churerstrasse 136\n8808\nPfaeffikon SZ", "channel_of_trade": null}, {"id": "CH-4996244", "name": "BP Station Porrentruy", "lat": 47.41712, "lng": 7.07228, "site_brand": "BP", "country_code": "CH", "address": "Rue du Gravier 1", "city": "Porrentruy", "state": null, "postcode": "2900", "telephone": "+41 32 466 20 12", "facilities": ["motorway_site", "accepts_routex_cards", "automatic_site", "open_saturday", "open_sunday"], "products": [], "website": null, "watchlist_id": null, "formatted_address": "Rue du Gravier 1\n2900\nPorrentruy", "channel_of_trade": null}, {"id": "CH-501732709", "name": "BP Unbemannte Station Basel", "lat": 47.57157, "lng": 7.55755, "site_brand": "BP", "country_code": "CH", "address": "Burgfelderstrasse 291", "city": "Basel", "state": null, "postcode": "4055", "telephone": "+41 61 903 10 70", "facilities": ["open_24_hours", "accepts_routex_cards", "automatic_site", "open_saturday", "open_sunday"], "products": ["diesel_on", "ultimate", "ultimate_diesel", "ultimate_unleaded", "unleaded_95"], "website": null, "watchlist_id": null, "formatted_address": "Burgfelderstrasse 291\n4055\nBasel", "channel_of_trade": null}, {"id": "CH-50184887", "name": "BP Service Kloten", "lat": 47.45489, "lng": 8.57997, "site_brand": "BP", "country_code": "CH", "address": "Schaffhauserstrasse 168", "city": "Kloten", "state": null, "postcode": "8302", "telephone": "+41 848 848 490", "facilities": ["alcohol", "lotto", "tobacco", "car_wash", "truck_parking", "truck_suitable_site", "motorway_site", "shop", "accepts_routex_cards", "open_saturday", "open_sunday"], "products": ["ad_blue_cannister", "natural_gas"], "website": null, "watchlist_id": "50184887", "formatted_address": "Schaffhauserstrasse 168\n8302\nKloten", "channel_of_trade": null}, {"id": "CH-50202401", "name": "BP Tankstelle Zuerich Hofwiese", "lat": 47.406707, "lng": 8.538283, "site_brand": "BP", "country_code": "CH", "address": "Hofwiesenstrasse 268", "city": "Oerlikon", "state": null, "postcode": "8050", "telephone": "+41 848 848 490", "facilities": ["motorway_site", "accepts_routex_cards", "automatic_site", "open_saturday", "open_sunday"], "products": [], "website": null, "watchlist_id": "50202401", "formatted_address": "Hofwiesenstrasse 268\n8050\nOerlikon", "channel_of_trade": null}, {"id": "CH-503120798", "name": "BP Service Monthey", "lat": 46.25808, "lng": 6.94561, "site_brand": "BP", "country_code": "CH", "address": "Avenue de France 57", "city": "Monthey", "state": null, "postcode": "1870", "telephone": "+41 76 311 79 99", "facilities": ["alcohol", "lotto", "tobacco", "motorway_site", "shop", "accepts_routex_cards", "open_saturday", "open_sunday"], "products": ["ad_blue_cannister"], "website": null, "watchlist_id": null, "formatted_address": "Avenue de France 57\n1870\nMonthey", "channel_of_trade": null}, {"id": "CH-507756150", "name": "BP Service Appenzell", "lat": 47.334382, "lng": 9.403964, "site_brand": "BP", "country_code": "CH", "address": "Feldstrasse", "city": "Appenzell", "state": null, "postcode": "9050", "telephone": "+41 71 788 30 60", "facilities": ["alcohol", "lotto", "tobacco", "car_wash", "motorway_site", "shop", "accepts_routex_cards", "open_saturday", "open_sunday"], "products": ["ad_blue_cannister"], "website": null, "watchlist_id": null, "formatted_address": "Feldstrasse\n9050\nAppenzell", "channel_of_trade": null}, {"id": "CH-509021995", "name": "BP Tankstelle Arnegg", "lat": 47.44097, "lng": 9.25479, "site_brand": "BP", "country_code": "CH", "address": "Bischofszellerstrasse 315", "city": "Arnegg", "state": null, "postcode": "9212", "telephone": "+41 848 848 490", "facilities": ["motorway_site", "accepts_routex_cards", "automatic_site", "open_saturday", "open_sunday"], "products": [], "website": null, "watchlist_id": null, "formatted_address": "Bischofszellerstrasse 315\n9212\nArnegg", "channel_of_trade": null}, {"id": "CH-523481713", "name": "BP Tankstelle Pratteln", "lat": 47.52498, "lng": 7.68999, "site_brand": "BP", "country_code": "CH", "address": "Hohenrainstrasse 2", "city": "Pratteln", "state": null, "postcode": "4133", "telephone": "+41 848 848 490", "facilities": ["truck_parking", "truck_suitable_site", "motorway_site", "accepts_routex_cards", "automatic_site", "open_saturday", "open_sunday"], "products": [], "website": null, "watchlist_id": null, "formatted_address": "Hohenrainstrasse 2\n4133\nPratteln", "channel_of_trade": null}, {"id": "CH-52365195", "name": "BP Tankstelle Weesen", "lat": 47.13276, "lng": 9.087737, "site_brand": "BP", "country_code": "CH", "address": "Ziegelbrueckstrasse 22", "city": "Weesen", "state": null, "postcode": "8872", "telephone": "+41 55 616 11 30", "facilities": ["motorway_site", "accepts_routex_cards", "automatic_site", "open_saturday", "open_sunday"], "products": [], "website": null, "watchlist_id": "52365195", "formatted_address": "Ziegelbrueckstrasse 22\n8872\nWeesen", "channel_of_trade": null}, {"id": "CH-524029786", "name": "BP Tankstelle Breitenbach", "lat": 47.407865, "lng": 7.5425323, "site_brand": "BP", "country_code": "CH", "address": "Laufenstrasse 6", "city": "Breitenbach", "state": null, "postcode": "4226", "telephone": "+41 61 789 12 33", "facilities": ["truck_parking", "truck_suitable_site", "motorway_site", "accepts_routex_cards", "automatic_site", "open_saturday", "open_sunday"], "products": [], "website": null, "watchlist_id": null, "formatted_address": "Laufenstrasse 6\n4226\nBreitenbach", "channel_of_trade": null}, {"id": "CH-526623736", "name": "RR Tankstelle Zuerich Scheffel", "lat": 47.3945328, "lng": 8.5298493, "site_brand": "RR", "country_code": "CH", "address": "Scheffelstrasse 16", "city": "Zuerich", "state": null, "postcode": "8037", "telephone": "+41 76 335 99 28", "facilities": ["shop", "accepts_routex_cards"], "products": [], "website": null, "watchlist_id": null, "formatted_address": "Scheffelstrasse 16\n8037\nZuerich", "channel_of_trade": null}, {"id": "CH-52961241", "name": "BP Service Rheinfelden AG", "lat": 47.549066, "lng": 7.771158, "site_brand": "BP", "country_code": "CH", "address": "Weidenweg 24", "city": "Rheinfelden", "state": null, "postcode": "4310", "telephone": "+41 848 848 490", "facilities": ["alcohol", "lotto", "tobacco", "truck_parking", "truck_suitable_site", "motorway_site", "shop", "accepts_routex_cards", "open_saturday", "open_sunday"], "products": ["ad_blue_cannister"], "website": null, "watchlist_id": "52961241", "formatted_address": "Weidenweg 24\n4310\nRheinfelden", "channel_of_trade": null}, {"id": "CH-531218628", "name": "BP Tankstelle Allschwil", "lat": 47.5486533, "lng": 7.5572794, "site_brand": "BP", "country_code": "CH", "address": "Steinbuehlallee 182", "city": "Allschwil", "state": null, "postcode": "4123", "telephone": "+41 62 836 85 50", "facilities": ["motorway_site", "accepts_routex_cards", "automatic_site", "open_saturday", "open_sunday"], "products": [], "website": null, "watchlist_id": null, "formatted_address": "Steinbuehlallee 182\n4123\nAllschwil", "channel_of_trade": null}, {"id": "CH-532424573", "name": "BP Service Vacallo", "lat": 45.84384, "lng": 9.03793, "site_brand": "BP", "country_code": "CH", "address": "Via del Breggia 19", "city": "Vacallo", "state": null, "postcode": "6833", "telephone": "+41 91 683 86 61", "facilities": ["alcohol", "lotto", "tobacco", "motorway_site", "shop", "accepts_routex_cards", "open_saturday", "open_sunday"], "products": ["ad_blue_cannister"], "website": null, "watchlist_id": null, "formatted_address": "Via del Breggia 19\n6833\nVacallo", "channel_of_trade": null}, {"id": "CH-534795106", "name": "BP Tankstelle Jura", "lat": 47.57157, "lng": 7.55755, "site_brand": "BP", "country_code": "CH", "address": "Burgfelderstrasse 291", "city": "Basel", "state": null, "postcode": "4055", "telephone": "+41 61 903 10 70", "facilities": ["motorway_site", "accepts_routex_cards", "automatic_site", "open_saturday", "open_sunday"], "products": [], "website": null, "watchlist_id": null, "formatted_address": "Burgfelderstrasse 291\n4055\nBasel", "channel_of_trade": null}, {"id": "CH-535365227", "name": "BP Service Sins", "lat": 47.187067, "lng": 8.396604, "site_brand": "BP", "country_code": "CH", "address": "Luzernerstrasse 27", "city": "Sins", "state": null, "postcode": "5643", "telephone": "+41 41 787 03 33", "facilities": ["alcohol", "lotto", "tobacco", "motorway_site", "shop", "accepts_routex_cards", "open_saturday", "open_sunday"], "products": ["ad_blue_cannister"], "website": null, "watchlist_id": null, "formatted_address": "Luzernerstrasse 27\n5643\nSins", "channel_of_trade": null}, {"id": "CH-537068480", "name": "BP Service Grosswangen", "lat": 47.131438, "lng": 8.053073, "site_brand": "BP", "country_code": "CH", "address": "Eduard-Huberstrasse 18", "city": "Grosswangen", "state": null, "postcode": "6022", "telephone": "+41 848 848 490", "facilities": ["alcohol", "lotto", "tobacco", "truck_parking", "truck_suitable_site", "motorway_site", "shop", "accepts_routex_cards", "open_saturday", "open_sunday"], "products": ["ad_blue_cannister"], "website": null, "watchlist_id": null, "formatted_address": "Eduard-Huberstrasse 18\n6022\nGrosswangen", "channel_of_trade": null}, {"id": "CH-537790272", "name": "BP Tankstelle Gebenstorf", "lat": 47.48407, "lng": 8.24221, "site_brand": "BP", "country_code": "CH", "address": "Landstrasse 53", "city": "Gebenstorf", "state": null, "postcode": "5412", "telephone": "+41 56 201 92 60", "facilities": ["motorway_site", "accepts_routex_cards", "automatic_site", "open_saturday", "open_sunday"], "products": [], "website": null, "watchlist_id": null, "formatted_address": "Landstrasse 53\n5412\nGebenstorf", "channel_of_trade": null}, {"id": "CH-537935482", "name": "BP Tankstelle Schwarzenbach", "lat": 47.444136, "lng": 9.069049, "site_brand": "BP", "country_code": "CH", "address": "Bahnhofstrasse 4", "city": "Schwarzenbach SG", "state": null, "postcode": "9536", "telephone": "+41 71 913 33 46", "facilities": ["motorway_site", "accepts_routex_cards", "automatic_site", "open_saturday", "open_sunday"], "products": [], "website": null, "watchlist_id": null, "formatted_address": "Bahnhofstrasse 4\n9536\nSchwarzenbach SG", "channel_of_trade": null}, {"id": "CH-5386287", "name": "BP Station Lausanne Grand-Chen", "lat": 46.51979, "lng": 6.63006, "site_brand": "BP", "country_code": "CH", "address": "Rue du Grand-Chene 10", "city": "Lausanne", "state": null, "postcode": "1003", "telephone": "+41 21 312 14 17", "facilities": ["motorway_site", "accepts_routex_cards", "automatic_site", "open_saturday", "open_sunday"], "products": [], "website": null, "watchlist_id": null, "formatted_address": "Rue du Grand-Chene 10\n1003\nLausanne", "channel_of_trade": null}, {"id": "CH-541277989", "name": "BP Tankstelle Aarburg Oltnerst", "lat": 47.33348, "lng": 7.90622, "site_brand": "BP", "country_code": "CH", "address": "Oltnerstrasse 101", "city": "Aarburg", "state": null, "postcode": "4663", "telephone": "+41 62 836 85 50", "facilities": ["motorway_site", "accepts_routex_cards", "automatic_site", "open_saturday", "open_sunday"], "products": [], "website": null, "watchlist_id": null, "formatted_address": "Oltnerstrasse 101\n4663\nAarburg", "channel_of_trade": null}, {"id": "CH-542061501", "name": "BP Service Wetzikon", "lat": 47.32775, "lng": 8.78248, "site_brand": "BP", "country_code": "CH", "address": "Zuercherstrasse 86", "city": "Wetzikon ZH", "state": null, "postcode": "8620", "telephone": "+41 44 500 23 49", "facilities": ["alcohol", "lotto", "tobacco", "car_wash", "truck_parking", "truck_suitable_site", "motorway_site", "shop", "accepts_routex_cards", "open_saturday", "open_sunday"], "products": ["ad_blue_cannister", "natural_gas"], "website": null, "watchlist_id": null, "formatted_address": "Zuercherstrasse 86\n8620\nWetzikon ZH", "channel_of_trade": null}, {"id": "CH-543015836", "name": "BP Service Ostermundigen", "lat": 46.95679, "lng": 7.48395, "site_brand": "BP", "country_code": "CH", "address": "Bernstrasse 37", "city": "Ostermundigen", "state": null, "postcode": "3072", "telephone": "+41 31 506 66 90", "facilities": ["alcohol", "lotto", "tobacco", "motorway_site", "shop", "accepts_routex_cards", "open_saturday", "open_sunday"], "products": ["ad_blue_cannister"], "website": null, "watchlist_id": null, "formatted_address": "Bernstrasse 37\n3072\nOstermundigen", "channel_of_trade": null}, {"id": "CH-550620714", "name": "BP Tankstelle Taesch", "lat": 46.06906, "lng": 7.77617, "site_brand": "BP", "country_code": "CH", "address": "Kantonsstrasse", "city": "Taesch", "state": null, "postcode": "3929", "telephone": "+41 27 967 35 35", "facilities": ["truck_parking", "truck_suitable_site", "motorway_site", "accepts_routex_cards", "automatic_site", "open_saturday", "open_sunday"], "products": [], "website": null, "watchlist_id": null, "formatted_address": "Kantonsstrasse\n3929\nTaesch", "channel_of_trade": null}, {"id": "CH-552345013", "name": "BP Tankstelle Basel", "lat": 47.5616083, "lng": 7.5680091, "site_brand": "BP", "country_code": "CH", "address": "Hegenheimerstrasse 105", "city": "Basel", "state": null, "postcode": "4055", "telephone": "+41 44 363 62 42", "facilities": ["motorway_site", "accepts_routex_cards", "automatic_site", "open_saturday", "open_sunday"], "products": [], "website": null, "watchlist_id": null, "formatted_address": "Hegenheimerstrasse 105\n4055\nBasel", "channel_of_trade": null}, {"id": "CH-567875440", "name": "BP Service Ollon", "lat": 46.30181, "lng": 6.97805, "site_brand": "BP", "country_code": "CH", "address": "Route d'Aigle 58", "city": "Ollon VD", "state": null, "postcode": "1867", "telephone": "+41 76 311 79 97", "facilities": ["alcohol", "lotto", "tobacco", "motorway_site", "shop", "accepts_routex_cards", "open_saturday", "open_sunday"], "products": ["ad_blue_cannister"], "website": null, "watchlist_id": null, "formatted_address": "Route d'Aigle 58\n1867\nOllon VD", "channel_of_trade": null}, {"id": "CH-572714059", "name": "BP Tankstelle Moerel", "lat": 46.35445, "lng": 8.04321, "site_brand": "BP", "country_code": "CH", "address": "Furkastrasse 7", "city": "Moerel", "state": null, "postcode": "3983", "telephone": "+41 27 927 28 45", "facilities": ["motorway_site", "accepts_routex_cards", "automatic_site", "open_saturday", "open_sunday"], "products": [], "website": null, "watchlist_id": null, "formatted_address": "Furkastrasse 7\n3983\nMoerel", "channel_of_trade": null}, {"id": "CH-573384398", "name": "BP Tankstelle Stalden", "lat": 46.230491, "lng": 7.869384, "site_brand": "BP", "country_code": "CH", "address": "Talstrasse 73", "city": "Stalden VS", "state": null, "postcode": "3922", "telephone": "+41 27 952 14 34", "facilities": ["motorway_site", "accepts_routex_cards", "automatic_site", "open_saturday", "open_sunday"], "products": [], "website": null, "watchlist_id": null, "formatted_address": "Talstrasse 73\n3922\nStalden VS", "channel_of_trade": null}, {"id": "CH-574601531", "name": "BP Service Comacini", "lat": 45.8348912, "lng": 9.0352271, "site_brand": "BP", "country_code": "CH", "address": "Via Maestri Conacini 5", "city": "Chiasso", "state": null, "postcode": "6830", "telephone": "+41 91 682 84 59", "facilities": ["alcohol", "lotto", "tobacco", "motorway_site", "shop", "accepts_routex_cards", "open_saturday", "open_sunday"], "products": ["ad_blue_cannister"], "website": null, "watchlist_id": null, "formatted_address": "Via Maestri Conacini 5\n6830\nChiasso", "channel_of_trade": null}, {"id": "CH-576470944", "name": "BP Tankstelle Vaduz", "lat": 47.13256, "lng": 9.52182, "site_brand": "BP", "country_code": "CH", "address": "Zollstrasse 1", "city": "Vaduz", "state": null, "postcode": "9490", "telephone": "+41 71 913 33 33", "facilities": ["motorway_site", "accepts_routex_cards", "automatic_site", "open_saturday", "open_sunday"], "products": [], "website": null, "watchlist_id": null, "formatted_address": "Zollstrasse 1\n9490\nVaduz", "channel_of_trade": null}, {"id": "CH-579969534", "name": "BP Tankstelle Thusis", "lat": 46.71213, "lng": 9.44531, "site_brand": "BP", "country_code": "CH", "address": "F\u00fcrstenauerstrasse 1", "city": "Thusis", "state": null, "postcode": "7430", "telephone": "+41 81 632 10 20", "facilities": ["car_wash", "shop", "accepts_routex_cards", "accepts_toll_payments", "open_saturday", "open_sunday"], "products": ["auto_gas", "diesel_on", "ultimate", "ultimate_unleaded", "unleaded_95"], "website": null, "watchlist_id": null, "formatted_address": "F\u00fcrstenauerstrasse 1\n7430\nThusis", "channel_of_trade": null}, {"id": "CH-585112645", "name": "BP Service Thalwil", "lat": 47.28652, "lng": 8.56569, "site_brand": "BP", "country_code": "CH", "address": "Gewerbestrasse 24", "city": "Thalwil", "state": null, "postcode": "8800", "telephone": "+41 44 501 47 90", "facilities": ["alcohol", "lotto", "tobacco", "motorway_site", "shop", "accepts_routex_cards", "open_saturday", "open_sunday"], "products": ["ad_blue_cannister"], "website": null, "watchlist_id": null, "formatted_address": "Gewerbestrasse 24\n8800\nThalwil", "channel_of_trade": null}, {"id": "CH-585163306", "name": "BP Service Engstringen", "lat": 47.41201, "lng": 8.45499, "site_brand": "BP", "country_code": "CH", "address": "Zuercherstrasse 4", "city": "Unterengstringen", "state": null, "postcode": "8103", "telephone": "+41 44 500 26 53", "facilities": ["alcohol", "lotto", "tobacco", "truck_parking", "truck_suitable_site", "motorway_site", "shop", "accepts_routex_cards", "open_saturday", "open_sunday"], "products": ["ad_blue_cannister"], "website": null, "watchlist_id": null, "formatted_address": "Zuercherstrasse 4\n8103\nUnterengstringen", "channel_of_trade": null}, {"id": "CH-586017218", "name": "BP Tankstelle Mannenbach", "lat": 47.673226, "lng": 9.053394, "site_brand": "BP", "country_code": "CH", "address": "Hauptstrasse 34", "city": "Mannenbach-Salenst", "state": null, "postcode": "8268", "telephone": "+41 71 913 33 33", "facilities": ["motorway_site", "accepts_routex_cards", "automatic_site", "open_saturday", "open_sunday"], "products": [], "website": null, "watchlist_id": null, "formatted_address": "Hauptstrasse 34\n8268\nMannenbach-Salenst", "channel_of_trade": null}, {"id": "CH-587121524", "name": "BP Service Acla da Fans", "lat": 46.955002, "lng": 10.43562, "site_brand": "BP", "country_code": "CH", "address": "Samnaunerstrasse 1", "city": "Martina", "state": null, "postcode": "7560", "telephone": "+41 81 868 52 53", "facilities": ["alcohol", "lotto", "tobacco", "truck_parking", "truck_suitable_site", "motorway_site", "shop", "accepts_routex_cards", "open_saturday", "open_sunday"], "products": ["ad_blue_cannister"], "website": null, "watchlist_id": null, "formatted_address": "Samnaunerstrasse 1\n7560\nMartina", "channel_of_trade": null}, {"id": "CH-589560212", "name": "BP Service Collonge-Bellerive", "lat": 46.24871, "lng": 6.2177, "site_brand": "BP", "country_code": "CH", "address": "Route de Thonon 158", "city": "Collonge-Bellerive", "state": null, "postcode": "1245", "telephone": "+41 22 752 15 15", "facilities": ["alcohol", "lotto", "tobacco", "car_wash", "truck_parking", "truck_suitable_site", "motorway_site", "shop", "accepts_routex_cards", "open_saturday", "open_sunday"], "products": ["ad_blue_cannister", "natural_gas"], "website": null, "watchlist_id": null, "formatted_address": "Route de Thonon 158\n1245\nCollonge-Bellerive", "channel_of_trade": null}, {"id": "CH-589643467", "name": "BP Tankstelle K\u00f6lliken", "lat": 47.3393002, "lng": 8.0260133, "site_brand": "BP", "country_code": "CH", "address": "Hauptstrasse 3", "city": "K\u00f6lliken", "state": null, "postcode": "5742", "telephone": "+41 62 723 22 55", "facilities": ["open_24_hours", "accepts_routex_cards", "open_saturday", "open_sunday"], "products": ["ad_blue_pump", "diesel_on", "unleaded_95", "ad_blue"], "website": null, "watchlist_id": null, "formatted_address": "Hauptstrasse 3\n5742\nK\u00f6lliken", "channel_of_trade": null}, {"id": "CH-591457983", "name": "BP Tankstelle Lenzburg", "lat": 47.38703, "lng": 8.1671, "site_brand": "BP", "country_code": "CH", "address": "Aarauerstrasse 35", "city": "Lenzburg", "state": null, "postcode": "5600", "telephone": "+41 56 622 69 50", "facilities": ["motorway_site", "accepts_routex_cards", "automatic_site", "open_saturday", "open_sunday"], "products": [], "website": null, "watchlist_id": null, "formatted_address": "Aarauerstrasse 35\n5600\nLenzburg", "channel_of_trade": null}, {"id": "CH-593485504", "name": "BP Service Dreispitz", "lat": 47.53655, "lng": 7.60667, "site_brand": "BP", "country_code": "CH", "address": "Leimgrubenweg 25", "city": "Basel", "state": null, "postcode": "4053", "telephone": "+41 76 311 79 94", "facilities": ["alcohol", "lotto", "tobacco", "motorway_site", "shop", "accepts_routex_cards", "open_saturday", "open_sunday"], "products": ["ad_blue_cannister", "natural_gas"], "website": null, "watchlist_id": null, "formatted_address": "Leimgrubenweg 25\n4053\nBasel", "channel_of_trade": null}, {"id": "CH-599529291", "name": "BP Service Perly Savoy", "lat": 46.156911, "lng": 6.09604, "site_brand": "BP", "country_code": "CH", "address": "Route de St-Julien 266", "city": "Perly", "state": null, "postcode": "1258", "telephone": "+41 58 211 96 62", "facilities": ["alcohol", "lotto", "tobacco", "truck_parking", "truck_suitable_site", "motorway_site", "shop", "accepts_routex_cards", "open_saturday", "open_sunday"], "products": ["ad_blue_cannister"], "website": null, "watchlist_id": null, "formatted_address": "Route de St-Julien 266\n1258\nPerly", "channel_of_trade": null}, {"id": "CH-599662041", "name": "BP Tankstelle Heiden", "lat": 47.44398, "lng": 9.5324, "site_brand": "BP", "country_code": "CH", "address": "Rosentalstrasse 1", "city": "Heiden", "state": null, "postcode": "9410", "telephone": "+41 848 848 490", "facilities": ["motorway_site", "accepts_routex_cards", "automatic_site", "open_saturday", "open_sunday"], "products": [], "website": null, "watchlist_id": null, "formatted_address": "Rosentalstrasse 1\n9410\nHeiden", "channel_of_trade": null}, {"id": "CH-602416711", "name": "BP Service Oftringen", "lat": 47.29849, "lng": 7.93454, "site_brand": "BP", "country_code": "CH", "address": "Aeussere Luzernerstrasse 14", "city": "Oftringen", "state": null, "postcode": "4665", "telephone": "+41 76 545 51 38", "facilities": ["alcohol", "lotto", "tobacco", "car_wash", "truck_parking", "truck_suitable_site", "motorway_site", "shop", "accepts_routex_cards", "open_saturday", "open_sunday"], "products": ["ad_blue_cannister", "natural_gas"], "website": null, "watchlist_id": null, "formatted_address": "Aeussere Luzernerstrasse 14\n4665\nOftringen", "channel_of_trade": null}, {"id": "CH-604040", "name": "BP Service Wollishofen", "lat": 47.34828, "lng": 8.53343, "site_brand": "BP", "country_code": "CH", "address": "Mythenquai 320", "city": "Zuerich", "state": null, "postcode": "8038", "telephone": "+41 44 501 16 40", "facilities": ["open_24_hours", "alcohol", "lotto", "tobacco", "truck_parking", "truck_suitable_site", "motorway_site", "shop", "accepts_routex_cards", "open_saturday", "open_sunday"], "products": ["ad_blue_cannister"], "website": null, "watchlist_id": null, "formatted_address": "Mythenquai 320\n8038\nZuerich", "channel_of_trade": null}, {"id": "CH-64470824", "name": "BP Service Kemptthal Sued", "lat": 47.45024, "lng": 8.70188, "site_brand": "BP", "country_code": "CH", "address": "Rastplatz Kemptthal 2", "city": "Kemptthal", "state": null, "postcode": "8310", "telephone": "+41 76 812 44 28", "facilities": ["alcohol", "lotto", "tobacco", "truck_parking", "truck_suitable_site", "motorway_site", "shop", "accepts_routex_cards", "open_saturday", "open_sunday"], "products": ["ad_blue_cannister"], "website": null, "watchlist_id": "64470824", "formatted_address": "Rastplatz Kemptthal 2\n8310\nKemptthal", "channel_of_trade": null}, {"id": "CH-648039872", "name": "BP Service Jona", "lat": 47.22609, "lng": 8.8621, "site_brand": "BP", "country_code": "CH", "address": "St. Dionys 9", "city": "Jona", "state": null, "postcode": "8645", "telephone": "+41 55 511 05 24", "facilities": ["alcohol", "lotto", "tobacco", "car_wash", "truck_parking", "truck_suitable_site", "motorway_site", "shop", "accepts_routex_cards", "open_saturday", "open_sunday"], "products": ["ad_blue_cannister"], "website": null, "watchlist_id": null, "formatted_address": "St. Dionys 9\n8645\nJona", "channel_of_trade": null}, {"id": "CH-65080464", "name": "BP Service Thusis", "lat": 46.71213, "lng": 9.44531, "site_brand": "BP", "country_code": "CH", "address": "Querverbindung A 13 2", "city": "Thusis", "state": null, "postcode": "7430", "telephone": "+41 81 632 10 20", "facilities": ["alcohol", "lotto", "tobacco", "motorway_site", "shop", "accepts_routex_cards", "open_saturday", "open_sunday"], "products": ["ad_blue_cannister"], "website": null, "watchlist_id": "65080464", "formatted_address": "Querverbindung A 13 2\n7430\nThusis", "channel_of_trade": null}, {"id": "CH-651424714", "name": "BP Service St. Moritz", "lat": 46.48495, "lng": 9.83478, "site_brand": "BP", "country_code": "CH", "address": "Via San Gian 21", "city": "St. Moritz", "state": null, "postcode": "7500", "telephone": "+41 81 834 42 05", "facilities": ["alcohol", "lotto", "tobacco", "truck_parking", "truck_suitable_site", "motorway_site", "shop", "accepts_routex_cards", "open_saturday", "open_sunday"], "products": ["ad_blue_cannister"], "website": null, "watchlist_id": null, "formatted_address": "Via San Gian 21\n7500\nSt. Moritz", "channel_of_trade": null}, {"id": "CH-652862361", "name": "BP Tankstelle Glis", "lat": 46.309179, "lng": 7.971345, "site_brand": "BP", "country_code": "CH", "address": "Kantonsstrasse 2", "city": "Glis", "state": null, "postcode": "3902", "telephone": "+41 27 923 42 21", "facilities": ["motorway_site", "accepts_routex_cards", "automatic_site", "open_saturday", "open_sunday"], "products": [], "website": null, "watchlist_id": null, "formatted_address": "Kantonsstrasse 2\n3902\nGlis", "channel_of_trade": null}, {"id": "CH-65872488", "name": "BP Service Bussigny", "lat": 46.54969, "lng": 6.56441, "site_brand": "BP", "country_code": "CH", "address": "Route de Crissier 6", "city": "Bussigny", "state": null, "postcode": "1030", "telephone": "+41 76 311 77 87", "facilities": ["alcohol", "lotto", "tobacco", "car_wash", "truck_parking", "truck_suitable_site", "motorway_site", "shop", "accepts_routex_cards", "open_saturday", "open_sunday"], "products": ["ad_blue_cannister"], "website": null, "watchlist_id": "65872488", "formatted_address": "Route de Crissier 6\n1030\nBussigny", "channel_of_trade": null}, {"id": "CH-663546569", "name": "BP Service Reichenburg", "lat": 47.169773, "lng": 8.975433, "site_brand": "BP", "country_code": "CH", "address": "Gl\u00e4nternstrasse", "city": "Reichenburg", "state": null, "postcode": "8864", "telephone": "+41 848 848 490", "facilities": ["truck_suitable_site", "toilet", "shop", "accepts_routex_cards", "accepts_toll_payments", "open_saturday", "open_sunday"], "products": ["ad_blue_cannister", "ad_blue_pump", "auto_gas", "diesel_on", "natural_gas", "ultimate", "ultimate_unleaded", "unleaded_95", "ad_blue"], "website": null, "watchlist_id": null, "formatted_address": "Gl\u00e4nternstrasse\n8864\nReichenburg", "channel_of_trade": null}, {"id": "CH-666063781", "name": "BP Tankstelle Winterthur", "lat": 47.4967, "lng": 8.73182, "site_brand": "BP", "country_code": "CH", "address": "Zeughausstrasse 74", "city": "Winterhtur", "state": null, "postcode": "8400", "telephone": "+41 848 848 490", "facilities": ["motorway_site", "accepts_routex_cards", "automatic_site", "open_saturday", "open_sunday"], "products": [], "website": null, "watchlist_id": null, "formatted_address": "Zeughausstrasse 74\n8400\nWinterhtur", "channel_of_trade": null}, {"id": "CH-667759542", "name": "BP Service Oberwil", "lat": 47.5087, "lng": 7.554762, "site_brand": "BP", "country_code": "CH", "address": "Muehlemattstrasse 24", "city": "Oberwil BL", "state": null, "postcode": "4104", "telephone": "+41 61 761 04 36", "facilities": ["alcohol", "lotto", "tobacco", "motorway_site", "shop", "accepts_routex_cards", "open_saturday", "open_sunday"], "products": ["ad_blue_cannister", "natural_gas"], "website": null, "watchlist_id": null, "formatted_address": "Muehlemattstrasse 24\n4104\nOberwil BL", "channel_of_trade": null}, {"id": "CH-672259140", "name": "BP Tankstelle Seuzach", "lat": 47.5236, "lng": 8.71532, "site_brand": "BP", "country_code": "CH", "address": "Schaffhauserstrasse 1", "city": "Seuzach", "state": null, "postcode": "8472", "telephone": "+41 71 913 33 33", "facilities": ["motorway_site", "accepts_routex_cards", "automatic_site", "open_saturday", "open_sunday"], "products": [], "website": null, "watchlist_id": null, "formatted_address": "Schaffhauserstrasse 1\n8472\nSeuzach", "channel_of_trade": null}, {"id": "CH-677178700", "name": "BP Tankstelle Dornach", "lat": 47.483096, "lng": 7.613841, "site_brand": "BP", "country_code": "CH", "address": "Bruggweg 74", "city": "Dornach", "state": null, "postcode": "4143", "telephone": "+41 848 848 490", "facilities": ["truck_parking", "truck_suitable_site", "motorway_site", "accepts_routex_cards", "automatic_site", "open_saturday", "open_sunday"], "products": [], "website": null, "watchlist_id": null, "formatted_address": "Bruggweg 74\n4143\nDornach", "channel_of_trade": null}, {"id": "CH-677365880", "name": "BP Tankstelle Zeiningen", "lat": 47.5465306, "lng": 7.8689022, "site_brand": "BP", "country_code": "CH", "address": "Haldengasse 37", "city": "Zeiningen", "state": null, "postcode": "4314", "telephone": "+41 61 851 16 87", "facilities": ["motorway_site", "accepts_routex_cards", "automatic_site", "open_saturday", "open_sunday"], "products": [], "website": null, "watchlist_id": null, "formatted_address": "Haldengasse 37\n4314\nZeiningen", "channel_of_trade": null}, {"id": "CH-688127342", "name": "BP Service Rheintal Ost", "lat": 47.146255, "lng": 9.501092, "site_brand": "BP", "country_code": "CH", "address": "A13", "city": "Buchs SG", "state": null, "postcode": "9470", "telephone": "+41 81 750 11 60", "facilities": ["alcohol", "lotto", "tobacco", "motorway_site", "shop", "accepts_routex_cards", "open_saturday", "open_sunday"], "products": ["ad_blue_cannister"], "website": null, "watchlist_id": null, "formatted_address": "A13\n9470\nBuchs SG", "channel_of_trade": null}, {"id": "CH-688273447", "name": "BP Service Weiach", "lat": 47.56332, "lng": 8.42556, "site_brand": "BP", "country_code": "CH", "address": "Kaiserstuhlstrasse 47", "city": "Weiach", "state": null, "postcode": "8187", "telephone": "+41 44 860 68 15", "facilities": ["alcohol", "lotto", "tobacco", "truck_parking", "truck_suitable_site", "motorway_site", "shop", "accepts_routex_cards", "open_saturday", "open_sunday"], "products": ["ad_blue_cannister"], "website": null, "watchlist_id": null, "formatted_address": "Kaiserstuhlstrasse 47\n8187\nWeiach", "channel_of_trade": null}, {"id": "CH-689716280", "name": "BP Tankstelle Oberburg", "lat": 47.03561, "lng": 7.62949, "site_brand": "BP", "country_code": "CH", "address": "Emmentalstrasse 100", "city": "Oberburg", "state": null, "postcode": "3414", "telephone": "+41 34 420 60 60", "facilities": ["alcohol", "lotto", "tobacco", "motorway_site", "accepts_routex_cards", "automatic_site", "open_saturday", "open_sunday"], "products": [], "website": null, "watchlist_id": null, "formatted_address": "Emmentalstrasse 100\n3414\nOberburg", "channel_of_trade": null}, {"id": "CH-690109797", "name": "BP Service Haegendorf", "lat": 47.332364, "lng": 7.841378, "site_brand": "BP", "country_code": "CH", "address": "Solothurnstrasse 14", "city": "Haegendorf", "state": null, "postcode": "4614", "telephone": "+41 848 848 490", "facilities": ["alcohol", "lotto", "tobacco", "motorway_site", "shop", "accepts_routex_cards", "open_saturday", "open_sunday"], "products": ["ad_blue_cannister"], "website": null, "watchlist_id": null, "formatted_address": "Solothurnstrasse 14\n4614\nHaegendorf", "channel_of_trade": null}, {"id": "CH-691140683", "name": "BP Tankstelle Waltenschwil", "lat": 47.3343106, "lng": 8.3079309, "site_brand": "BP", "country_code": "CH", "address": "Bremgartenstrasse 39", "city": "Waltenschwil", "state": null, "postcode": "5622", "telephone": "+41 56 622 14 44", "facilities": ["motorway_site", "accepts_routex_cards", "automatic_site", "open_saturday", "open_sunday"], "products": [], "website": null, "watchlist_id": null, "formatted_address": "Bremgartenstrasse 39\n5622\nWaltenschwil", "channel_of_trade": null}, {"id": "CH-701947544", "name": "BP Service Chene-Bourg", "lat": 46.19559, "lng": 6.19983, "site_brand": "BP", "country_code": "CH", "address": "Route de Jussy 4", "city": "Chene-Bourg", "state": null, "postcode": "1225", "telephone": "+41 76 701 59 30", "facilities": ["alcohol", "lotto", "tobacco", "truck_parking", "truck_suitable_site", "motorway_site", "shop", "accepts_routex_cards", "open_saturday", "open_sunday"], "products": ["ad_blue_cannister"], "website": null, "watchlist_id": null, "formatted_address": "Route de Jussy 4\n1225\nChene-Bourg", "channel_of_trade": null}, {"id": "CH-739232908", "name": "BP Stazione Genestrerio", "lat": 45.85708, "lng": 8.96782, "site_brand": "BP", "country_code": "CH", "address": "Via Campagna Adorna", "city": "Genestrerio", "state": null, "postcode": "6852", "telephone": "+41 21 601 69 00", "facilities": ["motorway_site", "accepts_routex_cards", "automatic_site", "open_saturday", "open_sunday"], "products": [], "website": null, "watchlist_id": null, "formatted_address": "Via Campagna Adorna\n6852\nGenestrerio", "channel_of_trade": null}, {"id": "CH-740360303", "name": "BP Tankstelle Bellach", "lat": 47.21225, "lng": 7.50877, "site_brand": "BP", "country_code": "CH", "address": "Roemerstrasse 8", "city": "Bellach", "state": null, "postcode": "4512", "telephone": "+41 32 617 44 44", "facilities": ["car_wash", "motorway_site", "accepts_routex_cards", "automatic_site", "open_saturday", "open_sunday"], "products": [], "website": null, "watchlist_id": null, "formatted_address": "Roemerstrasse 8\n4512\nBellach", "channel_of_trade": null}, {"id": "CH-743192618", "name": "BP Tankstelle Sisseln", "lat": 47.5531913, "lng": 7.9913357, "site_brand": "BP", "country_code": "CH", "address": "Hauptstrasse 37", "city": "Sisseln AG", "state": null, "postcode": "4334", "telephone": "+41 62 836 85 50", "facilities": ["motorway_site", "accepts_routex_cards", "automatic_site", "open_saturday", "open_sunday"], "products": [], "website": null, "watchlist_id": null, "formatted_address": "Hauptstrasse 37\n4334\nSisseln AG", "channel_of_trade": null}, {"id": "CH-743268236", "name": "BP Tankstelle Arlesheim", "lat": 47.4990472, "lng": 7.618261, "site_brand": "BP", "country_code": "CH", "address": "Birseckstrasse 5", "city": "Arlesheim", "state": null, "postcode": "4144", "telephone": "+41 79 281 77 13", "facilities": ["open_24_hours", "shop", "accepts_routex_cards", "open_saturday", "open_sunday"], "products": ["diesel_on", "ultimate", "ultimate_unleaded", "unleaded_95"], "website": null, "watchlist_id": null, "formatted_address": "Birseckstrasse 5\n4144\nArlesheim", "channel_of_trade": null}, {"id": "CH-749675429", "name": "BP Station Botyre", "lat": 46.27793, "lng": 7.40957, "site_brand": "BP", "country_code": "CH", "address": "Route de Botyre 8", "city": "Botyre (Ayent)", "state": null, "postcode": "1966", "telephone": "+41 27 398 12 86", "facilities": ["motorway_site", "accepts_routex_cards", "automatic_site", "open_saturday", "open_sunday"], "products": [], "website": null, "watchlist_id": null, "formatted_address": "Route de Botyre 8\n1966\nBotyre (Ayent)", "channel_of_trade": null}, {"id": "CH-750928537", "name": "BP Tankstelle Engelburg", "lat": 47.43091, "lng": 9.34704, "site_brand": "BP", "country_code": "CH", "address": "St. Gallerstrasse 122", "city": "Gaiserwald", "state": null, "postcode": "9032", "telephone": "+41 848 848 490", "facilities": ["motorway_site", "accepts_routex_cards", "automatic_site", "open_saturday", "open_sunday"], "products": [], "website": null, "watchlist_id": null, "formatted_address": "St. Gallerstrasse 122\n9032\nGaiserwald", "channel_of_trade": null}, {"id": "CH-752336490", "name": "BP Service Nidau", "lat": 47.120183, "lng": 7.242194, "site_brand": "BP", "country_code": "CH", "address": "Hauptstrasse 94", "city": "Nidau", "state": null, "postcode": "2560", "telephone": "+41 848 848 490", "facilities": ["alcohol", "lotto", "tobacco", "truck_parking", "truck_suitable_site", "motorway_site", "shop", "accepts_routex_cards", "open_saturday", "open_sunday"], "products": ["ad_blue_cannister"], "website": null, "watchlist_id": null, "formatted_address": "Hauptstrasse 94\n2560\nNidau", "channel_of_trade": null}, {"id": "CH-753350536", "name": "BP Unbemannte Station Cadenazzo", "lat": 46.152121, "lng": 8.938583, "site_brand": "BP", "country_code": "CH", "address": "Via Cantonale", "city": "Cadenazzo", "state": null, "postcode": "6593", "telephone": "+41 91 695 88 00", "facilities": ["open_24_hours", "truck_suitable_site", "accepts_routex_cards", "accepts_toll_payments", "automatic_site", "open_saturday", "open_sunday"], "products": ["ad_blue_cannister", "diesel_on", "ultimate", "ultimate_unleaded", "unleaded_95"], "website": null, "watchlist_id": null, "formatted_address": "Via Cantonale\n6593\nCadenazzo", "channel_of_trade": null}, {"id": "CH-753424053", "name": "BP Tankstelle Flaach", "lat": 47.57978, "lng": 8.61271, "site_brand": "BP", "country_code": "CH", "address": "Andelfingerstrasse 16", "city": "Flaach", "state": null, "postcode": "8416", "telephone": "+41 52 305 30 30", "facilities": ["motorway_site", "accepts_routex_cards", "automatic_site", "open_saturday", "open_sunday"], "products": ["ad_blue_pump", "ad_blue"], "website": null, "watchlist_id": null, "formatted_address": "Andelfingerstrasse 16\n8416\nFlaach", "channel_of_trade": null}, {"id": "CH-757217370", "name": "BP Service Unterkulm", "lat": 47.31084, "lng": 8.11487, "site_brand": "BP", "country_code": "CH", "address": "Hauptstrasse 26", "city": "Unterkulm", "state": null, "postcode": "5726", "telephone": "+41 62 832 32 36", "facilities": ["motorway_site", "accepts_routex_cards", "open_saturday", "open_sunday"], "products": [], "website": null, "watchlist_id": null, "formatted_address": "Hauptstrasse 26\n5726\nUnterkulm", "channel_of_trade": null}, {"id": "CH-761076051", "name": "BP Service Telli", "lat": 47.39937, "lng": 8.0657, "site_brand": "BP", "country_code": "CH", "address": "Neumattstrasse 9", "city": "Aarau", "state": null, "postcode": "5000", "telephone": "+41 76 335 99 28", "facilities": ["alcohol", "lotto", "tobacco", "motorway_site", "shop", "accepts_routex_cards", "open_saturday", "open_sunday"], "products": ["ad_blue_cannister", "natural_gas"], "website": null, "watchlist_id": null, "formatted_address": "Neumattstrasse 9\n5000\nAarau", "channel_of_trade": null}, {"id": "CH-775687714", "name": "BP Tankstelle Bleikenstrasse", "lat": 47.291437, "lng": 9.089657, "site_brand": "BP", "country_code": "CH", "address": "Bleikenstrasse 45", "city": "Wattwil", "state": null, "postcode": "9630", "telephone": "+41 71 913 33 33", "facilities": ["motorway_site", "accepts_routex_cards", "automatic_site", "open_saturday", "open_sunday"], "products": [], "website": null, "watchlist_id": null, "formatted_address": "Bleikenstrasse 45\n9630\nWattwil", "channel_of_trade": null}, {"id": "CH-786685632", "name": "BP Service Muensingen Ost", "lat": 46.87822, "lng": 7.54231, "site_brand": "BP", "country_code": "CH", "address": "A6 Ost / CH3000MKG3", "city": "Muensingen", "state": null, "postcode": "3110", "telephone": "+41 61 827 57 00", "facilities": ["alcohol", "lotto", "tobacco", "truck_parking", "truck_suitable_site", "motorway_site", "shop", "accepts_routex_cards", "open_saturday", "open_sunday"], "products": ["ad_blue_cannister"], "website": null, "watchlist_id": null, "formatted_address": "A6 Ost / CH3000MKG3\n3110\nMuensingen", "channel_of_trade": null}, {"id": "CH-786939784", "name": "BP Tankstelle Mosnang", "lat": 47.36497, "lng": 9.04116, "site_brand": "BP", "country_code": "CH", "address": "Unterdorfstrasse 24/26", "city": "Mosnang", "state": null, "postcode": "9607", "telephone": "+41 71 983 13 63", "facilities": ["motorway_site", "accepts_routex_cards", "automatic_site", "open_saturday", "open_sunday"], "products": [], "website": null, "watchlist_id": null, "formatted_address": "Unterdorfstrasse 24/26\n9607\nMosnang", "channel_of_trade": null}, {"id": "CH-787668887", "name": "BP Service Sierre", "lat": 46.28815, "lng": 7.52128, "site_brand": "BP", "country_code": "CH", "address": "Avenue de France 52", "city": "Sierre", "state": null, "postcode": "3960", "telephone": "+41 27 455 33 33", "facilities": ["alcohol", "lotto", "tobacco", "car_wash", "motorway_site", "shop", "accepts_routex_cards", "open_saturday", "open_sunday"], "products": ["ad_blue_cannister"], "website": null, "watchlist_id": null, "formatted_address": "Avenue de France 52\n3960\nSierre", "channel_of_trade": null}, {"id": "CH-789590591", "name": "BP Tankstelle Buerglen", "lat": 47.54924, "lng": 9.15669, "site_brand": "BP", "country_code": "CH", "address": "Sulgerstrasse 14", "city": "Buerglen TG", "state": null, "postcode": "8575", "telephone": "+41 848 848 490", "facilities": ["motorway_site", "accepts_routex_cards", "automatic_site", "open_saturday", "open_sunday"], "products": [], "website": null, "watchlist_id": null, "formatted_address": "Sulgerstrasse 14\n8575\nBuerglen TG", "channel_of_trade": null}, {"id": "CH-790759557", "name": "BP Tankstelle Kleindoettingen", "lat": 47.5771539, "lng": 8.2269015, "site_brand": "BP", "country_code": "CH", "address": "Hauptstrasse 253", "city": "Kleindoettingen", "state": null, "postcode": "5314", "telephone": "+41 56 245 56 56", "facilities": ["motorway_site", "accepts_routex_cards", "automatic_site", "open_saturday", "open_sunday"], "products": [], "website": null, "watchlist_id": null, "formatted_address": "Hauptstrasse 253\n5314\nKleindoettingen", "channel_of_trade": null}, {"id": "CH-790834546", "name": "BP Station Geneve", "lat": 46.20219, "lng": 6.15483, "site_brand": "BP", "country_code": "CH", "address": "Boulevard Helvetique 31", "city": "Geneve", "state": null, "postcode": "1207", "telephone": "+41 22 736 17 50", "facilities": ["car_wash", "motorway_site", "accepts_routex_cards", "automatic_site", "open_saturday", "open_sunday"], "products": [], "website": null, "watchlist_id": null, "formatted_address": "Boulevard Helvetique 31\n1207\nGeneve", "channel_of_trade": null}, {"id": "CH-791660407", "name": "BP Service Rheintal West", "lat": 47.145934, "lng": 9.500417, "site_brand": "BP", "country_code": "CH", "address": "A13", "city": "Buchs SG", "state": null, "postcode": "9470", "telephone": "+41 81 750 11 60", "facilities": ["alcohol", "lotto", "tobacco", "motorway_site", "shop", "accepts_routex_cards", "open_saturday", "open_sunday"], "products": ["ad_blue_cannister"], "website": null, "watchlist_id": null, "formatted_address": "A13\n9470\nBuchs SG", "channel_of_trade": null}, {"id": "CH-799548052", "name": "BP Service Neuhausen", "lat": 47.6842, "lng": 8.61204, "site_brand": "BP", "country_code": "CH", "address": "Klettgauerstrasse 45", "city": "Neuhausen", "state": null, "postcode": "8212", "telephone": "+41 52 670 16 50", "facilities": ["alcohol", "lotto", "tobacco", "motorway_site", "shop", "accepts_routex_cards", "open_saturday", "open_sunday"], "products": ["ad_blue_cannister"], "website": null, "watchlist_id": null, "formatted_address": "Klettgauerstrasse 45\n8212\nNeuhausen", "channel_of_trade": null}, {"id": "CH-801977977", "name": "BP Tankstelle Cham", "lat": 47.18573, "lng": 8.45416, "site_brand": "BP", "country_code": "CH", "address": "Sinserstrasse 45", "city": "Cham", "state": null, "postcode": "6330", "telephone": "+41 41 784 30 30", "facilities": ["motorway_site", "accepts_routex_cards", "automatic_site", "open_saturday", "open_sunday"], "products": [], "website": null, "watchlist_id": null, "formatted_address": "Sinserstrasse 45\n6330\nCham", "channel_of_trade": null}, {"id": "CH-802232426", "name": "BP Tankstelle Degersheim", "lat": 47.37531, "lng": 9.20279, "site_brand": "BP", "country_code": "CH", "address": "Muehlefeldstrasse 23", "city": "Degersheim", "state": null, "postcode": "9113", "telephone": "+41 71 371 12 63", "facilities": ["motorway_site", "accepts_routex_cards", "automatic_site", "open_saturday", "open_sunday"], "products": [], "website": null, "watchlist_id": null, "formatted_address": "Muehlefeldstrasse 23\n9113\nDegersheim", "channel_of_trade": null}, {"id": "CH-803609917", "name": "BP Service Dallenwil", "lat": 46.93462, "lng": 8.39234, "site_brand": "BP", "country_code": "CH", "address": "Engelbergstrasse 17", "city": "Dallenwil", "state": null, "postcode": "6383", "telephone": "+41 41 628 14 44", "facilities": ["alcohol", "lotto", "tobacco", "motorway_site", "shop", "accepts_routex_cards", "open_saturday", "open_sunday"], "products": ["ad_blue_cannister"], "website": null, "watchlist_id": null, "formatted_address": "Engelbergstrasse 17\n6383\nDallenwil", "channel_of_trade": null}, {"id": "CH-806100409", "name": "BP Tankstelle Naters", "lat": 46.32299, "lng": 7.98811, "site_brand": "BP", "country_code": "CH", "address": "Furkastrasse 13", "city": "Naters", "state": null, "postcode": "3904", "telephone": "+41 27 923 11 74", "facilities": ["motorway_site", "accepts_routex_cards", "automatic_site", "open_saturday", "open_sunday"], "products": [], "website": null, "watchlist_id": null, "formatted_address": "Furkastrasse 13\n3904\nNaters", "channel_of_trade": null}, {"id": "CH-806867009", "name": "BP Service Amriswil", "lat": 47.544554, "lng": 9.284067, "site_brand": "BP", "country_code": "CH", "address": "Weinfelderstrasse 69b", "city": "Amriswil", "state": null, "postcode": "8580", "telephone": "+41 76 563 96 22", "facilities": ["alcohol", "lotto", "tobacco", "truck_parking", "truck_suitable_site", "motorway_site", "shop", "accepts_routex_cards", "open_saturday", "open_sunday"], "products": ["ad_blue_cannister"], "website": null, "watchlist_id": null, "formatted_address": "Weinfelderstrasse 69b\n8580\nAmriswil", "channel_of_trade": null}, {"id": "CH-807933860", "name": "BP Tankstelle Gossau Wilerstra", "lat": 47.416935, "lng": 9.237857, "site_brand": "BP", "country_code": "CH", "address": "Wilerstrasse 53", "city": "Gossau SG", "state": null, "postcode": "9200", "telephone": "+41 71 388 11 44", "facilities": ["motorway_site", "accepts_routex_cards", "automatic_site", "open_saturday", "open_sunday"], "products": [], "website": null, "watchlist_id": null, "formatted_address": "Wilerstrasse 53\n9200\nGossau SG", "channel_of_trade": null}, {"id": "CH-808641439", "name": "BP Service Schwarzenbach", "lat": 47.444062, "lng": 9.068948, "site_brand": "BP", "country_code": "CH", "address": "Wilerstrasse 21", "city": "Schwarzenbach", "state": null, "postcode": "9536", "telephone": "+41 71 923 20 25", "facilities": ["truck_suitable_site", "toilet", "shop", "wild_bean_cafe", "accepts_routex_cards", "accepts_toll_payments", "open_saturday", "open_sunday"], "products": ["ad_blue_cannister", "diesel_on", "ultimate", "ultimate_unleaded", "unleaded_95"], "website": null, "watchlist_id": null, "formatted_address": "Wilerstrasse 21\n9536\nSchwarzenbach", "channel_of_trade": null}, {"id": "CH-819412318", "name": "BP Tankstelle Lichtensteig Wil", "lat": 47.292125, "lng": 9.089426, "site_brand": "BP", "country_code": "CH", "address": "Wilerstrasse 146", "city": "Lichtensteig", "state": null, "postcode": "9620", "telephone": "+41 71 913 33 33", "facilities": ["motorway_site", "accepts_routex_cards", "automatic_site", "open_saturday", "open_sunday"], "products": [], "website": null, "watchlist_id": null, "formatted_address": "Wilerstrasse 146\n9620\nLichtensteig", "channel_of_trade": null}, {"id": "CH-820433075", "name": "BP Station Le Chatelard", "lat": 46.053918, "lng": 6.951484, "site_brand": "BP", "country_code": "CH", "address": "Route Cantonale 2", "city": "Finhaut", "state": null, "postcode": "1925", "telephone": "+41 848 848 490", "facilities": ["motorway_site", "accepts_routex_cards", "automatic_site", "open_saturday", "open_sunday"], "products": [], "website": null, "watchlist_id": null, "formatted_address": "Route Cantonale 2\n1925\nFinhaut", "channel_of_trade": null}, {"id": "CH-820511608", "name": "BP Service Balerna", "lat": 45.844534, "lng": 9.010608, "site_brand": "BP", "country_code": "CH", "address": "Via San Gottardo 56 A", "city": "Balerna", "state": null, "postcode": "6828", "telephone": "+41 91 690 13 00", "facilities": ["alcohol", "lotto", "tobacco", "motorway_site", "shop", "accepts_routex_cards", "open_saturday", "open_sunday"], "products": ["ad_blue_cannister"], "website": null, "watchlist_id": null, "formatted_address": "Via San Gottardo 56 A\n6828\nBalerna", "channel_of_trade": null}, {"id": "CH-820896412", "name": "BP Station Cernier", "lat": 47.060212, "lng": 6.910252, "site_brand": "BP", "country_code": "CH", "address": "Passage  des Cepes 2", "city": "Cernier", "state": null, "postcode": "2053", "telephone": "+41 848 848 490", "facilities": ["truck_parking", "truck_suitable_site", "motorway_site", "accepts_routex_cards", "automatic_site", "open_saturday", "open_sunday"], "products": [], "website": null, "watchlist_id": null, "formatted_address": "Passage  des Cepes 2\n2053\nCernier", "channel_of_trade": null}, {"id": "CH-822070327", "name": "BP Tankstelle Zuerich Flughafe", "lat": 47.4398939, "lng": 8.5624527, "site_brand": "BP", "country_code": "CH", "address": "Flughofstrasse 79", "city": "Zuerich-Flughafen", "state": null, "postcode": "8058", "telephone": "+41 58 688 55 10", "facilities": ["motorway_site", "accepts_routex_cards", "automatic_site", "open_saturday", "open_sunday"], "products": [], "website": null, "watchlist_id": null, "formatted_address": "Flughofstrasse 79\n8058\nZuerich-Flughafen", "channel_of_trade": null}, {"id": "CH-833832565", "name": "BP Service Lyss", "lat": 47.082382, "lng": 7.296531, "site_brand": "BP", "country_code": "CH", "address": "Bielstrasse 98", "city": "Lyss", "state": null, "postcode": "3250", "telephone": "+41 76 311 77 80", "facilities": ["alcohol", "lotto", "tobacco", "motorway_site", "shop", "accepts_routex_cards", "open_saturday", "open_sunday"], "products": ["ad_blue_cannister", "natural_gas"], "website": null, "watchlist_id": null, "formatted_address": "Bielstrasse 98\n3250\nLyss", "channel_of_trade": null}, {"id": "CH-836883353", "name": "BP Tankstelle Ettingen", "lat": 47.4832455, "lng": 7.5460509, "site_brand": "BP", "country_code": "CH", "address": "Hauptstrasse 6", "city": "Ettingen", "state": null, "postcode": "4107", "telephone": "+41 61 721 29 76", "facilities": ["open_24_hours", "accepts_routex_cards", "open_saturday", "open_sunday"], "products": ["diesel_on", "unleaded_95"], "website": null, "watchlist_id": null, "formatted_address": "Hauptstrasse 6\n4107\nEttingen", "channel_of_trade": null}, {"id": "CH-841393057", "name": "BP Tankstelle Flawil", "lat": 47.41718, "lng": 9.16847, "site_brand": "BP", "country_code": "CH", "address": "Wilerstrasse 247 / 249", "city": "Flawil", "state": null, "postcode": "9230", "telephone": "+41 848 848 490", "facilities": ["motorway_site", "accepts_routex_cards", "automatic_site", "open_saturday", "open_sunday"], "products": [], "website": null, "watchlist_id": null, "formatted_address": "Wilerstrasse 247 / 249\n9230\nFlawil", "channel_of_trade": null}, {"id": "CH-852358821", "name": "BP Service Crissier", "lat": 46.5459, "lng": 6.5868, "site_brand": "BP", "country_code": "CH", "address": "Route de Prilly 29", "city": "Crissier", "state": null, "postcode": "1023", "telephone": "+41 76 311 79 93", "facilities": ["alcohol", "lotto", "tobacco", "car_wash", "truck_parking", "truck_suitable_site", "motorway_site", "shop", "accepts_routex_cards", "open_saturday", "open_sunday"], "products": ["ad_blue_cannister"], "website": null, "watchlist_id": null, "formatted_address": "Route de Prilly 29\n1023\nCrissier", "channel_of_trade": null}, {"id": "CH-856554599", "name": "BP Tankstelle Fiesch", "lat": 46.39989, "lng": 8.13388, "site_brand": "BP", "country_code": "CH", "address": "Furkastrasse 18", "city": "Fiesch", "state": null, "postcode": "3984", "telephone": "+41 27 971 16 43", "facilities": ["car_wash", "motorway_site", "accepts_routex_cards", "automatic_site", "open_saturday", "open_sunday"], "products": [], "website": null, "watchlist_id": null, "formatted_address": "Furkastrasse 18\n3984\nFiesch", "channel_of_trade": null}, {"id": "CH-857882495", "name": "BP Tankstelle Muensingen Berns", "lat": 46.87757, "lng": 7.56192, "site_brand": "BP", "country_code": "CH", "address": "Bernstrasse 14", "city": "Muensingen", "state": null, "postcode": "3110", "telephone": "+41 31 722 16 00", "facilities": ["motorway_site", "accepts_routex_cards", "automatic_site", "open_saturday", "open_sunday"], "products": [], "website": null, "watchlist_id": null, "formatted_address": "Bernstrasse 14\n3110\nMuensingen", "channel_of_trade": null}, {"id": "CH-867164845", "name": "BP Service Weinland West", "lat": 47.5814, "lng": 8.6837, "site_brand": "BP", "country_code": "CH", "address": "Hauptstrasse 4", "city": "Adlikon b. Andelfingen", "state": null, "postcode": "8452", "telephone": "+41 76 594 86 17", "facilities": ["alcohol", "lotto", "tobacco", "motorway_site", "shop", "accepts_routex_cards", "open_saturday", "open_sunday"], "products": ["ad_blue_cannister"], "website": null, "watchlist_id": null, "formatted_address": "Hauptstrasse 4\n8452\nAdlikon b. Andelfingen", "channel_of_trade": null}, {"id": "CH-867775453", "name": "BP Station La Chaux-de-Fonds E", "lat": 47.08536, "lng": 6.79868, "site_brand": "BP", "country_code": "CH", "address": "Boulevard des Eplatures 8", "city": "La Chaux de Fonds", "state": null, "postcode": "2304", "telephone": "+41 32 926 81 81", "facilities": ["car_wash", "motorway_site", "accepts_routex_cards", "automatic_site", "open_saturday", "open_sunday"], "products": [], "website": null, "watchlist_id": null, "formatted_address": "Boulevard des Eplatures 8\n2304\nLa Chaux de Fonds", "channel_of_trade": null}, {"id": "CH-870338443", "name": "BP Service Vernier", "lat": 46.21311, "lng": 6.10316, "site_brand": "BP", "country_code": "CH", "address": "Route de Vernier 137", "city": "Chatelaine", "state": null, "postcode": "1219", "telephone": "+41 76 311 77 74", "facilities": ["alcohol", "lotto", "tobacco", "car_wash", "truck_parking", "truck_suitable_site", "motorway_site", "shop", "accepts_routex_cards", "open_saturday", "open_sunday"], "products": ["ad_blue_cannister"], "website": null, "watchlist_id": null, "formatted_address": "Route de Vernier 137\n1219\nChatelaine", "channel_of_trade": null}, {"id": "CH-918540222", "name": "BP Service Yverdon", "lat": 46.76603, "lng": 6.65038, "site_brand": "BP", "country_code": "CH", "address": "Rue des Champs-Lovats 1", "city": "Yverdon-les-Bains", "state": null, "postcode": "1400", "telephone": "+41 76 311 79 92", "facilities": ["alcohol", "lotto", "tobacco", "car_wash", "truck_parking", "truck_suitable_site", "motorway_site", "shop", "accepts_routex_cards", "open_saturday", "open_sunday"], "products": ["ad_blue_cannister", "natural_gas"], "website": null, "watchlist_id": null, "formatted_address": "Rue des Champs-Lovats 1\n1400\nYverdon-les-Bains", "channel_of_trade": null}, {"id": "CH-920138602", "name": "BP Station La Neuveville", "lat": 47.062386, "lng": 7.089099, "site_brand": "BP", "country_code": "CH", "address": "Rue de Neuchatel 13", "city": "La Neuveville", "state": null, "postcode": "2520", "telephone": "+41 32 751 22 04", "facilities": ["car_wash", "motorway_site", "accepts_routex_cards", "automatic_site", "open_saturday", "open_sunday"], "products": [], "website": null, "watchlist_id": null, "formatted_address": "Rue de Neuchatel 13\n2520\nLa Neuveville", "channel_of_trade": null}, {"id": "CH-934430405", "name": "BP Tankstelle Niederurnen", "lat": 47.120176, "lng": 9.056618, "site_brand": "BP", "country_code": "CH", "address": "Hauptstrasse 52", "city": "Niederurnen", "state": null, "postcode": "8867", "telephone": "+41 848 848 490", "facilities": ["alcohol", "lotto", "tobacco", "motorway_site", "accepts_routex_cards", "automatic_site", "open_saturday", "open_sunday"], "products": [], "website": null, "watchlist_id": null, "formatted_address": "Hauptstrasse 52\n8867\nNiederurnen", "channel_of_trade": null}, {"id": "CH-937574316", "name": "BP Service Leimbach", "lat": 47.32901, "lng": 8.51734, "site_brand": "BP", "country_code": "CH", "address": "Soodstrasse 42", "city": "Zuerich", "state": null, "postcode": "8041", "telephone": "+41 44 501 47 80", "facilities": ["alcohol", "lotto", "tobacco", "motorway_site", "shop", "accepts_routex_cards", "open_saturday", "open_sunday"], "products": ["ad_blue_cannister"], "website": null, "watchlist_id": null, "formatted_address": "Soodstrasse 42\n8041\nZuerich", "channel_of_trade": null}, {"id": "CH-941669812", "name": "BP Service Rolle", "lat": 46.45241, "lng": 6.3338, "site_brand": "BP", "country_code": "CH", "address": "Route de Geneve 25", "city": "Rolle", "state": null, "postcode": "1180", "telephone": "+41 21 825 17 58", "facilities": ["car_wash", "motorway_site", "accepts_routex_cards", "automatic_site", "open_saturday", "open_sunday"], "products": [], "website": null, "watchlist_id": null, "formatted_address": "Route de Geneve 25\n1180\nRolle", "channel_of_trade": null}, {"id": "CH-973066133", "name": "BP Tankstelle Bendern", "lat": 47.20697, "lng": 9.50231, "site_brand": "BP", "country_code": "CH", "address": "Schaaner Strasse 47", "city": "Gamprin-Bendern", "state": null, "postcode": "9487", "telephone": "+41 848 848 490", "facilities": ["motorway_site", "accepts_routex_cards", "automatic_site", "open_saturday", "open_sunday"], "products": [], "website": null, "watchlist_id": null, "formatted_address": "Schaaner Strasse 47\n9487\nGamprin-Bendern", "channel_of_trade": null}]