[
    {
        "id": "ID-BT001",
        "name": "SPBU bp BSD De Latinos",
        "lat": -6.320327,
        "lng": 106.681961,
        "site_brand": "BP",
        "country_code": "ID",
        "address": "Jl. Raya Rawa Buntu RT 006 RW 001, Serpong, Tangsel",
        "city": "Tanggerang Selatan",
        "state": "Banten",
        "postcode": "15318",
        "telephone": "+62 811-1990-0606",
        "facilities": [
            "tires_pump_up",
            "cash_point",
            "toilet",
            "musholla",
            "kopi_kenangan",
            "alfamart",
            "takeaway_food",
            "restaurant",
            "bike_friendly"
        ],
        "products": [
            "ultimate_diesel",
            "regular_92",
            "ultimate"
        ],
        "website": null,
        "watchlist_id": null,
        "formatted_address": "Jl. Raya Rawa Buntu RT 006 RW 001, Serpong, Tangsel\n15318\nTanggerang Selatan",
        "channel_of_trade": null
    },
    {
        "id": "ID-BT002",
        "name": "SPBU bp Bintaro Emerald",
        "lat": -6.274025,
        "lng": 106.701363,
        "site_brand": "BP",
        "country_code": "ID",
        "address": "Jl. Boulevard Bintaro Jaya Blok CE/ A-03, Bintaro sektor 9, Tangsel",
        "city": "Tanggerang Selatan",
        "state": "Banten",
        "postcode": "15228",
        "telephone": "+62 811-1990-0606",
        "facilities": [
            "open_24_hours",
            "tires_pump_up",
            "cash_point",
            "toilet",
            "musholla",
            "tuku_coffee",
            "alfamart",
            "fresh_pastry",
            "bike_friendly"
        ],
        "products": [
            "ultimate_diesel",
            "regular_92",
            "ultimate"
        ],
        "website": null,
        "watchlist_id": null,
        "formatted_address": "Jl. Boulevard Bintaro Jaya Blok CE/ A-03, Bintaro sektor 9, Tangsel\n15228\nTanggerang Selatan",
        "channel_of_trade": null
    },
    {
        "id": "ID-BT003",
        "name": "SPBU bp GS Paramount",
        "lat": -6.265062,
        "lng": 106.630032,
        "site_brand": "BP",
        "country_code": "ID",
        "address": "Jl. Soekarno Lot 1 Gading Serpong, Kabupaten Tangerang",
        "city": "Tanggerang Selatan",
        "state": "Banten",
        "postcode": "15332",
        "telephone": "+62 811-1990-0606",
        "facilities": [
            "open_24_hours",
            "tires_pump_up",
            "cash_point",
            "toilet",
            "musholla",
            "tuku_coffee",
            "alfamart",
            "fresh_pastry",
            "bike_friendly"
        ],
        "products": [
            "ultimate_diesel",
            "regular_92",
            "ultimate"
        ],
        "website": null,
        "watchlist_id": null,
        "formatted_address": "Jl. Soekarno Lot 1 Gading Serpong, Kabupaten Tangerang\n15332\nTanggerang Selatan",
        "channel_of_trade": null
    },
    {
        "id": "ID-BT004",
        "name": "SPBU bp Ciater Raya",
        "lat": -6.314313,
        "lng": 106.696646,
        "site_brand": "BP",
        "country_code": "ID",
        "address": "Jl. Ciater Raya Blok RH No. 17, Rw. Mekar Jaya, Kec. Serpong, Kota Tangerang Selatan, Banten 15310",
        "city": "Kota Tangerang",
        "state": "Banten",
        "postcode": "15310",
        "telephone": "+62 811-1990-0606",
        "facilities": [
            "tires_pump_up",
            "toilet",
            "musholla",
            "kopi_kenangan",
            "alfamart",
            "bike_friendly"
        ],
        "products": [
            "ultimate_diesel",
            "regular_92",
            "ultimate"
        ],
        "website": null,
        "watchlist_id": null,
        "formatted_address": "Jl. Ciater Raya Blok RH No. 17, Rw. Mekar Jaya, Kec. Serpong, Kota Tangerang Selatan, Banten 15310\n15310\nKota Tangerang",
        "channel_of_trade": null
    },
    {
        "id": "ID-BT005",
        "name": "SPBU bp Metland Cybercity",
        "lat": -6.200219,
        "lng": 106.704222,
        "site_brand": "BP",
        "country_code": "ID",
        "address": "Jl. STA. 11 Green Lake City Metland Lot C1B, Kelurahan Pondok Bahar, Kecamatan Karang Tengah, Kota Tangerang",
        "city": "Kota Tangerang",
        "state": "Banten",
        "postcode": "15159",
        "telephone": "+62 811-1990-0606",
        "facilities": [
            "open_24_hours",
            "tires_pump_up",
            "cash_point",
            "toilet",
            "musholla",
            "kopi_kenangan",
            "alfamart",
            "bike_friendly"
        ],
        "products": [
            "ultimate_diesel",
            "regular_92",
            "ultimate"
        ],
        "website": null,
        "watchlist_id": null,
        "formatted_address": "Jl. STA. 11 Green Lake City Metland Lot C1B, Kelurahan Pondok Bahar, Kecamatan Karang Tengah, Kota Tangerang\n15159\nKota Tangerang",
        "channel_of_trade": null
    },
    {
        "id": "ID-BT006",
        "name": "SPBU bp Graha Raya Silktown",
        "lat": -6.241148,
        "lng": 106.666089,
        "site_brand": "BP",
        "country_code": "ID",
        "address": "Jl. Boulevard Graha Raya Silktown Kavling No. 1B, Kel Pondok Jagung Timur, Kec Serpong Utara, Tangerang Selatan",
        "city": "Kota Tangerang Selatan",
        "state": "Banten",
        "postcode": "15326",
        "telephone": "+62 811-1990-0606",
        "facilities": [
            "tires_pump_up",
            "toilet",
            "musholla",
            "alfamart",
            "bike_friendly"
        ],
        "products": [
            "ultimate_diesel",
            "regular_92",
            "ultimate"
        ],
        "website": null,
        "watchlist_id": null,
        "formatted_address": "Jl. Boulevard Graha Raya Silktown Kavling No. 1B, Kel Pondok Jagung Timur, Kec Serpong Utara, Tangerang Selatan\n15326\nKota Tangerang Selatan",
        "channel_of_trade": null
    },
    {
        "id": "ID-BT007",
        "name": "SPBU bp Imam Bonjol",
        "lat": -6.198463,
        "lng": 106.621499,
        "site_brand": "BP",
        "country_code": "ID",
        "address": "Jl Imam Bonjol RT 003 RW 001 Kelurahan Bojong Jaya, Kecamatan Karawaci, Kota Tangerang",
        "city": "Kota Tangerang",
        "state": "Banten",
        "postcode": "15115",
        "telephone": "+62 811-1990-0606",
        "facilities": [
            "tires_pump_up",
            "toilet",
            "musholla",
            "alfamart",
            "bike_friendly"
        ],
        "products": [
            "ultimate_diesel",
            "regular_92",
            "ultimate"
        ],
        "website": null,
        "watchlist_id": null,
        "formatted_address": "Jl Imam Bonjol RT 003 RW 001 Kelurahan Bojong Jaya, Kecamatan Karawaci, Kota Tangerang\n15115\nKota Tangerang",
        "channel_of_trade": null
    },
    {
        "id": "ID-BT008",
        "name": "SPBU bp Puspitek Raya",
        "lat": -6.347012,
        "lng": 106.693006,
        "site_brand": "BP",
        "country_code": "ID",
        "address": "Jl. Puspitek, Babakan, Kec. Setu, Kota Tangerang Selatan, Banten ",
        "city": "Kota Tangerang Selatan",
        "state": "Banten",
        "postcode": "15315",
        "telephone": "+62 811-1990-0606",
        "facilities": [
            "tires_pump_up",
            "toilet",
            "musholla",
            "bike_friendly"
        ],
        "products": [
            "ultimate_diesel",
            "regular_92",
            "ultimate"
        ],
        "website": null,
        "watchlist_id": null,
        "formatted_address": "Jl. Puspitek, Babakan, Kec. Setu, Kota Tangerang Selatan, Banten \n15315\nKota Tangerang Selatan",
        "channel_of_trade": null
    },
    {
        "id": "ID-BT009",
        "name": "SPBU bp MH Thamrin",
        "lat": -6.205072,
        "lng": 106.62804,
        "site_brand": "BP",
        "country_code": "ID",
        "address": "Jl. MH Thamrin, Kel. Cikokol, Kec. Tangerang, Kota Tangerang 15117",
        "city": "Kota Tangerang",
        "state": "Banten",
        "postcode": "15117",
        "telephone": "+62 811-1990-0606",
        "facilities": [
            "tires_pump_up",
            "toilet",
            "musholla",
            "bike_friendly"
        ],
        "products": [
            "ultimate_diesel",
            "regular_92",
            "ultimate"
        ],
        "website": null,
        "watchlist_id": null,
        "formatted_address": "Jl. MH Thamrin, Kel. Cikokol, Kec. Tangerang, Kota Tangerang 15117\n15117\nKota Tangerang",
        "channel_of_trade": null
    },
    {
        "id": "ID-BT010",
        "name": "SPBU bp Legok Summarecon",
        "lat": -6.2446996764,
        "lng": 106.610882,
        "site_brand": "BP",
        "country_code": "ID",
        "address": "QJ46+38C, Kelapa Dua, Tangerang Regency, Banten 15810",
        "city": "Tangerang Regency",
        "state": "Banten",
        "postcode": "15810",
        "telephone": "",
        "facilities": [],
        "products": [
            "ultimate_diesel",
            "regular_92",
            "ultimate"
        ],
        "website": null,
        "watchlist_id": null,
        "formatted_address": "QJ46+38C, Kelapa Dua, Tangerang Regency, Banten 15810\n15810\nTangerang Regency",
        "channel_of_trade": null
    },
    {
        "id": "ID-BT011",
        "name": "SPBU bp PIK 2",
        "lat": -6.06436,
        "lng": 106.69028,
        "site_brand": "BP",
        "country_code": "ID",
        "address": "Jl. MH Thamrin, West Kosambi, Kosambi, Tangerang Regency",
        "city": "Kabupaten Tangerang",
        "state": "Banten",
        "postcode": "15214",
        "telephone": "",
        "facilities": [],
        "products": [
            "ultimate_diesel",
            "regular_92",
            "ultimate"
        ],
        "website": null,
        "watchlist_id": null,
        "formatted_address": "Jl. MH Thamrin, West Kosambi, Kosambi, Tangerang Regency\n15214\nKabupaten Tangerang",
        "channel_of_trade": null
    },
    {
        "id": "ID-BT012",
        "name": "SPBU bp Pondok Cabe",
        "lat": -6.342222,
        "lng": 106.765556,
        "site_brand": "BP",
        "country_code": "ID",
        "address": "Jl. Cabe Raya - Cireundeu Raya 19-31, Pd. Cabe Udik, Kec. Pamulang, Kota Tangerang Selatan 15418",
        "city": "Kota Tangerang Selatan",
        "state": "Banten",
        "postcode": "15418",
        "telephone": "+62 811-1990-0606",
        "facilities": [],
        "products": [],
        "website": null,
        "watchlist_id": null,
        "formatted_address": "Jl. Cabe Raya - Cireundeu Raya 19-31, Pd. Cabe Udik, Kec. Pamulang, Kota Tangerang Selatan 15418\n15418\nKota Tangerang Selatan",
        "channel_of_trade": null
    },
    {
        "id": "ID-JB001",
        "name": "SPBU bp Cibubur Transyogi",
        "lat": -6.389995,
        "lng": 106.949373,
        "site_brand": "BP",
        "country_code": "ID",
        "address": "Jl. Alternatif Cibubur KM. 6, Gunung Putri, Kabupaten Bogor",
        "city": "Bogor",
        "state": "Jawa Barat",
        "postcode": "16967",
        "telephone": "+62 811-1990-0606",
        "facilities": [
            "tires_pump_up",
            "toilet",
            "musholla",
            "tuku_coffee",
            "alfamart",
            "fresh_pastry",
            "bike_friendly"
        ],
        "products": [
            "ultimate_diesel",
            "regular_92",
            "ultimate"
        ],
        "website": null,
        "watchlist_id": null,
        "formatted_address": "Jl. Alternatif Cibubur KM. 6, Gunung Putri, Kabupaten Bogor\n16967\nBogor",
        "channel_of_trade": null
    },
    {
        "id": "ID-JB002",
        "name": "SPBU bp KHI Boulevard",
        "lat": -6.169673,
        "lng": 106.966744,
        "site_brand": "BP",
        "country_code": "ID",
        "address": "Jl Harapan Indah Blvrd, Kota Harapan Indah,Kabupaten Bekasi",
        "city": "Bekasi",
        "state": "Jawa Barat",
        "postcode": "17214",
        "telephone": "+62 811-1990-0606",
        "facilities": [
            "open_24_hours",
            "tires_pump_up",
            "toilet",
            "musholla",
            "kopi_kenangan",
            "alfamart",
            "bike_friendly"
        ],
        "products": [
            "regular_diesel",
            "regular_92",
            "ultimate"
        ],
        "website": null,
        "watchlist_id": null,
        "formatted_address": "Jl Harapan Indah Blvrd, Kota Harapan Indah,Kabupaten Bekasi\n17214\nBekasi",
        "channel_of_trade": null
    },
    {
        "id": "ID-JB003",
        "name": "SPBU bp Karawang Barat",
        "lat": -6.336868,
        "lng": 107.272495,
        "site_brand": "BP",
        "country_code": "ID",
        "address": "Jl. International Karawang Barat, Karawang Barat",
        "city": "Karawang",
        "state": "Jawa Barat",
        "postcode": "41361",
        "telephone": "+62 811-1990-0606",
        "facilities": [
            "tires_pump_up",
            "toilet",
            "musholla",
            "kopi_kenangan",
            "alfamart",
            "bike_friendly"
        ],
        "products": [
            "regular_diesel",
            "regular_92",
            "ultimate"
        ],
        "website": null,
        "watchlist_id": null,
        "formatted_address": "Jl. International Karawang Barat, Karawang Barat\n41361\nKarawang",
        "channel_of_trade": null
    },
    {
        "id": "ID-JB004",
        "name": "SPBU bp Cikarang Sriwijaya",
        "lat": -6.33862,
        "lng": 107.153356,
        "site_brand": "BP",
        "country_code": "ID",
        "address": "Jl. Sriwijaya No. 22 Lippo Cikarang, Cibatu, Cikarang Selatan, Kab. Bekasi, Jawa Barat",
        "city": "Kabupaten Bekasi",
        "state": "Jawa Barat",
        "postcode": "17530",
        "telephone": "+62 811-1990-0606",
        "facilities": [
            "tires_pump_up",
            "toilet",
            "musholla",
            "kopi_kenangan",
            "alfamart",
            "bike_friendly"
        ],
        "products": [
            "regular_diesel",
            "regular_92",
            "ultimate"
        ],
        "website": null,
        "watchlist_id": null,
        "formatted_address": "Jl. Sriwijaya No. 22 Lippo Cikarang, Cibatu, Cikarang Selatan, Kab. Bekasi, Jawa Barat\n17530\nKabupaten Bekasi",
        "channel_of_trade": null
    },
    {
        "id": "ID-JB005",
        "name": "SPBU bp Jababeka Hollywood",
        "lat": -6.294013,
        "lng": 107.170586,
        "site_brand": "BP",
        "country_code": "ID",
        "address": "Jl. H Umar Ismail Kav. B5 Jababeka Residence, Cikarang Utara",
        "city": "Bekasi",
        "state": "Jawa Barat",
        "postcode": "17530",
        "telephone": "+62 811-1990-0606",
        "facilities": [
            "tires_pump_up",
            "toilet",
            "musholla",
            "kopi_kenangan",
            "martabak_orins",
            "alfamart",
            "bike_friendly"
        ],
        "products": [
            "regular_diesel",
            "regular_92",
            "ultimate"
        ],
        "website": null,
        "watchlist_id": null,
        "formatted_address": "Jl. H Umar Ismail Kav. B5 Jababeka Residence, Cikarang Utara\n17530\nBekasi",
        "channel_of_trade": null
    },
    {
        "id": "ID-JB006",
        "name": "SPBU bp Rest Area Km 72A",
        "lat": -6.465362,
        "lng": 107.444027,
        "site_brand": "BP",
        "country_code": "ID",
        "address": "Toll road Cipularang Kilometer 72, Kab Purwakarta",
        "city": "Kabupaten Purwakarta",
        "state": "Jawa Barat",
        "postcode": "41151",
        "telephone": "+62 811-1990-0606",
        "facilities": [
            "tires_pump_up",
            "toilet",
            "musholla",
            "kopi_kenangan",
            "alfamart"
        ],
        "products": [
            "regular_diesel",
            "regular_92",
            "ultimate"
        ],
        "website": null,
        "watchlist_id": null,
        "formatted_address": "Toll road Cipularang Kilometer 72, Kab Purwakarta\n41151\nKabupaten Purwakarta",
        "channel_of_trade": null
    },
    {
        "id": "ID-JB007",
        "name": "SPBU bp Sholeh Iskandar",
        "lat": -6.55657,
        "lng": 106.779107,
        "site_brand": "BP",
        "country_code": "ID",
        "address": "Jalan KH. Sholeh Iskandar (Lotte Mart) RT. 05 RW. 04, Kel. Cibadak, Kec. Tanah Sareal, Kota Bogor",
        "city": "Kota Bogor",
        "state": "Jawa Barat",
        "postcode": "16169",
        "telephone": "+62 811-1990-0606",
        "facilities": [
            "tires_pump_up",
            "toilet",
            "musholla",
            "tuku_coffee",
            "fresh_pastry",
            "restaurant",
            "bike_friendly"
        ],
        "products": [
            "ultimate_diesel",
            "regular_92",
            "ultimate"
        ],
        "website": null,
        "watchlist_id": null,
        "formatted_address": "Jalan KH. Sholeh Iskandar (Lotte Mart) RT. 05 RW. 04, Kel. Cibadak, Kec. Tanah Sareal, Kota Bogor\n16169\nKota Bogor",
        "channel_of_trade": null
    },
    {
        "id": "ID-JB008",
        "name": "SPBU bp Grand Galaxy",
        "lat": -6.267284,
        "lng": 106.974632,
        "site_brand": "BP",
        "country_code": "ID",
        "address": "Jl Pulo Ribung Raya RT. 003 RW. 017 Kel. Jakasetia Kec. Bekasi Selatan, Kota Bekasi, Jawa Barat",
        "city": "Kota Bekasi",
        "state": "Jawa Barat",
        "postcode": "17147",
        "telephone": "+62 811-1990-0606",
        "facilities": [
            "tires_pump_up",
            "toilet",
            "musholla",
            "tuku_coffee",
            "alfamart",
            "fresh_pastry",
            "bike_friendly"
        ],
        "products": [
            "ultimate_diesel",
            "regular_92",
            "ultimate"
        ],
        "website": null,
        "watchlist_id": null,
        "formatted_address": "Jl Pulo Ribung Raya RT. 003 RW. 017 Kel. Jakasetia Kec. Bekasi Selatan, Kota Bekasi, Jawa Barat\n17147\nKota Bekasi",
        "channel_of_trade": null
    },
    {
        "id": "ID-JB009",
        "name": "SPBU bp Raya Sawangan",
        "lat": -6.396035,
        "lng": 106.776903,
        "site_brand": "BP",
        "country_code": "ID",
        "address": "Jl Raya Sawangan RT 003 RW 009 Kel Rangkapan Jaya Baru Kec Pancoran Mas, Depok, Jawa Barat",
        "city": "Kota Depok",
        "state": "Jawa Barat",
        "postcode": "16434",
        "telephone": "+62 811-1990-0606",
        "facilities": [
            "tires_pump_up",
            "toilet",
            "musholla",
            "alfamart",
            "bike_friendly"
        ],
        "products": [
            "ultimate_diesel",
            "regular_92",
            "ultimate"
        ],
        "website": null,
        "watchlist_id": null,
        "formatted_address": "Jl Raya Sawangan RT 003 RW 009 Kel Rangkapan Jaya Baru Kec Pancoran Mas, Depok, Jawa Barat\n16434\nKota Depok",
        "channel_of_trade": null
    },
    {
        "id": "ID-JB010",
        "name": "SPBU bp Mustika Vida",
        "lat": -6.315504,
        "lng": 107.001101,
        "site_brand": "BP",
        "country_code": "ID",
        "address": "Jl Raya Bantargebang-Setu RT 003 RW 002 Kel Padurenan Kec Mustikajaya Kota Bekasi",
        "city": "Kota Bekasi",
        "state": "Jawa Barat",
        "postcode": "16340",
        "telephone": "+62 811-1990-0606",
        "facilities": [
            "tires_pump_up",
            "toilet",
            "musholla",
            "alfamart",
            "bike_friendly"
        ],
        "products": [
            "ultimate_diesel",
            "regular_92",
            "ultimate"
        ],
        "website": null,
        "watchlist_id": null,
        "formatted_address": "Jl Raya Bantargebang-Setu RT 003 RW 002 Kel Padurenan Kec Mustikajaya Kota Bekasi\n16340\nKota Bekasi",
        "channel_of_trade": null
    },
    {
        "id": "ID-JB011",
        "name": "SPBU bp Alternatif Sentul",
        "lat": -6.52009,
        "lng": 106.83878,
        "site_brand": "BP",
        "country_code": "ID",
        "address": "Jl Alternatif Sentul Kelurahan Cijujung, Kecamatan Sukaraja, Kabupaten Bogor, Jawa Barat",
        "city": "Kabupaten Bogor",
        "state": "Jawa Barat",
        "postcode": "16711",
        "telephone": "+62 811-1990-0606",
        "facilities": [
            "tires_pump_up",
            "toilet",
            "musholla",
            "alfamart",
            "bike_friendly"
        ],
        "products": [
            "ultimate_diesel",
            "regular_92",
            "ultimate"
        ],
        "website": null,
        "watchlist_id": null,
        "formatted_address": "Jl Alternatif Sentul Kelurahan Cijujung, Kecamatan Sukaraja, Kabupaten Bogor, Jawa Barat\n16711\nKabupaten Bogor",
        "channel_of_trade": null
    },
    {
        "id": "ID-JB012",
        "name": "SPBU bp Gunung Putri",
        "lat": -6.346308,
        "lng": 106.961913,
        "site_brand": "BP",
        "country_code": "ID",
        "address": "Jl Raya Ciangsana Kelurahan Ciangsana, Kecamatan Gunung Putri, Kabupaten Bogor, Jawa Barat",
        "city": "Kabupaten Bogor",
        "state": "Jawa Barat",
        "postcode": "16968",
        "telephone": "+62 811-1990-0606",
        "facilities": [
            "tires_pump_up",
            "toilet",
            "musholla",
            "bike_friendly"
        ],
        "products": [
            "ultimate_diesel",
            "regular_92",
            "ultimate"
        ],
        "website": null,
        "watchlist_id": null,
        "formatted_address": "Jl Raya Ciangsana Kelurahan Ciangsana, Kecamatan Gunung Putri, Kabupaten Bogor, Jawa Barat\n16968\nKabupaten Bogor",
        "channel_of_trade": null
    },
    {
        "id": "ID-JB013",
        "name": "SPBU bp Grand Depok City",
        "lat": -6.41075,
        "lng": 106.81809,
        "site_brand": "BP",
        "country_code": "ID",
        "address": "Jl. Boulevard Grand Depok City, Depok, Kec. Pancoran Mas",
        "city": "Kota Depok",
        "state": "Jawa Barat",
        "postcode": "16431",
        "telephone": "+62 811-1990-0606",
        "facilities": [
            "toilet",
            "musholla",
            "tuku_coffee",
            "alfamart",
            "fresh_pastry",
            "bike_friendly"
        ],
        "products": [
            "ultimate_diesel",
            "regular_92",
            "ultimate"
        ],
        "website": null,
        "watchlist_id": null,
        "formatted_address": "Jl. Boulevard Grand Depok City, Depok, Kec. Pancoran Mas\n16431\nKota Depok",
        "channel_of_trade": null
    },
    {
        "id": "ID-JB014",
        "name": "SPBU bp Sentul City",
        "lat": -6.56793,
        "lng": 106.85401,
        "site_brand": "BP",
        "country_code": "ID",
        "address": "Jl. MH Thamrin, Citaringgul, Babakan Madang",
        "city": "Kabupaten Bogor",
        "state": "Jawa Barat",
        "postcode": "16810",
        "telephone": "+62 811-1990-0606",
        "facilities": [
            "tires_pump_up",
            "toilet",
            "musholla",
            "tuku_coffee",
            "alfamart",
            "fresh_pastry",
            "bike_friendly"
        ],
        "products": [
            "ultimate_diesel",
            "regular_92",
            "ultimate"
        ],
        "website": null,
        "watchlist_id": null,
        "formatted_address": "Jl. MH Thamrin, Citaringgul, Babakan Madang\n16810\nKabupaten Bogor",
        "channel_of_trade": null
    },
    {
        "id": "ID-JB015",
        "name": "SPBU bp Citralake Parung",
        "lat": -6.381046,
        "lng": 106.746765,
        "site_brand": "BP",
        "country_code": "ID",
        "address": "Jl. Parung Raya, Kedaung, Sawangan, Depok",
        "city": "Kota Depok",
        "state": "Jawa Barat",
        "postcode": "16516",
        "telephone": "+62 811-1990-0606",
        "facilities": [
            "toilet",
            "musholla"
        ],
        "products": [
            "ultimate_diesel",
            "regular_92",
            "ultimate"
        ],
        "website": null,
        "watchlist_id": null,
        "formatted_address": "Jl. Parung Raya, Kedaung, Sawangan, Depok\n16516\nKota Depok",
        "channel_of_trade": null
    },
    {
        "id": "ID-JB016",
        "name": "SPBU bp Margonda Raya",
        "lat": -6.3625412804,
        "lng": 106.8338468712,
        "site_brand": "BP",
        "country_code": "ID",
        "address": "JL. Margonda Raya, No. 369, Pondok Cina, Depok, Kota Depok, Jawa Barat 16424",
        "city": "Depok",
        "state": "Indonesia",
        "postcode": "16424",
        "telephone": "+62 811-1990-0606",
        "facilities": [],
        "products": [
            "ultimate_diesel",
            "regular_92",
            "ultimate"
        ],
        "website": null,
        "watchlist_id": null,
        "formatted_address": "JL. Margonda Raya, No. 369, Pondok Cina, Depok, Kota Depok, Jawa Barat 16424\n16424\nDepok",
        "channel_of_trade": null
    },
    {
        "id": "ID-JB017",
        "name": "SPBU bp Raffles Hills",
        "lat": -6.3760544562,
        "lng": 106.9046603577,
        "site_brand": "BP",
        "country_code": "ID",
        "address": "Jl. Alternatif Cibubur, RW.5, Harjamukti, Kec. Cimanggis",
        "city": "Depok",
        "state": "Jawa Barat",
        "postcode": "16454",
        "telephone": "+62 811-1990-0606",
        "facilities": [],
        "products": [
            "ultimate_diesel",
            "regular_92",
            "ultimate"
        ],
        "website": null,
        "watchlist_id": null,
        "formatted_address": "Jl. Alternatif Cibubur, RW.5, Harjamukti, Kec. Cimanggis\n16454\nDepok",
        "channel_of_trade": null
    },
    {
        "id": "ID-JB018",
        "name": "SPBU bp Grand Wisata",
        "lat": -6.291389,
        "lng": 107.035558,
        "site_brand": "BP",
        "country_code": "ID",
        "address": "Jl. Western Boulevard No.22, RT.006/RW.012, Mustika Jaya, Kec. Mustika Jaya, Kota Bekasi 17158",
        "city": "Kota Bekasi",
        "state": "Jawa Barat",
        "postcode": "17158",
        "telephone": "+62 811-1990-0606",
        "facilities": [],
        "products": [
            "ultimate_diesel",
            "regular_92",
            "ultimate"
        ],
        "website": null,
        "watchlist_id": null,
        "formatted_address": "Jl. Western Boulevard No.22, RT.006/RW.012, Mustika Jaya, Kec. Mustika Jaya, Kota Bekasi 17158\n17158\nKota Bekasi",
        "channel_of_trade": null
    },
    {
        "id": "ID-JB019",
        "name": "SPBU bp Ahmad Yani",
        "lat": -6.5802778,
        "lng": 106.7966667,
        "site_brand": "BP",
        "country_code": "ID",
        "address": "Jl. Pemuda 1-11, RT.06/RW.03, Sempur, Kecamatan Bogor Tengah, Kota Bogor 16129",
        "city": "Kota Bogor",
        "state": "Jawa Barat",
        "postcode": "16129",
        "telephone": "+62 811-1990-0606",
        "facilities": [],
        "products": [
            "ultimate_diesel",
            "regular_92",
            "ultimate"
        ],
        "website": null,
        "watchlist_id": null,
        "formatted_address": "Jl. Pemuda 1-11, RT.06/RW.03, Sempur, Kecamatan Bogor Tengah, Kota Bogor 16129\n16129\nKota Bogor",
        "channel_of_trade": null
    },
    {
        "id": "ID-JB020",
        "name": "SPBU bp Pajajaran",
        "lat": -6.6113847669,
        "lng": 106.8127789751,
        "site_brand": "BP",
        "country_code": "ID",
        "address": "Jl. Raya Pajajaran No.69, RT.01/RW.11, Baranangsiang, Kec. Bogor  Tim., Kota Bogor 16143",
        "city": "Kota Bogor",
        "state": "Jawa Barat",
        "postcode": "16143",
        "telephone": "",
        "facilities": [],
        "products": [
            "ultimate_diesel",
            "regular_92",
            "ultimate"
        ],
        "website": null,
        "watchlist_id": null,
        "formatted_address": "Jl. Raya Pajajaran No.69, RT.01/RW.11, Baranangsiang, Kec. Bogor  Tim., Kota Bogor 16143\n16143\nKota Bogor",
        "channel_of_trade": null
    },
    {
        "id": "ID-JB021",
        "name": "SPBU bp Buah Batu",
        "lat": -6.9474973525,
        "lng": 107.6322232579,
        "site_brand": "BP",
        "country_code": "ID",
        "address": "Jl. Soekarno Hatta No.519, Cijagra, Kec. Lengkong, Kota Bandung 40265",
        "city": "Kota Bandung",
        "state": "Jawa Barat",
        "postcode": "40265",
        "telephone": "+62 811-1990-0606",
        "facilities": [],
        "products": [
            "ultimate_diesel",
            "regular_92",
            "ultimate"
        ],
        "website": null,
        "watchlist_id": null,
        "formatted_address": "Jl. Soekarno Hatta No.519, Cijagra, Kec. Lengkong, Kota Bandung 40265\n40265\nKota Bandung",
        "channel_of_trade": null
    },
    {
        "id": "ID-JB022",
        "name": "SPBU bp Dago",
        "lat": -6.8833075,
        "lng": 107.6136862,
        "site_brand": "BP",
        "country_code": "ID",
        "address": "Jl. Ir. H. Juanda No.191, Dago, Kecamatan Coblong, ",
        "city": "Kota Bandung",
        "state": "Jawa Barat",
        "postcode": "40135",
        "telephone": "+62 811-1990-0606",
        "facilities": [],
        "products": [
            "ultimate_diesel",
            "regular_92",
            "ultimate"
        ],
        "website": null,
        "watchlist_id": null,
        "formatted_address": "Jl. Ir. H. Juanda No.191, Dago, Kecamatan Coblong, \n40135\nKota Bandung",
        "channel_of_trade": null
    },
    {
        "id": "ID-JI001",
        "name": "SPBU bp Gubeng Raya",
        "lat": -7.273041,
        "lng": 112.74766,
        "site_brand": "BP",
        "country_code": "ID",
        "address": "Jl. Raya Gubeng No. 39 A-41 RT 003 RW 004 , Gubeng",
        "city": "Surabaya",
        "state": "Jawa Timur",
        "postcode": "60281",
        "telephone": "+62 811-1990-0606",
        "facilities": [
            "tires_pump_up",
            "toilet",
            "musholla",
            "tuku_coffee",
            "alfamart",
            "fresh_pastry",
            "bike_friendly"
        ],
        "products": [
            "regular_diesel",
            "regular_92",
            "ultimate"
        ],
        "website": null,
        "watchlist_id": null,
        "formatted_address": "Jl. Raya Gubeng No. 39 A-41 RT 003 RW 004 , Gubeng\n60281\nSurabaya",
        "channel_of_trade": null
    },
    {
        "id": "ID-JI002",
        "name": "SPBU bp Kertajaya Indah",
        "lat": -7.280535,
        "lng": 112.784159,
        "site_brand": "BP",
        "country_code": "ID",
        "address": "Jl. Raya Kertajaya No. 132 (Blok S 301 \u2013 S 303), Surabaya",
        "city": "Surabaya",
        "state": "Jawa Timur",
        "postcode": "60116",
        "telephone": "+62 811-1990-0606",
        "facilities": [
            "tires_pump_up",
            "toilet",
            "musholla",
            "kopi_kenangan",
            "alfamart",
            "bike_friendly"
        ],
        "products": [
            "regular_diesel",
            "regular_92",
            "ultimate"
        ],
        "website": null,
        "watchlist_id": null,
        "formatted_address": "Jl. Raya Kertajaya No. 132 (Blok S 301 \u2013 S 303), Surabaya\n60116\nSurabaya",
        "channel_of_trade": null
    },
    {
        "id": "ID-JI003",
        "name": "SPBU bp Margorejo Indah",
        "lat": -7.317867,
        "lng": 112.743352,
        "site_brand": "BP",
        "country_code": "ID",
        "address": "Jl. Margorejo Indah No. 327, Kelurahan Margorejo, Kecamatan Wonocolo, Surabaya, Jawa Timur.",
        "city": "Surabaya",
        "state": "Jawa Timur",
        "postcode": "60238",
        "telephone": "+62 811-1990-0606",
        "facilities": [
            "tires_pump_up",
            "toilet",
            "musholla",
            "kopi_kenangan",
            "alfamart",
            "bike_friendly"
        ],
        "products": [
            "regular_diesel",
            "regular_92",
            "ultimate"
        ],
        "website": null,
        "watchlist_id": null,
        "formatted_address": "Jl. Margorejo Indah No. 327, Kelurahan Margorejo, Kecamatan Wonocolo, Surabaya, Jawa Timur.\n60238\nSurabaya",
        "channel_of_trade": null
    },
    {
        "id": "ID-JI004",
        "name": "SPBU bp Soekarno Hatta",
        "lat": -7.938231,
        "lng": 112.628466,
        "site_brand": "BP",
        "country_code": "ID",
        "address": "Jl Soekarno Hatta No. 78 B RT. 001 RW. 014, Kel. Mojolangu, Kec. Lowokwaru, Malang, Jawa Timur",
        "city": "Kota Malang",
        "state": "Jawa Timur",
        "postcode": "65142",
        "telephone": "+62 811-1990-0606",
        "facilities": [
            "tires_pump_up",
            "toilet",
            "musholla",
            "bike_friendly"
        ],
        "products": [
            "regular_diesel",
            "regular_92",
            "ultimate"
        ],
        "website": null,
        "watchlist_id": null,
        "formatted_address": "Jl Soekarno Hatta No. 78 B RT. 001 RW. 014, Kel. Mojolangu, Kec. Lowokwaru, Malang, Jawa Timur\n65142\nKota Malang",
        "channel_of_trade": null
    },
    {
        "id": "ID-JI005",
        "name": "SPBU bp Raya Nginden",
        "lat": -7.303416,
        "lng": 112.761905,
        "site_brand": "BP",
        "country_code": "ID",
        "address": "Jl. Raya Nginden No 68, Kel Baratajaya, Kec Gubeng, Surabaya",
        "city": "Kota Surabaya",
        "state": "Jawa Timur",
        "postcode": "60284",
        "telephone": "+62 811-1990-0606",
        "facilities": [
            "tires_pump_up",
            "toilet",
            "musholla",
            "bike_friendly"
        ],
        "products": [
            "regular_diesel",
            "regular_92",
            "ultimate"
        ],
        "website": null,
        "watchlist_id": null,
        "formatted_address": "Jl. Raya Nginden No 68, Kel Baratajaya, Kec Gubeng, Surabaya\n60284\nKota Surabaya",
        "channel_of_trade": null
    },
    {
        "id": "ID-JI006",
        "name": "SPBU bp Rest Area KM 819A",
        "lat": -7.748159,
        "lng": 113.071184,
        "site_brand": "BP",
        "country_code": "ID",
        "address": "Rest Area KM 819A Tol Pasuruan-Probolinggo, Pilang Kacir, Tanjungrejo, Tongas, Probolinggo, Jawa Timur",
        "city": "Kota Surabaya",
        "state": "Jawa Timur",
        "postcode": "60252",
        "telephone": "+62 811-1990-0606",
        "facilities": [
            "toilet",
            "musholla",
            "alfamart",
            "truck_suitable_site",
            "truck_parking",
            "bike_friendly"
        ],
        "products": [
            "regular_diesel",
            "regular_92"
        ],
        "website": null,
        "watchlist_id": null,
        "formatted_address": "Rest Area KM 819A Tol Pasuruan-Probolinggo, Pilang Kacir, Tanjungrejo, Tongas, Probolinggo, Jawa Timur\n60252\nKota Surabaya",
        "channel_of_trade": null
    },
    {
        "id": "ID-JI007",
        "name": "SPBU bp Pemuda",
        "lat": -7.265525,
        "lng": 112.747245,
        "site_brand": "BP",
        "country_code": "ID",
        "address": "Jl. Pemuda No. 72 RT 001 RW 003 Kelurahan Embong Kaliasin, Kecamatan Genteng, Surabaya, Jawa Timur.",
        "city": "Surabaya",
        "state": "Jawa Timur",
        "postcode": "60271",
        "telephone": "+62 811-1990-0606",
        "facilities": [
            "tires_pump_up",
            "toilet",
            "musholla",
            "kopi_kenangan",
            "alfamart",
            "bike_friendly"
        ],
        "products": [
            "regular_diesel",
            "regular_92",
            "ultimate"
        ],
        "website": null,
        "watchlist_id": null,
        "formatted_address": "Jl. Pemuda No. 72 RT 001 RW 003 Kelurahan Embong Kaliasin, Kecamatan Genteng, Surabaya, Jawa Timur.\n60271\nSurabaya",
        "channel_of_trade": null
    },
    {
        "id": "ID-JI008",
        "name": "SPBU bp Rest Area KM 833B",
        "lat": -7.809445,
        "lng": 113.171747,
        "site_brand": "BP",
        "country_code": "ID",
        "address": "Rest Area Km 833b Tol Pasuruan-Probolinggo Aum Kerep, Pohsangit Leres, Kec. Sumberasih, Probolinggo, Jawa Timur",
        "city": "Kabupaten Probolinggo",
        "state": "Jawa Timur",
        "postcode": "67251",
        "telephone": "+62 811-1990-0606",
        "facilities": [
            "toilet",
            "musholla",
            "alfamart",
            "truck_suitable_site",
            "truck_parking",
            "bike_friendly"
        ],
        "products": [
            "regular_diesel",
            "regular_92"
        ],
        "website": null,
        "watchlist_id": null,
        "formatted_address": "Rest Area Km 833b Tol Pasuruan-Probolinggo Aum Kerep, Pohsangit Leres, Kec. Sumberasih, Probolinggo, Jawa Timur\n67251\nKabupaten Probolinggo",
        "channel_of_trade": null
    },
    {
        "id": "ID-JI009",
        "name": "SPBU bp Merr Rungkut",
        "lat": -7.316285,
        "lng": 112.780506,
        "site_brand": "BP",
        "country_code": "ID",
        "address": "JL Dr. Ir. H. Soekarno No 340 Kel. Kedung Baruk, Kec. Rungkut Surabaya",
        "city": "Kota Surabaya",
        "state": "Jawa Timur",
        "postcode": "60298",
        "telephone": "+62 811-1990-0606",
        "facilities": [
            "tires_pump_up",
            "toilet",
            "musholla",
            "tuku_coffee",
            "alfamart",
            "fresh_pastry",
            "shop",
            "bike_friendly"
        ],
        "products": [
            "regular_diesel",
            "regular_92",
            "ultimate"
        ],
        "website": null,
        "watchlist_id": null,
        "formatted_address": "JL Dr. Ir. H. Soekarno No 340 Kel. Kedung Baruk, Kec. Rungkut Surabaya\n60298\nKota Surabaya",
        "channel_of_trade": null
    },
    {
        "id": "ID-JI010",
        "name": "SPBU bp Panglima Sudirman",
        "lat": -7.968151,
        "lng": 112.638499,
        "site_brand": "BP",
        "country_code": "ID",
        "address": "Jl Panglima Sudirman No 1, Kel. Kesatrian, Kec. Blimbing, Kota Malang, Jawa Timur",
        "city": "Kota Malang",
        "state": "Jawa Timur",
        "postcode": "65121",
        "telephone": "+62 811-1990-0606",
        "facilities": [
            "tires_pump_up",
            "toilet",
            "musholla",
            "alfamart",
            "bike_friendly"
        ],
        "products": [
            "regular_diesel",
            "regular_92"
        ],
        "website": null,
        "watchlist_id": null,
        "formatted_address": "Jl Panglima Sudirman No 1, Kel. Kesatrian, Kec. Blimbing, Kota Malang, Jawa Timur\n65121\nKota Malang",
        "channel_of_trade": null
    },
    {
        "id": "ID-JI011",
        "name": "bp Tridharma Gresik",
        "lat": -7.161717,
        "lng": 112.632633,
        "site_brand": "BP",
        "country_code": "ID",
        "address": "Jl Tri Dharma No 3 Kel. Karangturi, Kec. Gresik, Kabupaten Gresik, Jawa Timur",
        "city": "Kabupaten Gresik",
        "state": "Jawa Timur",
        "postcode": "61121",
        "telephone": "+62 811-1990-0606",
        "facilities": [
            "tires_pump_up",
            "toilet",
            "musholla",
            "alfamart",
            "bike_friendly"
        ],
        "products": [
            "regular_diesel",
            "regular_92"
        ],
        "website": null,
        "watchlist_id": null,
        "formatted_address": "Jl Tri Dharma No 3 Kel. Karangturi, Kec. Gresik, Kabupaten Gresik, Jawa Timur\n61121\nKabupaten Gresik",
        "channel_of_trade": null
    },
    {
        "id": "ID-JI012",
        "name": "SPBU bp Batu Malang",
        "lat": -7.89452,
        "lng": 112.552529,
        "site_brand": "BP",
        "country_code": "ID",
        "address": "Jl IR Sukarno No 110 Kel. Beji, Kec. Junrejo, Kota Batu, Malang, Jawa Timur",
        "city": "Kota Malang",
        "state": "Jawa Timur",
        "postcode": "65326",
        "telephone": "+62 811-1990-0606",
        "facilities": [
            "tires_pump_up",
            "toilet",
            "musholla",
            "bike_friendly"
        ],
        "products": [
            "regular_diesel",
            "regular_92",
            "ultimate"
        ],
        "website": null,
        "watchlist_id": null,
        "formatted_address": "Jl IR Sukarno No 110 Kel. Beji, Kec. Junrejo, Kota Batu, Malang, Jawa Timur\n65326\nKota Malang",
        "channel_of_trade": null
    },
    {
        "id": "ID-JI013",
        "name": "SPBU bp Perusahaan Raya",
        "lat": -7.91352,
        "lng": 112.64526,
        "site_brand": "BP",
        "country_code": "ID",
        "address": "Jalan Raya Perusahaan, Kelurahan Tunjungtirto, Kecamatan Singosari, Kabupaten Malang, Jawa Timur",
        "city": "Kabupaten Malang",
        "state": "Jawa Timur",
        "postcode": "65153",
        "telephone": "+62 811-1990-0606",
        "facilities": [
            "tires_pump_up",
            "toilet",
            "musholla",
            "bike_friendly"
        ],
        "products": [
            "regular_diesel",
            "regular_92",
            "ultimate"
        ],
        "website": null,
        "watchlist_id": null,
        "formatted_address": "Jalan Raya Perusahaan, Kelurahan Tunjungtirto, Kecamatan Singosari, Kabupaten Malang, Jawa Timur\n65153\nKabupaten Malang",
        "channel_of_trade": null
    },
    {
        "id": "ID-JI014",
        "name": "SPBU bp HR Muhammad",
        "lat": -7.284115,
        "lng": 112.692773,
        "site_brand": "BP",
        "country_code": "ID",
        "address": "Jl. Mayjen HR. Muhammad No. 88 & Jl. Darmo Permai I/1-3, Pradahkalikendal, Dukuh Pakis, Surabaya 60226",
        "city": "Kota Surabaya",
        "state": "Jawa Timur",
        "postcode": "60226",
        "telephone": "+62 811-1990-0606",
        "facilities": [
            "tires_pump_up",
            "toilet",
            "musholla",
            "tuku_coffee",
            "alfamart",
            "bike_friendly"
        ],
        "products": [
            "regular_diesel",
            "regular_92",
            "ultimate"
        ],
        "website": null,
        "watchlist_id": null,
        "formatted_address": "Jl. Mayjen HR. Muhammad No. 88 & Jl. Darmo Permai I/1-3, Pradahkalikendal, Dukuh Pakis, Surabaya 60226\n60226\nKota Surabaya",
        "channel_of_trade": null
    },
    {
        "id": "ID-JI016",
        "name": "SPBU bp Embong Malang",
        "lat": -7.259909536,
        "lng": 112.7363781712,
        "site_brand": "BP",
        "country_code": "ID",
        "address": "Jl. Embong Malang, Kedungdoro, Kec. Tegalsari, Surabaya, Jawa Timur 60261",
        "city": "Surabaya",
        "state": "East Java",
        "postcode": "60261",
        "telephone": "+62 811-1990-0606",
        "facilities": [],
        "products": [
            "regular_diesel",
            "regular_92",
            "ultimate"
        ],
        "website": null,
        "watchlist_id": null,
        "formatted_address": "Jl. Embong Malang, Kedungdoro, Kec. Tegalsari, Surabaya, Jawa Timur 60261\n60261\nSurabaya",
        "channel_of_trade": null
    },
    {
        "id": "ID-JK001",
        "name": "SPBU bp Meruya Ilir",
        "lat": -6.198348,
        "lng": 106.760176,
        "site_brand": "BP",
        "country_code": "ID",
        "address": "Jl. Meruya Utara No. 26 RT 001 RW 005 , Kel. Meruya Utara, Kec. Kembangan, Jakarta Barat",
        "city": "Kota Jakarta Barat",
        "state": "Jakarta Barat",
        "postcode": "11510",
        "telephone": "+62 811-1990-0606",
        "facilities": [
            "tires_pump_up",
            "toilet",
            "musholla",
            "kopi_kenangan",
            "bike_friendly"
        ],
        "products": [
            "ultimate_diesel",
            "regular_92",
            "ultimate"
        ],
        "website": null,
        "watchlist_id": null,
        "formatted_address": "Jl. Meruya Utara No. 26 RT 001 RW 005 , Kel. Meruya Utara, Kec. Kembangan, Jakarta Barat\n11510\nKota Jakarta Barat",
        "channel_of_trade": null
    },
    {
        "id": "ID-JK0014",
        "name": "SPBU bp Jalan Panjang Kedoya",
        "lat": -6.1797163084,
        "lng": 106.7666618004,
        "site_brand": "BP",
        "country_code": "ID",
        "address": "Jl. Panjang 8, RT.11/RW.1, Kedoya Sel., Kec. Kb. Jeruk, Kota Jakarta Barat, Daerah Khusus Ibukota Jakarta 11520",
        "city": "Jakarta Barat",
        "state": "DKI Jakarta",
        "postcode": "11520",
        "telephone": "+62 811-1990-0606",
        "facilities": [],
        "products": [
            "ultimate_diesel",
            "regular_92",
            "ultimate"
        ],
        "website": null,
        "watchlist_id": null,
        "formatted_address": "Jl. Panjang 8, RT.11/RW.1, Kedoya Sel., Kec. Kb. Jeruk, Kota Jakarta Barat, Daerah Khusus Ibukota Jakarta 11520\n11520\nJakarta Barat",
        "channel_of_trade": null
    },
    {
        "id": "ID-JK002",
        "name": "SPBU bp Sunter Selatan",
        "lat": -6.148393,
        "lng": 106.860165,
        "site_brand": "BP",
        "country_code": "ID",
        "address": "Jl Danau Sunter Selatan No.24, RT. 001 RW. 016 Sunter Agung, Tanjung Priok, Kota Jakarta Utara, DKI Jakarta",
        "city": "Kota Jakarta Utara",
        "state": "DKI Jakarta",
        "postcode": "14350",
        "telephone": "+62 811-1990-0606",
        "facilities": [
            "tires_pump_up",
            "toilet",
            "musholla",
            "tuku_coffee",
            "alfamart",
            "fresh_pastry",
            "bike_friendly"
        ],
        "products": [
            "ultimate_diesel",
            "regular_92",
            "ultimate"
        ],
        "website": null,
        "watchlist_id": null,
        "formatted_address": "Jl Danau Sunter Selatan No.24, RT. 001 RW. 016 Sunter Agung, Tanjung Priok, Kota Jakarta Utara, DKI Jakarta\n14350\nKota Jakarta Utara",
        "channel_of_trade": null
    },
    {
        "id": "ID-JK003",
        "name": "SPBU bp Lingkar Luar Barat",
        "lat": -6.17768,
        "lng": 106.728899,
        "site_brand": "BP",
        "country_code": "ID",
        "address": "Jl Lingkar Luar Barat Outer Ring Road RT. 6 RW. 1 Kembangan Utara, Kembangan, Jakarta Barat, DKI Jakarta",
        "city": "Kota Jakarta Barat",
        "state": "DKI Jakarta",
        "postcode": "11610",
        "telephone": "+62 811-1990-0606",
        "facilities": [
            "tires_pump_up",
            "toilet",
            "musholla",
            "alfamart",
            "bike_friendly"
        ],
        "products": [
            "ultimate_diesel",
            "regular_92",
            "ultimate"
        ],
        "website": null,
        "watchlist_id": null,
        "formatted_address": "Jl Lingkar Luar Barat Outer Ring Road RT. 6 RW. 1 Kembangan Utara, Kembangan, Jakarta Barat, DKI Jakarta\n11610\nKota Jakarta Barat",
        "channel_of_trade": null
    },
    {
        "id": "ID-JK004",
        "name": "SPBU bp Pangeran Antasari",
        "lat": -6.279517,
        "lng": 106.807323,
        "site_brand": "BP",
        "country_code": "ID",
        "address": "Jl Gaharu I Terusan No. 15b RT. 003 RW. 011 Cilandak Barat, Cilandak, Kota Jakarta Selatan, DKI Jakarta",
        "city": "Kota Jakarta Selatan",
        "state": "DKI Jakarta",
        "postcode": "12430",
        "telephone": "+62 811-1990-0606",
        "facilities": [
            "tires_pump_up",
            "toilet",
            "musholla",
            "alfamart",
            "wild_bean_cafe",
            "fresh_pastry",
            "bike_friendly"
        ],
        "products": [
            "ultimate_diesel",
            "regular_92",
            "ultimate"
        ],
        "website": null,
        "watchlist_id": null,
        "formatted_address": "Jl Gaharu I Terusan No. 15b RT. 003 RW. 011 Cilandak Barat, Cilandak, Kota Jakarta Selatan, DKI Jakarta\n12430\nKota Jakarta Selatan",
        "channel_of_trade": null
    },
    {
        "id": "ID-JK005",
        "name": "SPBU bp Teuku Nyak Arief",
        "lat": -6.231187,
        "lng": 106.789573,
        "site_brand": "BP",
        "country_code": "ID",
        "address": "Jl Teuku Nyak Arief RT. 007 RW. 02 Grogol Selatan, Kebayoran Lama, Jakarta Selatan - DKI Jakarta",
        "city": "Kota Jakarta Selatan",
        "state": "DKI Jakarta",
        "postcode": "12220",
        "telephone": "+62 811-1990-0606",
        "facilities": [
            "open_24_hours",
            "tires_pump_up",
            "toilet",
            "musholla",
            "tuku_coffee",
            "alfamart",
            "fresh_pastry",
            "bike_friendly"
        ],
        "products": [
            "ultimate_diesel",
            "regular_92",
            "ultimate"
        ],
        "website": null,
        "watchlist_id": null,
        "formatted_address": "Jl Teuku Nyak Arief RT. 007 RW. 02 Grogol Selatan, Kebayoran Lama, Jakarta Selatan - DKI Jakarta\n12220\nKota Jakarta Selatan",
        "channel_of_trade": null
    },
    {
        "id": "ID-JK006",
        "name": "SPBU bp Pluit Indah",
        "lat": -6.11795,
        "lng": 106.784609,
        "site_brand": "BP",
        "country_code": "ID",
        "address": "Jl. Pluit Indah No.35 Blok A Kav. No.1 Kel. Pluit, Kec. Penjaringan, Kota Jakarta Utara, DKI Jakarta",
        "city": "Kota Jakarta Utara",
        "state": "DKI Jakarta",
        "postcode": "14450",
        "telephone": "+62 811-1990-0606",
        "facilities": [
            "tires_pump_up",
            "toilet",
            "musholla",
            "bike_friendly"
        ],
        "products": [
            "ultimate_diesel",
            "regular_92",
            "ultimate"
        ],
        "website": null,
        "watchlist_id": null,
        "formatted_address": "Jl. Pluit Indah No.35 Blok A Kav. No.1 Kel. Pluit, Kec. Penjaringan, Kota Jakarta Utara, DKI Jakarta\n14450\nKota Jakarta Utara",
        "channel_of_trade": null
    },
    {
        "id": "ID-JK007",
        "name": "SPBU bp Lenteng Agung",
        "lat": -6.320407,
        "lng": 106.836393,
        "site_brand": "BP",
        "country_code": "ID",
        "address": "Jl Lenteng Agung RT 007 RW 001 Lenteng Agung, Jagakarsa, Kota Jakarta Selatan, DKI Jakarta",
        "city": "Kota Jakarta Selatan",
        "state": "DKI Jakarta",
        "postcode": "12530",
        "telephone": "+62 811-1990-0606",
        "facilities": [
            "tires_pump_up",
            "toilet",
            "musholla",
            "tuku_coffee",
            "alfamart",
            "fresh_pastry",
            "bike_friendly"
        ],
        "products": [
            "ultimate_diesel",
            "regular_92",
            "ultimate"
        ],
        "website": null,
        "watchlist_id": null,
        "formatted_address": "Jl Lenteng Agung RT 007 RW 001 Lenteng Agung, Jagakarsa, Kota Jakarta Selatan, DKI Jakarta\n12530\nKota Jakarta Selatan",
        "channel_of_trade": null
    },
    {
        "id": "ID-JK008",
        "name": "SPBU bp Daan Mogot",
        "lat": -6.165206,
        "lng": 106.782962,
        "site_brand": "BP",
        "country_code": "ID",
        "address": "Jl Raya Daan Mogot RT 003 RW 006 Jelambar, Grogol Petamburan, Kota Jakarta Barat, DKI Jakarta",
        "city": "Kota Jakarta Barat",
        "state": "DKI Jakarta",
        "postcode": "11460",
        "telephone": "+62 811-1990-0606",
        "facilities": [
            "tires_pump_up",
            "toilet",
            "musholla",
            "alfamart",
            "bike_friendly"
        ],
        "products": [
            "ultimate_diesel",
            "regular_92",
            "ultimate"
        ],
        "website": null,
        "watchlist_id": null,
        "formatted_address": "Jl Raya Daan Mogot RT 003 RW 006 Jelambar, Grogol Petamburan, Kota Jakarta Barat, DKI Jakarta\n11460\nKota Jakarta Barat",
        "channel_of_trade": null
    },
    {
        "id": "ID-JK009",
        "name": "SPBU bp Joglo Raya",
        "lat": -6.2171033154,
        "lng": 106.7480380487,
        "site_brand": "BP",
        "country_code": "ID",
        "address": "Jl. Joglo Raya No.177 10, RT.10/RW.3, Joglo, Kec. Kembangan, Kota Jakarta Barat, 11640",
        "city": "Kota Jakarta Barat",
        "state": "DKI Jakarta",
        "postcode": "11640",
        "telephone": "+62 811-1990-0606",
        "facilities": [],
        "products": [
            "ultimate_diesel",
            "regular_92",
            "ultimate"
        ],
        "website": null,
        "watchlist_id": null,
        "formatted_address": "Jl. Joglo Raya No.177 10, RT.10/RW.3, Joglo, Kec. Kembangan, Kota Jakarta Barat, 11640\n11640\nKota Jakarta Barat",
        "channel_of_trade": null
    },
    {
        "id": "ID-JK010",
        "name": "SPBU bp TB Simatupang",
        "lat": -6.30418,
        "lng": 106.84341,
        "site_brand": "BP",
        "country_code": "ID",
        "address": "Jl. TB Simatupang No. 8 Tanjung Barat, Jagakarsa",
        "city": "Jakarta Selatan",
        "state": "DKI Jakarta",
        "postcode": "12530",
        "telephone": "+62 811-1990-0606",
        "facilities": [
            "tires_pump_up",
            "toilet",
            "musholla",
            "alfamart",
            "bike_friendly"
        ],
        "products": [
            "ultimate_diesel",
            "regular_92",
            "ultimate"
        ],
        "website": null,
        "watchlist_id": null,
        "formatted_address": "Jl. TB Simatupang No. 8 Tanjung Barat, Jagakarsa\n12530\nJakarta Selatan",
        "channel_of_trade": null
    },
    {
        "id": "ID-JK011",
        "name": "SPBU bp Minangkabau",
        "lat": -6.2127227279,
        "lng": 106.8438897893,
        "site_brand": "BP",
        "country_code": "ID",
        "address": "Jl. Minangkabau Barat, Pasar Manggis, Setiabudi, Jakarta Selatan",
        "city": "Kota Jakarta Selatan",
        "state": "DKI Jakarta",
        "postcode": "12970",
        "telephone": "+62 811-1990-0606",
        "facilities": [
            "toilet",
            "musholla"
        ],
        "products": [
            "ultimate_diesel",
            "regular_92",
            "ultimate"
        ],
        "website": null,
        "watchlist_id": null,
        "formatted_address": "Jl. Minangkabau Barat, Pasar Manggis, Setiabudi, Jakarta Selatan\n12970\nKota Jakarta Selatan",
        "channel_of_trade": null
    },
    {
        "id": "ID-JK012",
        "name": "SPBU bp Kelapa Gading",
        "lat": -6.1758379688,
        "lng": 106.8952539656,
        "site_brand": "BP",
        "country_code": "ID",
        "address": "Jl. Boulevard Raya, RT.2/RW.17, Klp. Gading Tim., Kec. Klp. Gading, Jkt Utara ",
        "city": "North Jakarta",
        "state": "DKI Jakarta",
        "postcode": "14240",
        "telephone": "+62 811-1990-0606",
        "facilities": [],
        "products": [
            "ultimate_diesel",
            "regular_92",
            "ultimate"
        ],
        "website": null,
        "watchlist_id": null,
        "formatted_address": "Jl. Boulevard Raya, RT.2/RW.17, Klp. Gading Tim., Kec. Klp. Gading, Jkt Utara \n14240\nNorth Jakarta",
        "channel_of_trade": null
    },
    {
        "id": "ID-JK015",
        "name": "SPBU bp Perdatam Pancoran",
        "lat": -6.249166,
        "lng": 106.842492,
        "site_brand": "BP",
        "country_code": "ID",
        "address": "Jl Raya Pasar Minggu, RT.1/RW.6, Pancoran, Kec. Pancoran, Kota Jakarta Selatan 12780",
        "city": "Kota Jakarta Selatan",
        "state": "DKI Jakarta",
        "postcode": "12780",
        "telephone": "+62 811-1990-0606",
        "facilities": [],
        "products": [
            "ultimate_diesel",
            "regular_92",
            "ultimate"
        ],
        "website": null,
        "watchlist_id": null,
        "formatted_address": "Jl Raya Pasar Minggu, RT.1/RW.6, Pancoran, Kec. Pancoran, Kota Jakarta Selatan 12780\n12780\nKota Jakarta Selatan",
        "channel_of_trade": null
    },
    {
        "id": "ID-JK016",
        "name": "SPBU bp Citra Palem",
        "lat": -6.124156,
        "lng": 106.705197,
        "site_brand": "BP",
        "country_code": "ID",
        "address": "Jl. Palem Raja Barat No.6, RT.5/RW.13, Pegadungan, Kec. Kalideres",
        "city": "Kota Jakarta Barat",
        "state": "DKI Jakarta",
        "postcode": "11830",
        "telephone": "+62 811-1990-0606",
        "facilities": [],
        "products": [
            "ultimate_diesel",
            "regular_92",
            "ultimate"
        ],
        "website": null,
        "watchlist_id": null,
        "formatted_address": "Jl. Palem Raja Barat No.6, RT.5/RW.13, Pegadungan, Kec. Kalideres\n11830\nKota Jakarta Barat",
        "channel_of_trade": null
    },
    {
        "id": "ID-JK017",
        "name": "SPBU bp Margasatwa Barat",
        "lat": -6.3108350035,
        "lng": 106.8152771507,
        "site_brand": "BP",
        "country_code": "ID",
        "address": "Jl. Margasatwa Bar. 8-25, RT.6/RW.6, Ragunan, Ps. Minggu, Kota Jakarta Selatan 12550",
        "city": "Kota Jakarta Selatan",
        "state": "DKI Jakarta",
        "postcode": "12550",
        "telephone": "",
        "facilities": [],
        "products": [
            "ultimate_diesel",
            "regular_92",
            "ultimate"
        ],
        "website": null,
        "watchlist_id": null,
        "formatted_address": "Jl. Margasatwa Bar. 8-25, RT.6/RW.6, Ragunan, Ps. Minggu, Kota Jakarta Selatan 12550\n12550\nKota Jakarta Selatan",
        "channel_of_trade": null
    },
    {
        "id": "ID-JK019",
        "name": "SPBU bp Karang Tengah",
        "lat": -6.30259,
        "lng": 106.78086,
        "site_brand": "BP",
        "country_code": "ID",
        "address": "Jl. Karang Tengah No.18, RT.2/RW.4, Lb. Bulus, Kec. Cilandak",
        "city": "Kota Jakarta Selatan",
        "state": "DKI Jakarta",
        "postcode": "12440",
        "telephone": "+62 811-1990-0606",
        "facilities": [],
        "products": [
            "ultimate_diesel",
            "regular_92",
            "ultimate"
        ],
        "website": null,
        "watchlist_id": null,
        "formatted_address": "Jl. Karang Tengah No.18, RT.2/RW.4, Lb. Bulus, Kec. Cilandak\n12440\nKota Jakarta Selatan",
        "channel_of_trade": null
    }
]