[{"id": "FR-1006701065", "name": "ESSO AIRE DE SAINT PRIEST", "lat": 45.697928, "lng": 4.975772, "site_brand": "BP", "country_code": "FR", "address": "AUTOROUTE A43 AIRE DE SAINT PRIEST", "city": "SAINT PRIEST", "state": null, "postcode": "69800", "telephone": "+33 4 78 90 52 01", "facilities": ["car_wash", "high_speed_pump", "truck_suitable_site", "toilet", "shop", "accepts_routex_cards", "open_saturday", "open_sunday"], "products": [], "website": null, "watchlist_id": null, "formatted_address": "AUTOROUTE A43 AIRE DE SAINT PRIEST\n69800\nSAINT PRIEST", "channel_of_trade": null}, {"id": "FR-1007808791", "name": "ESSO VILLEMOMBLE", "lat": 48.88523, "lng": 2.50493, "site_brand": "BP", "country_code": "FR", "address": "32 AV DE ROSNY", "city": "VILLEMOMBLE", "state": null, "postcode": "93250", "telephone": "+33 1 48 94 20 27", "facilities": ["car_wash", "toilet", "supermarket", "shop", "accepts_routex_cards", "open_saturday", "open_sunday"], "products": [], "website": null, "watchlist_id": null, "formatted_address": "32 AV DE ROSNY\n93250\nVILLEMOMBLE", "channel_of_trade": null}, {"id": "FR-1008612329", "name": "ESSO SCEAUX 4 CHEMINS", "lat": 48.7741555, "lng": 2.2799682, "site_brand": "BP", "country_code": "FR", "address": "77 AV EDOUARD DEPREUX", "city": "SCEAUX", "state": null, "postcode": "92330", "telephone": "+33 1 43 50 60 28", "facilities": ["car_wash", "toilet", "shop", "accepts_routex_cards", "open_saturday", "open_sunday"], "products": [], "website": null, "watchlist_id": null, "formatted_address": "77 AV EDOUARD DEPREUX\n92330\nSCEAUX", "channel_of_trade": null}, {"id": "FR-1009965596", "name": "BP AIX JUIN", "lat": 43.521518, "lng": 5.4350428, "site_brand": "BP", "country_code": "FR", "address": "1 BL MARECHAL JUIN", "city": "AIX EN PROVENCE", "state": null, "postcode": "13100", "telephone": "+33 4 42 59 38 51", "facilities": ["car_wash", "toilet", "supermarket", "shop", "accepts_routex_cards", "open_saturday", "open_sunday"], "products": [], "website": null, "watchlist_id": null, "formatted_address": "1 BL MARECHAL JUIN\n13100\nAIX EN PROVENCE", "channel_of_trade": null}, {"id": "FR-1010573794", "name": "ESSO RUEIL MALMAISON", "lat": 48.86255, "lng": 2.18316, "site_brand": "BP", "country_code": "FR", "address": "246 RTE DE LEMPEREUR", "city": "RUEIL MALMAISON", "state": null, "postcode": "92500", "telephone": "+33 1 47 08 35 37", "facilities": ["car_wash", "truck_suitable_site", "toilet", "shop", "accepts_routex_cards", "open_saturday", "open_sunday"], "products": [], "website": null, "watchlist_id": null, "formatted_address": "246 RTE DE LEMPEREUR\n92500\nRUEIL MALMAISON", "channel_of_trade": null}, {"id": "FR-1014052586", "name": "ESSO AIRE DU GRANIER", "lat": 45.52667, "lng": 5.973202, "site_brand": "BP", "country_code": "FR", "address": "AUTOROUTE A41 AIRE DU GRANIER", "city": "MYANS", "state": null, "postcode": "73800", "telephone": "+33 4 79 28 31 85", "facilities": ["high_speed_pump", "truck_suitable_site", "toilet", "motorway_site", "shop", "accepts_routex_cards", "open_saturday", "open_sunday"], "products": [], "website": null, "watchlist_id": null, "formatted_address": "AUTOROUTE A41 AIRE DU GRANIER\n73800\nMYANS", "channel_of_trade": null}, {"id": "FR-1040042084", "name": "ESSO AIRE DU JARDIN DES ARBRES", "lat": 47.851979, "lng": 2.68572, "site_brand": "BP", "country_code": "FR", "address": "AIRE DU JARDIN DES ARBRES", "city": "VARENNES CHANGY", "state": null, "postcode": "45290", "telephone": "+33 2 38 94 57 50", "facilities": ["high_speed_pump", "truck_suitable_site", "toilet", "motorway_site", "shop", "bakery_bistro", "restaurant", "accepts_routex_cards", "open_saturday", "open_sunday"], "products": [], "website": null, "watchlist_id": null, "formatted_address": "AIRE DU JARDIN DES ARBRES\n45290\nVARENNES CHANGY", "channel_of_trade": null}, {"id": "FR-1041995574", "name": "ESSO LES ULIS", "lat": 48.6764906, "lng": 2.1754808, "site_brand": "BP", "country_code": "FR", "address": "AV DES CEVENNES", "city": "LES ULIS", "state": null, "postcode": "91940", "telephone": "+33 1 69 07 68 80", "facilities": ["car_wash", "truck_suitable_site", "toilet", "shop", "accepts_routex_cards", "open_saturday", "open_sunday"], "products": [], "website": null, "watchlist_id": null, "formatted_address": "AV DES CEVENNES\n91940\nLES ULIS", "channel_of_trade": null}, {"id": "FR-1042085135", "name": "ESSO PLESSIS PATE", "lat": 48.6117488, "lng": 2.3396357, "site_brand": "BP", "country_code": "FR", "address": "CHEMIN DEPARTEMENTAL 19", "city": "LE PLESSIS PATE", "state": null, "postcode": "91220", "telephone": "+33 1 60 84 47 77", "facilities": ["car_wash", "accepts_routex_cards", "open_saturday", "open_sunday"], "products": [], "website": null, "watchlist_id": null, "formatted_address": "CHEMIN DEPARTEMENTAL 19\n91220\nLE PLESSIS PATE", "channel_of_trade": null}, {"id": "FR-1044238474", "name": "ESSO CARRRIERES SUR SEINE", "lat": 48.9039769, "lng": 2.1673326, "site_brand": "BP", "country_code": "FR", "address": "104 RTE DE CHATOU", "city": "CARRIERES SUR SEINE", "state": null, "postcode": "78420", "telephone": "+33 1 39 14 24 83", "facilities": ["car_wash", "truck_suitable_site", "accepts_routex_cards", "open_saturday", "open_sunday"], "products": [], "website": null, "watchlist_id": null, "formatted_address": "104 RTE DE CHATOU\n78420\nCARRIERES SUR SEINE", "channel_of_trade": null}, {"id": "FR-1051361749", "name": "ESSO BEAUNE SAINT JACQUES", "lat": 47.01166, "lng": 4.85038, "site_brand": "BP", "country_code": "FR", "address": "AV DU GENERAL DE GAULLE", "city": "BEAUNE", "state": null, "postcode": "21200", "telephone": "+33 3 80 22 36 08", "facilities": ["car_wash", "high_speed_pump", "truck_suitable_site", "toilet", "supermarket", "shop", "accepts_routex_cards", "open_saturday", "open_sunday"], "products": [], "website": null, "watchlist_id": null, "formatted_address": "AV DU GENERAL DE GAULLE\n21200\nBEAUNE", "channel_of_trade": null}, {"id": "FR-1052820082", "name": "ESSO VIRY RN7", "lat": 48.66333, "lng": 2.36663, "site_brand": "BP", "country_code": "FR", "address": "158 RN 7", "city": "VIRY CHATILLON", "state": null, "postcode": "91170", "telephone": "+33 1 69 44 24 34", "facilities": ["car_wash", "shop", "accepts_routex_cards", "open_saturday", "open_sunday"], "products": [], "website": null, "watchlist_id": null, "formatted_address": "158 RN 7\n91170\nVIRY CHATILLON", "channel_of_trade": null}, {"id": "FR-1056886712", "name": "ESSO PARIS PARKING DARC", "lat": 48.832475, "lng": 2.3647346, "site_brand": "BP", "country_code": "FR", "address": "85 RUE JEANNE DARC", "city": "PARIS", "state": null, "postcode": "75013", "telephone": "+33 1 45 85 30 66", "facilities": ["car_wash", "toilet", "shop", "accepts_routex_cards", "open_saturday", "open_sunday"], "products": [], "website": null, "watchlist_id": null, "formatted_address": "85 RUE JEANNE DARC\n75013\nPARIS", "channel_of_trade": null}, {"id": "FR-105962566", "name": "ESSO CLAMART GARE", "lat": 48.8117078, "lng": 2.2712168, "site_brand": "BP", "country_code": "FR", "address": "5 RUE DE VANVES", "city": "CLAMART", "state": null, "postcode": "92140", "telephone": "+33 1 47 36 39 58", "facilities": ["car_wash", "toilet", "shop", "accepts_routex_cards", "open_saturday", "open_sunday"], "products": [], "website": null, "watchlist_id": null, "formatted_address": "5 RUE DE VANVES\n92140\nCLAMART", "channel_of_trade": null}, {"id": "FR-1061538377", "name": "ESSO CONFLANS DIR ERAGNY", "lat": 48.99605, "lng": 2.08116, "site_brand": "BP", "country_code": "FR", "address": "184 RN HAUTES COUTURES", "city": "CONFLANS STE HONORINE", "state": null, "postcode": "78700", "telephone": "+33 1 39 19 57 53", "facilities": ["car_wash", "high_speed_pump", "truck_suitable_site", "toilet", "shop", "accepts_routex_cards", "open_saturday", "open_sunday"], "products": [], "website": null, "watchlist_id": null, "formatted_address": "184 RN HAUTES COUTURES\n78700\nCONFLANS STE HONORINE", "channel_of_trade": null}, {"id": "FR-1063217759", "name": "ESSO LA LONDE LES MAURES", "lat": 43.07072, "lng": 6.13184, "site_brand": "BP", "country_code": "FR", "address": "ROUTE NATIONALE 98", "city": "LA-LONDE-LES-MAURES", "state": null, "postcode": "83250", "telephone": "+33 4 94 66 50 00", "facilities": ["car_wash", "truck_suitable_site", "toilet", "shop", "accepts_routex_cards", "open_saturday", "open_sunday"], "products": [], "website": null, "watchlist_id": null, "formatted_address": "ROUTE NATIONALE 98\n83250\nLA-LONDE-LES-MAURES", "channel_of_trade": null}, {"id": "FR-1069884276", "name": "ESSO GRAND QUEVILLY", "lat": 49.4107769, "lng": 1.0279059, "site_brand": "BP", "country_code": "FR", "address": "AVENUE FRANKLIN ROOSEVELT", "city": "GRAND QUEVILLY", "state": null, "postcode": "76120", "telephone": "+33 2 35 69 59 01", "facilities": ["car_wash", "high_speed_pump", "truck_suitable_site", "toilet", "shop", "accepts_routex_cards", "open_saturday", "open_sunday"], "products": [], "website": null, "watchlist_id": null, "formatted_address": "AVENUE FRANKLIN ROOSEVELT\n76120\nGRAND QUEVILLY", "channel_of_trade": null}, {"id": "FR-107135120", "name": "ESSO AIRE DE ST GERMAIN LES CH", "lat": 48.63051, "lng": 2.487143, "site_brand": "BP", "country_code": "FR", "address": "RN 104", "city": "SAINT GERMAIN LES CORBEIL", "state": null, "postcode": "91250", "telephone": "+33 1 69 89 66 01", "facilities": ["car_wash", "high_speed_pump", "truck_suitable_site", "toilet", "motorway_site", "shop", "bakery_bistro", "accepts_routex_cards", "open_saturday", "open_sunday"], "products": [], "website": null, "watchlist_id": null, "formatted_address": "RN 104\n91250\nSAINT GERMAIN LES CORBEIL", "channel_of_trade": null}, {"id": "FR-1076854374", "name": "ESSO CHILLY MAZARIN", "lat": 48.71007, "lng": 2.29717, "site_brand": "BP", "country_code": "FR", "address": "RUE DE LONGJUMEAU RUE AMPERE", "city": "CHILLY MAZARIN", "state": null, "postcode": "91380", "telephone": "+33 1 69 30 50 75", "facilities": ["car_wash", "toilet", "shop", "accepts_routex_cards", "open_saturday", "open_sunday"], "products": [], "website": null, "watchlist_id": null, "formatted_address": "RUE DE LONGJUMEAU RUE AMPERE\n91380\nCHILLY MAZARIN", "channel_of_trade": null}, {"id": "FR-1092735990", "name": "ESSO AIRE D'ANGRES", "lat": 50.402105, "lng": 2.747754, "site_brand": "BP", "country_code": "FR", "address": "AIRE DANGRES A26", "city": "ANGRES", "state": null, "postcode": "62143", "telephone": "+33 3 21 45 20 91", "facilities": ["high_speed_pump", "truck_suitable_site", "toilet", "motorway_site", "shop", "accepts_routex_cards", "open_saturday", "open_sunday"], "products": [], "website": null, "watchlist_id": null, "formatted_address": "AIRE DANGRES A26\n62143\nANGRES", "channel_of_trade": null}, {"id": "FR-1104101099", "name": "ESSO MONTGERON", "lat": 48.6808722, "lng": 2.4931988, "site_brand": "BP", "country_code": "FR", "address": "ROUTE NATIONALE 6", "city": "MONTGERON", "state": null, "postcode": "91230", "telephone": "+33 1 69 40 55 74", "facilities": ["car_wash", "high_speed_pump", "truck_suitable_site", "toilet", "shop", "accepts_routex_cards", "open_saturday", "open_sunday"], "products": [], "website": null, "watchlist_id": null, "formatted_address": "ROUTE NATIONALE 6\n91230\nMONTGERON", "channel_of_trade": null}, {"id": "FR-1120681047", "name": "ESSO NEUILLY TERNES", "lat": 48.8819154, "lng": 2.2802339, "site_brand": "BP", "country_code": "FR", "address": "31 AVENUE DU ROULE", "city": "NEUILLY SUR SEINE", "state": null, "postcode": "92200", "telephone": "46245833", "facilities": ["toilet", "shop", "accepts_routex_cards", "open_saturday", "open_sunday"], "products": [], "website": null, "watchlist_id": null, "formatted_address": "31 AVENUE DU ROULE\n92200\nNEUILLY SUR SEINE", "channel_of_trade": null}, {"id": "FR-1128532528", "name": "ESSO CARPENTIER DEVIGNE", "lat": 49.928594, "lng": 2.1971993, "site_brand": "BP", "country_code": "FR", "address": "95 RUE PIERRE BROSSOLETTE", "city": "AILLY SUR SOMME", "state": null, "postcode": "80470", "telephone": "+33 3 22 51 80 14", "facilities": ["truck_suitable_site", "toilet", "shop", "accepts_routex_cards", "open_saturday", "open_sunday"], "products": [], "website": null, "watchlist_id": null, "formatted_address": "95 RUE PIERRE BROSSOLETTE\n80470\nAILLY SUR SOMME", "channel_of_trade": null}, {"id": "FR-116645766", "name": "ESSO AIRE DE TRANSLAY EST", "lat": 49.963201, "lng": 1.657604, "site_brand": "BP", "country_code": "FR", "address": "AUTOROUTE A 28", "city": "LE TRANSLAY", "state": null, "postcode": "80140", "telephone": "+33 3 22 28 07 48", "facilities": ["high_speed_pump", "truck_suitable_site", "toilet", "motorway_site", "shop", "restaurant", "accepts_routex_cards", "open_saturday", "open_sunday"], "products": [], "website": null, "watchlist_id": null, "formatted_address": "AUTOROUTE A 28\n80140\nLE TRANSLAY", "channel_of_trade": null}, {"id": "FR-11743268", "name": "ESSO MARTIGUES SAINTE ANNE", "lat": 43.39985, "lng": 5.06111, "site_brand": "BP", "country_code": "FR", "address": "ROND POINT SAINTE ANNE", "city": "MARTIGUES", "state": null, "postcode": "13500", "telephone": "+33 4 42 07 06 06", "facilities": ["car_wash", "truck_suitable_site", "toilet", "shop", "accepts_routex_cards", "open_saturday", "open_sunday"], "products": [], "website": null, "watchlist_id": "11743268", "formatted_address": "ROND POINT SAINTE ANNE\n13500\nMARTIGUES", "channel_of_trade": null}, {"id": "FR-1177472191", "name": "ESSO AIRE DE MARCOUSSIS FOND P", "lat": 48.638343, "lng": 2.201503, "site_brand": "BP", "country_code": "FR", "address": "F6 VOIE EXPRESS FONDS PRES", "city": "MARCOUSSIS", "state": null, "postcode": "91460", "telephone": "+33 1 69 01 44 45", "facilities": ["high_speed_pump", "truck_suitable_site", "toilet", "motorway_site", "shop", "bakery_bistro", "accepts_routex_cards", "open_saturday", "open_sunday"], "products": [], "website": null, "watchlist_id": null, "formatted_address": "F6 VOIE EXPRESS FONDS PRES\n91460\nMARCOUSSIS", "channel_of_trade": null}, {"id": "FR-1194384220", "name": "ESSO ST DENIS PVC", "lat": 48.93504, "lng": 2.36712, "site_brand": "BP", "country_code": "FR", "address": "112 AV P  VAILLANT COUTURIER", "city": "ST DENIS", "state": null, "postcode": "93200", "telephone": "+33 1 48 27 19 13", "facilities": ["car_wash", "toilet", "shop", "accepts_routex_cards", "open_saturday", "open_sunday"], "products": [], "website": null, "watchlist_id": null, "formatted_address": "112 AV P  VAILLANT COUTURIER\n93200\nST DENIS", "channel_of_trade": null}, {"id": "FR-122871929", "name": "ESSO CHATILLON SOUS BAGNEUX", "lat": 48.7968693, "lng": 2.2857576, "site_brand": "BP", "country_code": "FR", "address": "40 RUE DE FONTENAY", "city": "CHATILLON", "state": null, "postcode": "92320", "telephone": "+33 1 46 57 14 81", "facilities": ["car_wash", "toilet", "supermarket", "shop", "accepts_routex_cards", "open_saturday", "open_sunday"], "products": [], "website": null, "watchlist_id": null, "formatted_address": "40 RUE DE FONTENAY\n92320\nCHATILLON", "channel_of_trade": null}, {"id": "FR-1242349994", "name": "ESSO MORNAS VILLAGE", "lat": 44.195455, "lng": 4.732147, "site_brand": "BP", "country_code": "FR", "address": "AIRE DE MORNAS VILLAGE A7", "city": "MORNAS", "state": null, "postcode": "84550", "telephone": "+33 4 90 37 03 93", "facilities": ["accepts_routex_cards", "open_saturday", "open_sunday"], "products": [], "website": null, "watchlist_id": null, "formatted_address": "AIRE DE MORNAS VILLAGE A7\n84550\nMORNAS", "channel_of_trade": null}, {"id": "FR-1278337162", "name": "ESSO BRUNOY", "lat": 48.6943447, "lng": 2.5071582, "site_brand": "BP", "country_code": "FR", "address": "5 BD CHARLES DE GAULLE", "city": "BRUNOY", "state": null, "postcode": "91800", "telephone": "+33 1 60 46 87 75", "facilities": ["car_wash", "toilet", "shop", "accepts_routex_cards", "open_saturday", "open_sunday"], "products": [], "website": null, "watchlist_id": null, "formatted_address": "5 BD CHARLES DE GAULLE\n91800\nBRUNOY", "channel_of_trade": null}, {"id": "FR-1278357217", "name": "ESSO PUTEAUX SAINT JULIEN", "lat": 48.88266, "lng": 2.24757, "site_brand": "BP", "country_code": "FR", "address": "47 QUAI DION BOUTON", "city": "PUTEAUX", "state": null, "postcode": "92800", "telephone": "+33 1 47 73 81 44", "facilities": ["toilet", "shop", "accepts_routex_cards", "open_saturday", "open_sunday"], "products": [], "website": null, "watchlist_id": null, "formatted_address": "47 QUAI DION BOUTON\n92800\nPUTEAUX", "channel_of_trade": null}, {"id": "FR-1295216709", "name": "ESSO AUBERVILLIERS V HUGO", "lat": 48.9116711, "lng": 2.3795235, "site_brand": "BP", "country_code": "FR", "address": "126 AV VICTOR HUGO", "city": "AUBERVILLIERS", "state": null, "postcode": "93300", "telephone": "+33 1 43 52 20 50", "facilities": ["car_wash", "toilet", "shop", "accepts_routex_cards", "open_saturday", "open_sunday"], "products": [], "website": null, "watchlist_id": null, "formatted_address": "126 AV VICTOR HUGO\n93300\nAUBERVILLIERS", "channel_of_trade": null}, {"id": "FR-1296829512", "name": "ESSO CERGY L'HAUTIL", "lat": 49.03115, "lng": 2.07019, "site_brand": "BP", "country_code": "FR", "address": "ANGLE AV GROUETTES BLD L HAUTI", "city": "CERGY", "state": null, "postcode": "95000", "telephone": "+33 1 30 30 42 87", "facilities": ["car_wash", "toilet", "shop", "bakery_bistro", "accepts_routex_cards", "open_saturday", "open_sunday"], "products": [], "website": null, "watchlist_id": null, "formatted_address": "ANGLE AV GROUETTES BLD L HAUTI\n95000\nCERGY", "channel_of_trade": null}, {"id": "FR-1326412056", "name": "ESSO AMIENS SANTERRE", "lat": 49.52922, "lng": 2.19827, "site_brand": "BP", "country_code": "FR", "address": "190 CHAUSSEE JULES FERRY", "city": "AMIENS", "state": null, "postcode": "80000", "telephone": "+33 3 22 47 36 52", "facilities": ["car_wash", "toilet", "shop", "accepts_routex_cards", "open_saturday", "open_sunday"], "products": [], "website": null, "watchlist_id": null, "formatted_address": "190 CHAUSSEE JULES FERRY\n80000\nAMIENS", "channel_of_trade": null}, {"id": "FR-13271229", "name": "BP  GRENOBLE BELLEDONNE", "lat": 45.17098, "lng": 5.72479, "site_brand": "BP", "country_code": "FR", "address": "117 RUE DE STALINGRAD", "city": "GRENOBLE", "state": null, "postcode": "38100", "telephone": "+33 4 76 09 15 12", "facilities": ["shop", "accepts_routex_cards", "open_saturday", "open_sunday"], "products": [], "website": null, "watchlist_id": "13271229", "formatted_address": "117 RUE DE STALINGRAD\n38100\nGRENOBLE", "channel_of_trade": null}, {"id": "FR-1327653234", "name": "ESSO BEAUVAIS", "lat": 49.4336068, "lng": 2.0936696, "site_brand": "BP", "country_code": "FR", "address": "14 RUE DE CLERMONT", "city": "BEAUVAIS", "state": null, "postcode": "60000", "telephone": "+33 3 44 48 27 69", "facilities": ["car_wash", "toilet", "shop", "accepts_routex_cards", "open_saturday", "open_sunday"], "products": [], "website": null, "watchlist_id": null, "formatted_address": "14 RUE DE CLERMONT\n60000\nBEAUVAIS", "channel_of_trade": null}, {"id": "FR-1329975188", "name": "BP TRAPPES SNCF", "lat": 48.77992, "lng": 2.00888, "site_brand": "BP", "country_code": "FR", "address": "LA BOISSIERE   RN 10", "city": "TRAPPES", "state": null, "postcode": "78190", "telephone": "+33 1 30 51 80 26", "facilities": ["car_wash", "high_speed_pump", "truck_suitable_site", "toilet", "shop", "accepts_routex_cards", "open_saturday", "open_sunday"], "products": [], "website": null, "watchlist_id": null, "formatted_address": "LA BOISSIERE   RN 10\n78190\nTRAPPES", "channel_of_trade": null}, {"id": "FR-1340916120", "name": "ESSO ARGENTEUIL QUAI SAINT DEN", "lat": 48.9448, "lng": 2.26183, "site_brand": "BP", "country_code": "FR", "address": "RN 311 QUAI ST DENIS", "city": "ARGENTEUIL", "state": null, "postcode": "95100", "telephone": "+33 1 39 81 64 45", "facilities": ["high_speed_pump", "truck_suitable_site", "accepts_routex_cards", "open_saturday", "open_sunday"], "products": [], "website": null, "watchlist_id": null, "formatted_address": "RN 311 QUAI ST DENIS\n95100\nARGENTEUIL", "channel_of_trade": null}, {"id": "FR-1343036511", "name": "ESSO AULNAY GONESSE", "lat": 48.9448214, "lng": 2.4952638, "site_brand": "BP", "country_code": "FR", "address": "32 RUE JACQUES DUCLOS", "city": "AULNAY SOUS BOIS", "state": null, "postcode": "93600", "telephone": "+33 1 48 66 22 53", "facilities": ["car_wash", "high_speed_pump", "truck_suitable_site", "toilet", "shop", "accepts_routex_cards", "open_saturday", "open_sunday"], "products": [], "website": null, "watchlist_id": null, "formatted_address": "32 RUE JACQUES DUCLOS\n93600\nAULNAY SOUS BOIS", "channel_of_trade": null}, {"id": "FR-1343435462", "name": "ESSO ECQUEVILLY", "lat": 48.97089, "lng": 1.91941, "site_brand": "BP", "country_code": "FR", "address": "CHEMIN DEPARTEMENTAL 43", "city": "ECQUEVILLY", "state": null, "postcode": "78920", "telephone": "+33 1 34 74 05 84", "facilities": ["car_wash", "high_speed_pump", "truck_suitable_site", "toilet", "shop", "accepts_routex_cards", "open_saturday", "open_sunday"], "products": [], "website": null, "watchlist_id": null, "formatted_address": "CHEMIN DEPARTEMENTAL 43\n78920\nECQUEVILLY", "channel_of_trade": null}, {"id": "FR-1357659270", "name": "STATION BP MEUDON LA BOISSELLE", "lat": 48.7845988, "lng": 2.2347504, "site_brand": "BP", "country_code": "FR", "address": "1 AVENUE DE VILLACOUBLAY", "city": "MEUDON LA FORET", "state": null, "postcode": "92360", "telephone": "+33 1 46 30 07 18", "facilities": ["car_wash", "toilet", "supermarket", "shop", "accepts_routex_cards", "open_saturday", "open_sunday"], "products": [], "website": null, "watchlist_id": null, "formatted_address": "1 AVENUE DE VILLACOUBLAY\n92360\nMEUDON LA FORET", "channel_of_trade": null}, {"id": "FR-1379221285", "name": "BP CLUSES MALADIERE", "lat": 46.04994, "lng": 6.59631, "site_brand": "BP", "country_code": "FR", "address": "705 ROUTE DE CHAMONIX", "city": "CLUSES", "state": null, "postcode": "74300", "telephone": "+33 4 50 98 03 44", "facilities": ["high_speed_pump", "truck_suitable_site", "toilet", "shop", "accepts_routex_cards", "open_saturday", "open_sunday"], "products": [], "website": null, "watchlist_id": null, "formatted_address": "705 ROUTE DE CHAMONIX\n74300\nCLUSES", "channel_of_trade": null}, {"id": "FR-1380127642", "name": "ESSO MANOIR DU PERCHE", "lat": 48.2392202, "lng": 1.0800347, "site_brand": "BP", "country_code": "FR", "address": "AIRE DES MANOIRS DU PERCHE AUTOROUT", "city": "FRAZE", "state": null, "postcode": "28160", "telephone": "", "facilities": ["high_speed_pump", "truck_suitable_site", "toilet", "motorway_site", "shop", "accepts_routex_cards", "open_saturday", "open_sunday"], "products": [], "website": null, "watchlist_id": null, "formatted_address": "AIRE DES MANOIRS DU PERCHE AUTOROUT\n28160\nFRAZE", "channel_of_trade": null}, {"id": "FR-1388376489", "name": "ESSO AIRE DE L'ABIS", "lat": 45.525257, "lng": 5.976804, "site_brand": "BP", "country_code": "FR", "address": "AIRE DE L ABIS AUTOROUTE A 43", "city": "ST JEOIRE EN PRIEURE", "state": null, "postcode": "73190", "telephone": "", "facilities": ["high_speed_pump", "truck_suitable_site", "toilet", "motorway_site", "shop", "accepts_routex_cards", "open_saturday", "open_sunday"], "products": [], "website": null, "watchlist_id": null, "formatted_address": "AIRE DE L ABIS AUTOROUTE A 43\n73190\nST JEOIRE EN PRIEURE", "channel_of_trade": null}, {"id": "FR-1388565370", "name": "ESSO COLOMBES CHARLEBOURG", "lat": 48.9105509, "lng": 2.2347246, "site_brand": "BP", "country_code": "FR", "address": "64 BD CHARLES DE GAULLE", "city": "COLOMBES", "state": null, "postcode": "92700", "telephone": "+33 1 42 42 37 83", "facilities": ["car_wash", "toilet", "shop", "accepts_routex_cards", "open_saturday", "open_sunday"], "products": [], "website": null, "watchlist_id": null, "formatted_address": "64 BD CHARLES DE GAULLE\n92700\nCOLOMBES", "channel_of_trade": null}, {"id": "FR-1388567739", "name": "ESSO FREJUS TASSIGNY", "lat": 43.4301779, "lng": 6.7576402, "site_brand": "BP", "country_code": "FR", "address": "1239 AV  DE LATTRE DE TASSIGNY", "city": "FREJUS", "state": null, "postcode": "83600", "telephone": "+33 4 94 53 00 88", "facilities": ["car_wash", "high_speed_pump", "truck_suitable_site", "toilet", "shop", "accepts_routex_cards", "open_saturday", "open_sunday"], "products": [], "website": null, "watchlist_id": null, "formatted_address": "1239 AV  DE LATTRE DE TASSIGNY\n83600\nFREJUS", "channel_of_trade": null}, {"id": "FR-1392525703", "name": "ESSO AIRE DE VILLEVAUDE", "lat": 48.904522, "lng": 2.645098, "site_brand": "BP", "country_code": "FR", "address": "AIRE DE VILLEVAUDE AUTOROUTE A 104", "city": "VILLEVAUDE", "state": null, "postcode": "77410", "telephone": "+33 1 60 26 79 85", "facilities": ["car_wash", "high_speed_pump", "truck_suitable_site", "toilet", "motorway_site", "shop", "bakery_bistro", "accepts_routex_cards", "open_saturday", "open_sunday"], "products": [], "website": null, "watchlist_id": null, "formatted_address": "AIRE DE VILLEVAUDE AUTOROUTE A 104\n77410\nVILLEVAUDE", "channel_of_trade": null}, {"id": "FR-1407502877", "name": "ESSO ST PRIEST", "lat": 45.68356, "lng": 4.95339, "site_brand": "BP", "country_code": "FR", "address": "119 RTE DHEYRIEUX", "city": "ST PRIEST", "state": null, "postcode": "69800", "telephone": "+33 4 78 21 96 22", "facilities": ["car_wash", "high_speed_pump", "truck_suitable_site", "shop", "accepts_routex_cards", "open_saturday", "open_sunday"], "products": [], "website": null, "watchlist_id": null, "formatted_address": "119 RTE DHEYRIEUX\n69800\nST PRIEST", "channel_of_trade": null}, {"id": "FR-1445780501", "name": "ESSO CAGNES PENETRANTE", "lat": 43.6700883, "lng": 7.1251278, "site_brand": "BP", "country_code": "FR", "address": "5 AVENUE CHEIRON", "city": "CAGNES SUR MER", "state": null, "postcode": "06800", "telephone": "+33 4 93 22 07 33", "facilities": ["car_wash", "toilet", "shop", "accepts_routex_cards", "open_saturday", "open_sunday"], "products": [], "website": null, "watchlist_id": null, "formatted_address": "5 AVENUE CHEIRON\n06800\nCAGNES SUR MER", "channel_of_trade": null}, {"id": "FR-1447412182", "name": "ESSO AMIENS LONGPRE", "lat": 49.55615, "lng": 2.17331, "site_brand": "BP", "country_code": "FR", "address": "7 AVENUE R DUMOULIN", "city": "AMIENS  2", "state": null, "postcode": "80046", "telephone": "+33 3 22 52 01 04", "facilities": ["car_wash", "high_speed_pump", "truck_suitable_site", "toilet", "shop", "accepts_routex_cards", "open_saturday", "open_sunday"], "products": [], "website": null, "watchlist_id": null, "formatted_address": "7 AVENUE R DUMOULIN\n80046\nAMIENS  2", "channel_of_trade": null}, {"id": "FR-145478142", "name": "ESSO SENLIS FOCH", "lat": 49.2064996, "lng": 2.58959, "site_brand": "BP", "country_code": "FR", "address": "510 AVENUE MARECHAL FOCH", "city": "SENLIS", "state": null, "postcode": "60300", "telephone": "+33 3 44 32 30 30", "facilities": ["car_wash", "toilet", "shop", "accepts_routex_cards", "open_saturday", "open_sunday"], "products": [], "website": null, "watchlist_id": null, "formatted_address": "510 AVENUE MARECHAL FOCH\n60300\nSENLIS", "channel_of_trade": null}, {"id": "FR-1480516786", "name": "ESSO PARIS LECOURBE", "lat": 48.8391276, "lng": 2.292061, "site_brand": "BP", "country_code": "FR", "address": "151 RUE DE LA CONVENTION", "city": "PARIS", "state": null, "postcode": "75015", "telephone": "+33 1 48 28 12 62", "facilities": ["car_wash", "truck_suitable_site", "toilet", "shop", "accepts_routex_cards", "open_saturday", "open_sunday"], "products": [], "website": null, "watchlist_id": null, "formatted_address": "151 RUE DE LA CONVENTION\n75015\nPARIS", "channel_of_trade": null}, {"id": "FR-1486943280", "name": "ESSO GARCHES PORTE JAUNE", "lat": 48.84262, "lng": 2.18464, "site_brand": "BP", "country_code": "FR", "address": "173 179 RUE DE LA PORTE JAUNE", "city": "GARCHES", "state": null, "postcode": "92380", "telephone": "+33 1 47 01 10 15", "facilities": ["car_wash", "high_speed_pump", "truck_suitable_site", "toilet", "shop", "accepts_routex_cards", "open_saturday", "open_sunday"], "products": [], "website": null, "watchlist_id": null, "formatted_address": "173 179 RUE DE LA PORTE JAUNE\n92380\nGARCHES", "channel_of_trade": null}, {"id": "FR-1494273742", "name": "ESSO SEVRAN LECLERC", "lat": 48.9390636, "lng": 2.5264652, "site_brand": "BP", "country_code": "FR", "address": "29 AV DU GENERAL LECLERC", "city": "SEVRAN", "state": null, "postcode": "93270", "telephone": "+33 1 43 85 31 05", "facilities": ["car_wash", "toilet", "shop", "accepts_routex_cards", "open_saturday", "open_sunday"], "products": [], "website": null, "watchlist_id": null, "formatted_address": "29 AV DU GENERAL LECLERC\n93270\nSEVRAN", "channel_of_trade": null}, {"id": "FR-1496070146", "name": "ESSO ERAGNY LES BELLEVUES", "lat": 49.02609, "lng": 2.10417, "site_brand": "BP", "country_code": "FR", "address": "RN 184 BP 80295", "city": "CERGY PONTOISE", "state": null, "postcode": "95618", "telephone": "+33 1 34 48 84 14", "facilities": ["car_wash", "high_speed_pump", "truck_suitable_site", "toilet", "shop", "accepts_routex_cards", "open_saturday", "open_sunday"], "products": [], "website": null, "watchlist_id": null, "formatted_address": "RN 184 BP 80295\n95618\nCERGY PONTOISE", "channel_of_trade": null}, {"id": "FR-1496417714", "name": "ESSO NIMES PROVENCE", "lat": 43.8406333, "lng": 4.3723159, "site_brand": "BP", "country_code": "FR", "address": "89 RUE PIERRE SEMARD", "city": "NIMES", "state": null, "postcode": "30000", "telephone": "+33 4 66 67 24 46", "facilities": ["car_wash", "toilet", "supermarket", "shop", "accepts_routex_cards", "open_saturday", "open_sunday"], "products": [], "website": null, "watchlist_id": null, "formatted_address": "89 RUE PIERRE SEMARD\n30000\nNIMES", "channel_of_trade": null}, {"id": "FR-1497100700", "name": "ESSO VILLIERS SUR MARNE", "lat": 48.8327141, "lng": 2.5456427, "site_brand": "BP", "country_code": "FR", "address": "75 RUE DE NOISY", "city": "VILLIERS SUR MARNE", "state": null, "postcode": "94350", "telephone": "+33 1 49 30 58 25", "facilities": ["car_wash", "toilet", "supermarket", "shop", "accepts_routex_cards", "open_saturday", "open_sunday"], "products": [], "website": null, "watchlist_id": null, "formatted_address": "75 RUE DE NOISY\n94350\nVILLIERS SUR MARNE", "channel_of_trade": null}, {"id": "FR-1506751082", "name": "ESSO CHAMPIGNY", "lat": 48.823227, "lng": 2.4948737, "site_brand": "BP", "country_code": "FR", "address": "97 AV GLE DE GAULLE", "city": "CHAMPIGNY SUR MARNE", "state": null, "postcode": "94500", "telephone": "+33 1 47 06 19 79", "facilities": ["car_wash", "high_speed_pump", "truck_suitable_site", "toilet", "supermarket", "shop", "accepts_routex_cards", "open_saturday", "open_sunday"], "products": [], "website": null, "watchlist_id": null, "formatted_address": "97 AV GLE DE GAULLE\n94500\nCHAMPIGNY SUR MARNE", "channel_of_trade": null}, {"id": "FR-1544625259", "name": "BP VENELLES LES CABASSOLS", "lat": 43.59414, "lng": 5.48245, "site_brand": "BP", "country_code": "FR", "address": "2 AVENUE MAURICE PLANTIER", "city": "VENELLES", "state": null, "postcode": "13770", "telephone": "+33 4 42 54 17 31", "facilities": ["car_wash", "truck_suitable_site", "toilet", "shop", "accepts_routex_cards", "open_saturday", "open_sunday"], "products": [], "website": null, "watchlist_id": null, "formatted_address": "2 AVENUE MAURICE PLANTIER\n13770\nVENELLES", "channel_of_trade": null}, {"id": "FR-1544650292", "name": "ESSO GIF CHEVRY 2", "lat": 48.6836247, "lng": 2.1255754, "site_brand": "BP", "country_code": "FR", "address": "RTE DE GOMETZ CHEVRY 2", "city": "GIF SUR YVETTE", "state": null, "postcode": "91190", "telephone": "+33 1 60 12 16 80", "facilities": ["car_wash", "toilet", "shop", "accepts_routex_cards", "open_saturday", "open_sunday"], "products": [], "website": null, "watchlist_id": null, "formatted_address": "RTE DE GOMETZ CHEVRY 2\n91190\nGIF SUR YVETTE", "channel_of_trade": null}, {"id": "FR-1557998846", "name": "ESSO VERDUN NORD", "lat": 49.120245, "lng": 5.508983, "site_brand": "BP", "country_code": "FR", "address": "AUTOROUTE A4 AIRE DE VERDUN SAINT N", "city": "HAUDIOMONT", "state": null, "postcode": "55160", "telephone": "+33 3 29 86 89 00", "facilities": ["truck_suitable_site", "toilet", "motorway_site", "shop", "accepts_routex_cards", "open_saturday", "open_sunday"], "products": [], "website": null, "watchlist_id": null, "formatted_address": "AUTOROUTE A4 AIRE DE VERDUN SAINT N\n55160\nHAUDIOMONT", "channel_of_trade": null}, {"id": "FR-1565556245", "name": "ESSO ARCUEIL", "lat": 48.8054172, "lng": 2.3340417, "site_brand": "BP", "country_code": "FR", "address": "23/27 AV P  DOUMER", "city": "ARCUEIL", "state": null, "postcode": "94110", "telephone": "+33 1 45 47 76 52", "facilities": ["car_wash", "toilet", "shop", "accepts_routex_cards", "open_saturday", "open_sunday"], "products": [], "website": null, "watchlist_id": null, "formatted_address": "23/27 AV P  DOUMER\n94110\nARCUEIL", "channel_of_trade": null}, {"id": "FR-1568519024", "name": "ESSO AIRE DE VENOY SOLEIL LEVA", "lat": 47.789523, "lng": 3.671931, "site_brand": "BP", "country_code": "FR", "address": "AUT A6 AIRE DE VENOY SOLEIL LEVANT", "city": "VENOY", "state": null, "postcode": "89290", "telephone": "+33 3 86 94 14 39", "facilities": ["truck_suitable_site", "toilet", "motorway_site", "supermarket", "shop", "bakery_bistro", "accepts_routex_cards", "open_saturday", "open_sunday"], "products": [], "website": null, "watchlist_id": null, "formatted_address": "AUT A6 AIRE DE VENOY SOLEIL LEVANT\n89290\nVENOY", "channel_of_trade": null}, {"id": "FR-1573094563", "name": "ESSO STE FOY LES LYON", "lat": 45.75071, "lng": 4.80199, "site_brand": "BP", "country_code": "FR", "address": "37 RUE COMMANDANT CHARCOT", "city": "STE FOY LES LYON", "state": null, "postcode": "69110", "telephone": "+33 4 78 25 51 50", "facilities": ["toilet", "shop", "accepts_routex_cards", "open_saturday", "open_sunday"], "products": [], "website": null, "watchlist_id": null, "formatted_address": "37 RUE COMMANDANT CHARCOT\n69110\nSTE FOY LES LYON", "channel_of_trade": null}, {"id": "FR-1576341096", "name": "ESSO BOISSY ST LEGER", "lat": 48.7486652, "lng": 2.5089082, "site_brand": "BP", "country_code": "FR", "address": "36 AVENUE DU GENERAL LECLERC", "city": "BOISSY SAINT LEGER", "state": null, "postcode": "94470", "telephone": "+33 1 45 69 09 43", "facilities": ["car_wash", "toilet", "shop", "accepts_routex_cards", "open_saturday", "open_sunday"], "products": [], "website": null, "watchlist_id": null, "formatted_address": "36 AVENUE DU GENERAL LECLERC\n94470\nBOISSY SAINT LEGER", "channel_of_trade": null}, {"id": "FR-1588114721", "name": "ESSO LONGEVILLE", "lat": 49.1326, "lng": 6.6603, "site_brand": "BP", "country_code": "FR", "address": "AIRE DE LONGEVILLE SUD A4", "city": "LONGEVILLE LES SAINT AVOLD", "state": null, "postcode": "57740", "telephone": "", "facilities": ["high_speed_pump", "truck_suitable_site", "toilet", "motorway_site", "shop", "accepts_routex_cards", "open_saturday", "open_sunday"], "products": [], "website": null, "watchlist_id": null, "formatted_address": "AIRE DE LONGEVILLE SUD A4\n57740\nLONGEVILLE LES SAINT AVOLD", "channel_of_trade": null}, {"id": "FR-1595674896", "name": "ESSO LIVRY GARGAN", "lat": 48.9115208, "lng": 2.5187379, "site_brand": "BP", "country_code": "FR", "address": "69 AVENUE ARISTIDE BRIAND", "city": "LIVRY GARGAN", "state": null, "postcode": "93190", "telephone": "+33 1 43 81 43 51", "facilities": ["car_wash", "toilet", "accepts_routex_cards", "open_saturday", "open_sunday"], "products": [], "website": null, "watchlist_id": null, "formatted_address": "69 AVENUE ARISTIDE BRIAND\n93190\nLIVRY GARGAN", "channel_of_trade": null}, {"id": "FR-1597060569", "name": "ESSO VILLEURBANNE CHARMETTES", "lat": 45.7709, "lng": 4.86829, "site_brand": "BP", "country_code": "FR", "address": "47 COURS EMILE ZOLA", "city": "VILLEURBANNE", "state": null, "postcode": "69100", "telephone": "+33 4 78 89 66 34", "facilities": ["car_wash", "supermarket", "shop", "accepts_routex_cards", "open_saturday", "open_sunday"], "products": [], "website": null, "watchlist_id": null, "formatted_address": "47 COURS EMILE ZOLA\n69100\nVILLEURBANNE", "channel_of_trade": null}, {"id": "FR-1602805577", "name": "ESSO BRUMATH", "lat": 48.720572, "lng": 7.695998, "site_brand": "BP", "country_code": "FR", "address": "AIRE DE BRUMATH EST A4", "city": "BRUMATH", "state": null, "postcode": "67170", "telephone": "", "facilities": ["car_wash", "truck_suitable_site", "toilet", "shop", "accepts_routex_cards", "open_saturday", "open_sunday"], "products": [], "website": null, "watchlist_id": null, "formatted_address": "AIRE DE BRUMATH EST A4\n67170\nBRUMATH", "channel_of_trade": null}, {"id": "FR-160378954", "name": "ESSO AIRE DE BIEVRES CHAT BLAN", "lat": 48.76589, "lng": 2.21246, "site_brand": "BP", "country_code": "FR", "address": "ROUTE NATIONALE 118", "city": "BIEVRES", "state": null, "postcode": "91570", "telephone": "+33 1 69 35 17 91", "facilities": ["car_wash", "high_speed_pump", "truck_suitable_site", "toilet", "motorway_site", "shop", "bakery_bistro", "accepts_routex_cards", "open_saturday", "open_sunday"], "products": [], "website": null, "watchlist_id": null, "formatted_address": "ROUTE NATIONALE 118\n91570\nBIEVRES", "channel_of_trade": null}, {"id": "FR-162539301", "name": "ESSO ROCQUENCOURT", "lat": 48.83701, "lng": 2.1045, "site_brand": "BP", "country_code": "FR", "address": "ANGLE RN 307 ET 317", "city": "ROCQUENCOURT", "state": null, "postcode": "78150", "telephone": "+33 1 39 54 25 05", "facilities": ["car_wash", "high_speed_pump", "truck_suitable_site", "toilet", "shop", "accepts_routex_cards", "open_saturday", "open_sunday"], "products": [], "website": null, "watchlist_id": null, "formatted_address": "ANGLE RN 307 ET 317\n78150\nROCQUENCOURT", "channel_of_trade": null}, {"id": "FR-1626205285", "name": "ESSO VILLEPINTE PN2", "lat": 48.97469, "lng": 2.49626, "site_brand": "BP", "country_code": "FR", "address": "ZAC DE PARIS NORD II", "city": "VILLEPINTE - ROISSY CDG", "state": null, "postcode": "95940", "telephone": "+33 1 48 63 74 79", "facilities": ["car_wash", "shop", "bakery_bistro", "accepts_routex_cards", "open_saturday", "open_sunday"], "products": [], "website": null, "watchlist_id": null, "formatted_address": "ZAC DE PARIS NORD II\n95940\nVILLEPINTE - ROISSY CDG", "channel_of_trade": null}, {"id": "FR-1628352753", "name": "ESSO AIRE DE ST LEGER EST", "lat": 45.608873, "lng": -0.597108, "site_brand": "BP", "country_code": "FR", "address": "A10 AIRE CHARENTES EST", "city": "ST LEGER", "state": null, "postcode": "17800", "telephone": "+33 5 46 91 95 99", "facilities": ["high_speed_pump", "truck_suitable_site", "toilet", "motorway_site", "shop", "accepts_routex_cards", "open_saturday", "open_sunday"], "products": [], "website": null, "watchlist_id": null, "formatted_address": "A10 AIRE CHARENTES EST\n17800\nST LEGER", "channel_of_trade": null}, {"id": "FR-1643253321", "name": "ESSO BRUMATH OUEST", "lat": 48.7243038, "lng": 7.6914928, "site_brand": "BP", "country_code": "FR", "address": "AIRE DE BRUMATH OUEST A4", "city": "BRUMATH", "state": null, "postcode": "67170", "telephone": "+33 3 88 51 84 10", "facilities": ["truck_suitable_site", "toilet", "motorway_site", "shop", "accepts_routex_cards", "open_saturday", "open_sunday"], "products": [], "website": null, "watchlist_id": null, "formatted_address": "AIRE DE BRUMATH OUEST A4\n67170\nBRUMATH", "channel_of_trade": null}, {"id": "FR-1645933085", "name": "ESSO LE BLANC MESNIL PVC", "lat": 48.92788, "lng": 2.47372, "site_brand": "BP", "country_code": "FR", "address": "60 68 PAUL VAILLANT COUTURIER", "city": "LE BLANC MESNIL", "state": null, "postcode": "93150", "telephone": "+33 1 48 66 31 10", "facilities": ["car_wash", "toilet", "shop", "accepts_routex_cards", "open_saturday", "open_sunday"], "products": [], "website": null, "watchlist_id": null, "formatted_address": "60 68 PAUL VAILLANT COUTURIER\n93150\nLE BLANC MESNIL", "channel_of_trade": null}, {"id": "FR-1649197372", "name": "ESSO BOULOGNE PT DU JOUR", "lat": 48.8254741, "lng": 2.2480686, "site_brand": "BP", "country_code": "FR", "address": "263 BD JEAN JAURES", "city": "BOULOGNE BILLANCOURT", "state": null, "postcode": "92100", "telephone": "+33 1 47 61 18 32", "facilities": ["car_wash", "toilet", "shop", "accepts_routex_cards", "open_saturday", "open_sunday"], "products": [], "website": null, "watchlist_id": null, "formatted_address": "263 BD JEAN JAURES\n92100\nBOULOGNE BILLANCOURT", "channel_of_trade": null}, {"id": "FR-1649994940", "name": "ESSO FONTAINE COLETTE", "lat": 47.1657816, "lng": 0.6294232, "site_brand": "BP", "country_code": "FR", "address": "AIRE DE FONTAINE COLETTE AUTOROUTE", "city": "SAINT EPAIN", "state": null, "postcode": "37800", "telephone": "", "facilities": ["high_speed_pump", "truck_suitable_site", "toilet", "motorway_site", "shop", "accepts_routex_cards", "open_saturday", "open_sunday"], "products": [], "website": null, "watchlist_id": null, "formatted_address": "AIRE DE FONTAINE COLETTE AUTOROUTE\n37800\nSAINT EPAIN", "channel_of_trade": null}, {"id": "FR-1656217493", "name": "ESSO VIRONVAY SUD", "lat": 49.21185, "lng": 1.21768, "site_brand": "BP", "country_code": "FR", "address": "AUTOROUTE A13 AIRE DE VIRONVAY SUD", "city": "VIRONVAY", "state": null, "postcode": "27400", "telephone": "", "facilities": ["car_wash", "truck_suitable_site", "shop", "accepts_routex_cards", "open_saturday", "open_sunday"], "products": ["ad_blue_cannister", "ad_blue_pump", "auto_gas", "ad_blue"], "website": null, "watchlist_id": null, "formatted_address": "AUTOROUTE A13 AIRE DE VIRONVAY SUD\n27400\nVIRONVAY", "channel_of_trade": null}, {"id": "FR-1658900379", "name": "ESSO VILLENEUVE ASCQ", "lat": 50.6435748, "lng": 3.1443213, "site_brand": "BP", "country_code": "FR", "address": "BOULEVARD DE MONS", "city": "VILLENEUVE D'ASCQ", "state": null, "postcode": "59650", "telephone": "+33 3 20 91 64 07", "facilities": ["car_wash", "high_speed_pump", "truck_suitable_site", "toilet", "shop", "accepts_routex_cards", "open_saturday", "open_sunday"], "products": [], "website": null, "watchlist_id": null, "formatted_address": "BOULEVARD DE MONS\n59650\nVILLENEUVE D'ASCQ", "channel_of_trade": null}, {"id": "FR-1663034230", "name": "ESSO VILLEUNEUVE LA GARENNE", "lat": 48.9352933, "lng": 2.3313611, "site_brand": "BP", "country_code": "FR", "address": "37 AVENUE DE VERDUN", "city": "VILLENEUVE LA GARENNE", "state": null, "postcode": "92390", "telephone": "+33 1 47 94 33 57", "facilities": ["car_wash", "toilet", "shop", "accepts_routex_cards", "open_saturday", "open_sunday"], "products": [], "website": null, "watchlist_id": null, "formatted_address": "37 AVENUE DE VERDUN\n92390\nVILLENEUVE LA GARENNE", "channel_of_trade": null}, {"id": "FR-166761830", "name": "ESSO LE CHESNAY", "lat": 48.8240158, "lng": 2.1278321, "site_brand": "BP", "country_code": "FR", "address": "100 RUE DE VERSAILLES", "city": "LE CHESNAY", "state": null, "postcode": "78150", "telephone": "+33 1 39 54 23 06", "facilities": ["car_wash", "truck_suitable_site", "toilet", "shop", "accepts_routex_cards", "open_saturday", "open_sunday"], "products": [], "website": null, "watchlist_id": null, "formatted_address": "100 RUE DE VERSAILLES\n78150\nLE CHESNAY", "channel_of_trade": null}, {"id": "FR-166798253", "name": "ESSO CANNES VALLOMBROSA", "lat": 43.5529608, "lng": 7.0067244, "site_brand": "BP", "country_code": "FR", "address": "19 21BD VALLOMBROSA", "city": "CANNES", "state": null, "postcode": "06400", "telephone": "+33 4 93 39 52 53", "facilities": ["car_wash", "toilet", "shop", "accepts_routex_cards", "open_saturday", "open_sunday"], "products": [], "website": null, "watchlist_id": null, "formatted_address": "19 21BD VALLOMBROSA\n06400\nCANNES", "channel_of_trade": null}, {"id": "FR-1673633466", "name": "ESSO REIMS VAL DE MURIGNY", "lat": 49.2249514, "lng": 4.0254851, "site_brand": "BP", "country_code": "FR", "address": "2 RUE ARMAND BOUXIN", "city": "REIMS", "state": null, "postcode": "51100", "telephone": "+33 3 26 36 14 36", "facilities": ["car_wash", "high_speed_pump", "truck_suitable_site", "toilet", "shop", "accepts_routex_cards", "open_saturday", "open_sunday"], "products": [], "website": null, "watchlist_id": null, "formatted_address": "2 RUE ARMAND BOUXIN\n51100\nREIMS", "channel_of_trade": null}, {"id": "FR-1674646574", "name": "ESSO AMIENS HENRIVILLE", "lat": 49.523863, "lng": 2.184612, "site_brand": "BP", "country_code": "FR", "address": "RUE PIERRE ROLLIN", "city": "AMIENS", "state": null, "postcode": "80000", "telephone": "+33 3 22 47 03 01", "facilities": ["car_wash", "toilet", "shop", "accepts_routex_cards", "open_saturday", "open_sunday"], "products": [], "website": null, "watchlist_id": null, "formatted_address": "RUE PIERRE ROLLIN\n80000\nAMIENS", "channel_of_trade": null}, {"id": "FR-1716445039", "name": "ESSO VILLEURBANNE TONKIN", "lat": 45.7724205, "lng": 4.8586423, "site_brand": "BP", "country_code": "FR", "address": "87 89  BD STALINGRAD", "city": "VILLEURBANNE", "state": null, "postcode": "69100", "telephone": "+33 4 78 94 32 50", "facilities": ["car_wash", "toilet", "supermarket", "shop", "accepts_routex_cards", "open_saturday", "open_sunday"], "products": [], "website": null, "watchlist_id": null, "formatted_address": "87 89  BD STALINGRAD\n69100\nVILLEURBANNE", "channel_of_trade": null}, {"id": "FR-1741614293", "name": "ESSO LYON PONT PASTEUR", "lat": 45.73455, "lng": 4.81873, "site_brand": "BP", "country_code": "FR", "address": "84 QUAI PERRACHE", "city": "LYON", "state": null, "postcode": "69002", "telephone": "+33 4 78 42 27 27", "facilities": ["high_speed_pump", "truck_suitable_site", "toilet", "shop", "accepts_routex_cards", "open_saturday", "open_sunday"], "products": [], "website": null, "watchlist_id": null, "formatted_address": "84 QUAI PERRACHE\n69002\nLYON", "channel_of_trade": null}, {"id": "FR-1759502831", "name": "ESSO REIMS RN 44", "lat": 49.13618, "lng": 4.06513, "site_brand": "BP", "country_code": "FR", "address": "ZAC DE SAINT LEONARD   RN44", "city": "REIMS", "state": null, "postcode": "51100", "telephone": "+33 3 26 05 78 07", "facilities": ["high_speed_pump", "truck_suitable_site", "toilet", "shop", "accepts_routex_cards", "open_saturday", "open_sunday"], "products": [], "website": null, "watchlist_id": null, "formatted_address": "ZAC DE SAINT LEONARD   RN44\n51100\nREIMS", "channel_of_trade": null}, {"id": "FR-1763345768", "name": "ESSO GRENOBLE CHARTREUSE", "lat": 45.1992686, "lng": 5.7393123, "site_brand": "BP", "country_code": "FR", "address": "3 AV DU MARECHAL RANDON", "city": "GRENOBLE", "state": null, "postcode": "38000", "telephone": "+33 4 76 42 06 85", "facilities": ["car_wash", "toilet", "supermarket", "shop", "accepts_routex_cards", "open_saturday", "open_sunday"], "products": [], "website": null, "watchlist_id": null, "formatted_address": "3 AV DU MARECHAL RANDON\n38000\nGRENOBLE", "channel_of_trade": null}, {"id": "FR-1824652956", "name": "ESSO MONTREUIL A BRIAND", "lat": 48.86538, "lng": 2.45496, "site_brand": "BP", "country_code": "FR", "address": "16 AV ARISTIDE BRIAND", "city": "MONTREUIL", "state": null, "postcode": "93100", "telephone": "+33 1 42 87 20 38", "facilities": ["car_wash", "toilet", "supermarket", "shop", "accepts_routex_cards", "open_saturday", "open_sunday"], "products": [], "website": null, "watchlist_id": null, "formatted_address": "16 AV ARISTIDE BRIAND\n93100\nMONTREUIL", "channel_of_trade": null}, {"id": "FR-1829803636", "name": "ESSO RUNGIS MIN", "lat": 48.45612, "lng": 2.20087, "site_brand": "BP", "country_code": "FR", "address": "RUE DU VIADUC    FRUILEG 754", "city": "RUNGIS", "state": null, "postcode": "94594", "telephone": "+33 1 46 86 91 89", "facilities": ["car_wash", "high_speed_pump", "truck_suitable_site", "truck_wash", "toilet", "shop", "accepts_routex_cards", "open_saturday", "open_sunday"], "products": ["ad_blue_pump", "ad_blue"], "website": null, "watchlist_id": null, "formatted_address": "RUE DU VIADUC    FRUILEG 754\n94594\nRUNGIS", "channel_of_trade": null}, {"id": "FR-1866394683", "name": "ESSO TAVERNY", "lat": 49.0156061, "lng": 2.2179144, "site_brand": "BP", "country_code": "FR", "address": "AVENUE DE LA DIVISION LECLERC", "city": "TAVERNY", "state": null, "postcode": "95150", "telephone": "+33 1 30 40 14 25", "facilities": ["car_wash", "toilet", "shop", "accepts_routex_cards", "open_saturday", "open_sunday"], "products": [], "website": null, "watchlist_id": null, "formatted_address": "AVENUE DE LA DIVISION LECLERC\n95150\nTAVERNY", "channel_of_trade": null}, {"id": "FR-1880484650", "name": "ESSO MONTIGNY LES CORMEILLES", "lat": 48.9913828, "lng": 2.1817496, "site_brand": "BP", "country_code": "FR", "address": "211 BD PONTOISE", "city": "MONTIGNY LES CORMEILLES", "state": null, "postcode": "95370", "telephone": "+33 1 39 97 13 83", "facilities": ["car_wash", "high_speed_pump", "truck_suitable_site", "toilet", "shop", "bakery_bistro", "accepts_routex_cards", "open_saturday", "open_sunday"], "products": [], "website": null, "watchlist_id": null, "formatted_address": "211 BD PONTOISE\n95370\nMONTIGNY LES CORMEILLES", "channel_of_trade": null}, {"id": "FR-1881019186", "name": "ESSO AIRE DE MANISSIEUX", "lat": 45.697839, "lng": 4.978039, "site_brand": "BP", "country_code": "FR", "address": "AUTOROUTE A43 AIRE DE MANISSIEUX", "city": "SAINT PRIEST", "state": null, "postcode": "69800", "telephone": "", "facilities": ["high_speed_pump", "truck_suitable_site", "toilet", "motorway_site", "shop", "accepts_routex_cards", "open_saturday", "open_sunday"], "products": [], "website": null, "watchlist_id": null, "formatted_address": "AUTOROUTE A43 AIRE DE MANISSIEUX\n69800\nSAINT PRIEST", "channel_of_trade": null}, {"id": "FR-1900014613", "name": "ESSO MAISONS LAFITTE", "lat": 48.9449136, "lng": 2.1418412, "site_brand": "BP", "country_code": "FR", "address": "18 AV 20 DU GAL DE GAULLE", "city": "MAISONS LAFFITTE", "state": null, "postcode": "78600", "telephone": "+33 1 39 62 54 63", "facilities": ["car_wash", "truck_suitable_site", "toilet", "shop", "accepts_routex_cards", "open_saturday", "open_sunday"], "products": [], "website": null, "watchlist_id": null, "formatted_address": "18 AV 20 DU GAL DE GAULLE\n78600\nMAISONS LAFFITTE", "channel_of_trade": null}, {"id": "FR-1942344231", "name": "ESSO AIRE DE LA LOZERE", "lat": 44.87105, "lng": 3.24927, "site_brand": "BP", "country_code": "FR", "address": "A 75   ECHANGEUR 32   AIRE DE LA LO", "city": "ALBARET SAINTE MARIE", "state": null, "postcode": "48200", "telephone": "+33 4 66 31 93 00", "facilities": ["truck_suitable_site", "toilet", "motorway_site", "shop", "accepts_routex_cards", "open_saturday", "open_sunday"], "products": [], "website": null, "watchlist_id": null, "formatted_address": "A 75   ECHANGEUR 32   AIRE DE LA LO\n48200\nALBARET SAINTE MARIE", "channel_of_trade": null}, {"id": "FR-1943404085", "name": "ESSO ROSNY SUR SEINE", "lat": 48.993342, "lng": 1.632718, "site_brand": "BP", "country_code": "FR", "address": "AIRE DE ROSNY SUR SEINE - A13", "city": "ROSNY SUR SEINE", "state": null, "postcode": "78710", "telephone": "+33 1 30 42 91 64", "facilities": ["accepts_routex_cards", "open_saturday", "open_sunday"], "products": [], "website": null, "watchlist_id": null, "formatted_address": "AIRE DE ROSNY SUR SEINE - A13\n78710\nROSNY SUR SEINE", "channel_of_trade": null}, {"id": "FR-1944137298", "name": "BP ASSEVILLERS EST", "lat": 49.88884, "lng": 2.840753, "site_brand": "BP", "country_code": "FR", "address": "AUTOROUTE A1 AIRE D ASSEVILLERS", "city": "PERONNE", "state": null, "postcode": "80200", "telephone": "+33 3 22 85 20 58", "facilities": ["car_wash", "truck_suitable_site", "shop", "accepts_routex_cards", "open_saturday", "open_sunday"], "products": ["ad_blue_cannister", "ad_blue_pump", "auto_gas", "ad_blue"], "website": null, "watchlist_id": null, "formatted_address": "AUTOROUTE A1 AIRE D ASSEVILLERS\n80200\nPERONNE", "channel_of_trade": null}, {"id": "FR-1946088280", "name": "ESSO NICE FALICON", "lat": 43.7014, "lng": 7.25789, "site_brand": "BP", "country_code": "FR", "address": "BD COMTE DE FALICON", "city": "NICE", "state": null, "postcode": "06100", "telephone": "+33 4 93 51 15 70", "facilities": ["car_wash", "truck_suitable_site", "shop", "accepts_routex_cards", "open_saturday", "open_sunday"], "products": [], "website": null, "watchlist_id": null, "formatted_address": "BD COMTE DE FALICON\n06100\nNICE", "channel_of_trade": null}, {"id": "FR-1981706499", "name": "ESSO AUBERVILLIERS   ROOSEVELT", "lat": 48.9181837, "lng": 2.3789182, "site_brand": "BP", "country_code": "FR", "address": "43 AV PRESIDENT ROOSEVELT", "city": "AUBERVILLIERS", "state": null, "postcode": "93300", "telephone": "+33 1 43 52 70 65", "facilities": ["car_wash", "toilet", "shop", "accepts_routex_cards", "open_saturday", "open_sunday"], "products": [], "website": null, "watchlist_id": null, "formatted_address": "43 AV PRESIDENT ROOSEVELT\n93300\nAUBERVILLIERS", "channel_of_trade": null}, {"id": "FR-1993285427", "name": "ESSO ST QUENTIN CD 36", "lat": 48.75842, "lng": 2.04511, "site_brand": "BP", "country_code": "FR", "address": "CD 36", "city": "VOISINS LE BRETONNEUX", "state": null, "postcode": "78960", "telephone": "+33 1 30 43 20 84", "facilities": ["car_wash", "truck_suitable_site", "toilet", "shop", "accepts_routex_cards", "open_saturday", "open_sunday"], "products": [], "website": null, "watchlist_id": null, "formatted_address": "CD 36\n78960\nVOISINS LE BRETONNEUX", "channel_of_trade": null}, {"id": "FR-2011394877", "name": "ESSO NICE GAMBETTA", "lat": 43.7075246, "lng": 7.2560882, "site_brand": "BP", "country_code": "FR", "address": "123  BD GAMBETTA", "city": "NICE", "state": null, "postcode": "06000", "telephone": "+33 4 93 96 66 02", "facilities": ["car_wash", "toilet", "shop", "accepts_routex_cards", "open_saturday", "open_sunday"], "products": [], "website": null, "watchlist_id": null, "formatted_address": "123  BD GAMBETTA\n06000\nNICE", "channel_of_trade": null}, {"id": "FR-202237198", "name": "ESSO MONTREUIL NOUVELLE FRANCE", "lat": 48.86538, "lng": 2.45526, "site_brand": "BP", "country_code": "FR", "address": "151 RUE NOUVELLE FRANCE", "city": "MONTREUIL", "state": null, "postcode": "93100", "telephone": "+33 1 42 87 20 75", "facilities": ["car_wash", "toilet", "shop", "accepts_routex_cards", "open_saturday", "open_sunday"], "products": [], "website": null, "watchlist_id": null, "formatted_address": "151 RUE NOUVELLE FRANCE\n93100\nMONTREUIL", "channel_of_trade": null}, {"id": "FR-2031040697", "name": "ESSO AIRE DE TOURS LA LONGUE V", "lat": 47.475396, "lng": 0.776451, "site_brand": "BP", "country_code": "FR", "address": "AUTOROUTE A10 AIRE DE LA BRUNELLERI", "city": "MONNAIE", "state": null, "postcode": "37380", "telephone": "+33 2 47 56 14 51", "facilities": ["high_speed_pump", "truck_suitable_site", "toilet", "motorway_site", "shop", "accepts_routex_cards", "open_saturday", "open_sunday"], "products": [], "website": null, "watchlist_id": null, "formatted_address": "AUTOROUTE A10 AIRE DE LA BRUNELLERI\n37380\nMONNAIE", "channel_of_trade": null}, {"id": "FR-2031055177", "name": "ESSO WANCOURT", "lat": 50.26134, "lng": 2.864153, "site_brand": "BP", "country_code": "FR", "address": "AUTOROUTE A1 AIRE DE WANCOURT EST", "city": "WANCOURT", "state": null, "postcode": "62128", "telephone": "+33 3 21 55 22 89", "facilities": ["car_wash", "truck_suitable_site", "shop", "accepts_routex_cards", "open_saturday", "open_sunday"], "products": ["ad_blue_cannister", "ad_blue_pump", "auto_gas", "ad_blue"], "website": null, "watchlist_id": null, "formatted_address": "AUTOROUTE A1 AIRE DE WANCOURT EST\n62128\nWANCOURT", "channel_of_trade": null}, {"id": "FR-203373158", "name": "ESSO MONTROUGE A BRIAND", "lat": 48.816711, "lng": 2.3256222, "site_brand": "BP", "country_code": "FR", "address": "70 74 AV ARISTIDE BRIAND", "city": "MONTROUGE", "state": null, "postcode": "92120", "telephone": "+33 1 46 56 64 97", "facilities": ["car_wash", "toilet", "shop", "accepts_routex_cards", "open_saturday", "open_sunday"], "products": [], "website": null, "watchlist_id": null, "formatted_address": "70 74 AV ARISTIDE BRIAND\n92120\nMONTROUGE", "channel_of_trade": null}, {"id": "FR-2042545417", "name": "ESSO TRAPPES LUTHER KING", "lat": 48.77302, "lng": 1.99171, "site_brand": "BP", "country_code": "FR", "address": "1 AV MARTIN LUTHER KING", "city": "TRAPPES", "state": null, "postcode": "78190", "telephone": "+33 1 30 50 26 67", "facilities": ["car_wash", "high_speed_pump", "truck_suitable_site", "toilet", "shop", "accepts_routex_cards", "open_saturday", "open_sunday"], "products": [], "website": null, "watchlist_id": null, "formatted_address": "1 AV MARTIN LUTHER KING\n78190\nTRAPPES", "channel_of_trade": null}, {"id": "FR-206904138", "name": "ESSO LYON CROIX ROUSSE", "lat": 45.7795239, "lng": 4.8273762, "site_brand": "BP", "country_code": "FR", "address": "71 BOULEVARD DES CANUTS", "city": "LYON", "state": null, "postcode": "69004", "telephone": "+33 4 78 27 98 00", "facilities": ["car_wash", "toilet", "supermarket", "shop", "accepts_routex_cards", "open_saturday", "open_sunday"], "products": [], "website": null, "watchlist_id": null, "formatted_address": "71 BOULEVARD DES CANUTS\n69004\nLYON", "channel_of_trade": null}, {"id": "FR-20843399", "name": "ESSO PARIS GARIGLIANO", "lat": 48.8359618, "lng": 2.278864, "site_brand": "BP", "country_code": "FR", "address": "1 QUATER BOULEVARD VICTOR", "city": "PARIS", "state": null, "postcode": "75015", "telephone": "+33 1 44 26 16 22", "facilities": ["toilet", "shop", "accepts_routex_cards", "open_saturday", "open_sunday"], "products": [], "website": null, "watchlist_id": "20843399", "formatted_address": "1 QUATER BOULEVARD VICTOR\n75015\nPARIS", "channel_of_trade": null}, {"id": "FR-208847494", "name": "ESSO AIRE DE TRANSLAY OUEST", "lat": 49.965386, "lng": 1.659427, "site_brand": "BP", "country_code": "FR", "address": "AUTOROUTE A 28", "city": "LE TRANSLAY", "state": null, "postcode": "80140", "telephone": "+33 3 22 28 27 04", "facilities": ["high_speed_pump", "truck_suitable_site", "toilet", "motorway_site", "shop", "bakery_bistro", "restaurant", "accepts_routex_cards", "open_saturday", "open_sunday"], "products": [], "website": null, "watchlist_id": null, "formatted_address": "AUTOROUTE A 28\n80140\nLE TRANSLAY", "channel_of_trade": null}, {"id": "FR-2091578783", "name": "ESSO BONDY", "lat": 48.9065484, "lng": 2.4848875, "site_brand": "BP", "country_code": "FR", "address": "175 AV MAL GALLIENI", "city": "BONDY", "state": null, "postcode": "93140", "telephone": "+33 1 48 47 20 82", "facilities": ["car_wash", "toilet", "shop", "accepts_routex_cards", "open_saturday", "open_sunday"], "products": [], "website": null, "watchlist_id": null, "formatted_address": "175 AV MAL GALLIENI\n93140\nBONDY", "channel_of_trade": null}, {"id": "FR-2093870282", "name": "ESSO IVRY MAIRIE", "lat": 48.8134769, "lng": 2.3887916, "site_brand": "BP", "country_code": "FR", "address": "79 AV  GEORGES GOSNAT", "city": "IVRY SUR SEINE", "state": null, "postcode": "94200", "telephone": "+33 1 46 72 51 63", "facilities": ["car_wash", "toilet", "shop", "accepts_routex_cards", "open_saturday", "open_sunday"], "products": [], "website": null, "watchlist_id": null, "formatted_address": "79 AV  GEORGES GOSNAT\n94200\nIVRY SUR SEINE", "channel_of_trade": null}, {"id": "FR-2095027420", "name": "ESSO DE BOBIGNY PVC", "lat": 48.90731, "lng": 2.44164, "site_brand": "BP", "country_code": "FR", "address": "300 AVENUE P VAILLANT COUTURIER", "city": "BOBIGNY", "state": null, "postcode": "93000", "telephone": "+33 1 48 95 84 03", "facilities": ["car_wash", "truck_suitable_site", "toilet", "shop", "accepts_routex_cards", "open_saturday", "open_sunday"], "products": [], "website": null, "watchlist_id": null, "formatted_address": "300 AVENUE P VAILLANT COUTURIER\n93000\nBOBIGNY", "channel_of_trade": null}, {"id": "FR-2098241335", "name": "ESSO LA PAOUTE", "lat": 43.63281, "lng": 6.957609, "site_brand": "BP", "country_code": "FR", "address": "111 ROUTE DE LA PAOUTE", "city": "LE PLAN DE GRASSE", "state": null, "postcode": "06130", "telephone": "+33 4 93 77 97 66", "facilities": ["truck_suitable_site", "toilet", "motorway_site", "shop", "accepts_routex_cards", "open_saturday", "open_sunday"], "products": [], "website": null, "watchlist_id": null, "formatted_address": "111 ROUTE DE LA PAOUTE\n06130\nLE PLAN DE GRASSE", "channel_of_trade": null}, {"id": "FR-212636708", "name": "ESSO CRETEIL LE LAC", "lat": 48.7764811, "lng": 2.4410424, "site_brand": "BP", "country_code": "FR", "address": "ROUTE DE CHOISY  RN186", "city": "CRETEIL", "state": null, "postcode": "94034", "telephone": "+33 1 42 07 71 07", "facilities": ["car_wash", "high_speed_pump", "truck_suitable_site", "toilet", "shop", "accepts_routex_cards", "open_saturday", "open_sunday"], "products": [], "website": null, "watchlist_id": null, "formatted_address": "ROUTE DE CHOISY  RN186\n94034\nCRETEIL", "channel_of_trade": null}, {"id": "FR-215233173", "name": "ESSO MERY SUR OISE", "lat": 49.05321, "lng": 2.17587, "site_brand": "BP", "country_code": "FR", "address": "LIEUDIT LES 4 CHEMINS RN1", "city": "MERY SUR OISE", "state": null, "postcode": "95540", "telephone": "+33 1 34 48 14 73", "facilities": ["car_wash", "high_speed_pump", "truck_suitable_site", "accepts_routex_cards", "open_saturday", "open_sunday"], "products": [], "website": null, "watchlist_id": null, "formatted_address": "LIEUDIT LES 4 CHEMINS RN1\n95540\nMERY SUR OISE", "channel_of_trade": null}, {"id": "FR-216984662", "name": "ESSO VELIZY", "lat": 48.78163, "lng": 2.18021, "site_brand": "BP", "country_code": "FR", "address": "27 RUE LOUIS BREGUET", "city": "VELIZY VILLACOUBLAY", "state": null, "postcode": "78140", "telephone": "+33 1 39 46 14 57", "facilities": ["car_wash", "high_speed_pump", "truck_suitable_site", "shop", "accepts_routex_cards", "open_saturday", "open_sunday"], "products": [], "website": null, "watchlist_id": null, "formatted_address": "27 RUE LOUIS BREGUET\n78140\nVELIZY VILLACOUBLAY", "channel_of_trade": null}, {"id": "FR-221251156", "name": "ESSO AIRE DE TOUL DOMMARTIN", "lat": 48.65875, "lng": 5.9066, "site_brand": "BP", "country_code": "FR", "address": "AUTOROUTE A 31", "city": "DOMMARTIN LES TOUL", "state": null, "postcode": "54200", "telephone": "+33 3 83 43 19 23", "facilities": ["high_speed_pump", "truck_suitable_site", "toilet", "motorway_site", "shop", "accepts_routex_cards", "open_saturday", "open_sunday"], "products": [], "website": null, "watchlist_id": null, "formatted_address": "AUTOROUTE A 31\n54200\nDOMMARTIN LES TOUL", "channel_of_trade": null}, {"id": "FR-222498276", "name": "ESSO NANTERRE LENINE", "lat": 48.88767, "lng": 2.18693, "site_brand": "BP", "country_code": "FR", "address": "93 AV LENINE", "city": "NANTERRE", "state": null, "postcode": "92000", "telephone": "+33 1 47 24 03 41", "facilities": ["car_wash", "toilet", "shop", "accepts_routex_cards", "open_saturday", "open_sunday"], "products": [], "website": null, "watchlist_id": null, "formatted_address": "93 AV LENINE\n92000\nNANTERRE", "channel_of_trade": null}, {"id": "FR-222502773", "name": "ESSO COLOMBES VALMY", "lat": 48.9261818, "lng": 2.2530931, "site_brand": "BP", "country_code": "FR", "address": "44 50 BD DE VALMY", "city": "COLOMBES", "state": null, "postcode": "92700", "telephone": "+33 1 47 80 61 81", "facilities": ["car_wash", "toilet", "supermarket", "shop", "accepts_routex_cards", "open_saturday", "open_sunday"], "products": [], "website": null, "watchlist_id": null, "formatted_address": "44 50 BD DE VALMY\n92700\nCOLOMBES", "channel_of_trade": null}, {"id": "FR-232788200", "name": "ESSO LEVALLOIS PRESIDENT WILSO", "lat": 48.8964432, "lng": 2.286498, "site_brand": "BP", "country_code": "FR", "address": "106 RUE DU PRESIDENT WILSON", "city": "LEVALLOIS PERRET", "state": null, "postcode": "92300", "telephone": "+33 1 49 68 80 04", "facilities": ["car_wash", "toilet", "supermarket", "shop", "accepts_routex_cards", "open_saturday", "open_sunday"], "products": [], "website": null, "watchlist_id": null, "formatted_address": "106 RUE DU PRESIDENT WILSON\n92300\nLEVALLOIS PERRET", "channel_of_trade": null}, {"id": "FR-233952837", "name": "ESSO AIRE DES PLAINES BARONNES", "lat": 43.193574, "lng": 5.671468, "site_brand": "BP", "country_code": "FR", "address": "AUTOROUTE A 50", "city": "LA CIOTAT", "state": null, "postcode": "13600", "telephone": "+33 4 42 08 05 43", "facilities": ["car_wash", "high_speed_pump", "truck_suitable_site", "toilet", "motorway_site", "shop", "accepts_routex_cards", "open_saturday", "open_sunday"], "products": [], "website": null, "watchlist_id": null, "formatted_address": "AUTOROUTE A 50\n13600\nLA CIOTAT", "channel_of_trade": null}, {"id": "FR-234754983", "name": "ESSO VAL DE FONTENAY", "lat": 48.85422, "lng": 2.47357, "site_brand": "BP", "country_code": "FR", "address": "RUE PT GAL DE GAULLE", "city": "FONTENAY SOUS BOIS", "state": null, "postcode": "94120", "telephone": "+33 1 48 76 02 03", "facilities": ["car_wash", "truck_suitable_site", "toilet", "shop", "accepts_routex_cards", "open_saturday", "open_sunday"], "products": [], "website": null, "watchlist_id": null, "formatted_address": "RUE PT GAL DE GAULLE\n94120\nFONTENAY SOUS BOIS", "channel_of_trade": null}, {"id": "FR-246402766", "name": "ESSO ST OUEN L AUMONE", "lat": 49.0396278, "lng": 2.1157117, "site_brand": "BP", "country_code": "FR", "address": "52 RUE DE PARIS", "city": "SAINT OUEN L'AUMONE", "state": null, "postcode": "95310", "telephone": "+33 1 34 64 13 27", "facilities": ["car_wash", "truck_suitable_site", "toilet", "shop", "accepts_routex_cards", "open_saturday", "open_sunday"], "products": [], "website": null, "watchlist_id": null, "formatted_address": "52 RUE DE PARIS\n95310\nSAINT OUEN L'AUMONE", "channel_of_trade": null}, {"id": "FR-248590973", "name": "ESSO AIRE DE ST RAMBERT D'ALBO", "lat": 45.275683, "lng": 4.829205, "site_brand": "BP", "country_code": "FR", "address": "AUTOROUTE A7 AIRE DE SAINT RAMBERT", "city": "SAINT RAMBERT D'ALBON", "state": null, "postcode": "26140", "telephone": "+33 4 75 31 02 20", "facilities": ["high_speed_pump", "truck_suitable_site", "toilet", "motorway_site", "shop", "bakery_bistro", "accepts_routex_cards", "open_saturday", "open_sunday"], "products": [], "website": null, "watchlist_id": null, "formatted_address": "AUTOROUTE A7 AIRE DE SAINT RAMBERT\n26140\nSAINT RAMBERT D'ALBON", "channel_of_trade": null}, {"id": "FR-263901440", "name": "ESSO SAINT MARTIN", "lat": 43.59972, "lng": 6.99623, "site_brand": "BP", "country_code": "FR", "address": "1126 - 1064 AVENUE SAINT MARTIN", "city": "MOUGINS", "state": null, "postcode": "06250", "telephone": "+33 4 93 75 51 01", "facilities": ["car_wash", "high_speed_pump", "truck_suitable_site", "toilet", "shop", "accepts_routex_cards", "open_saturday", "open_sunday"], "products": [], "website": null, "watchlist_id": null, "formatted_address": "1126 - 1064 AVENUE SAINT MARTIN\n06250\nMOUGINS", "channel_of_trade": null}, {"id": "FR-265347855", "name": "ESSO VINON RAMU ET FILS", "lat": 43.7268, "lng": 5.81162, "site_brand": "BP", "country_code": "FR", "address": "204 AVENUE DE LA REPUBLIQUE", "city": "VINON SUR VERDON", "state": null, "postcode": "83560", "telephone": "+33 4 92 78 80 35", "facilities": ["truck_suitable_site", "toilet", "accepts_routex_cards", "open_saturday", "open_sunday"], "products": [], "website": null, "watchlist_id": null, "formatted_address": "204 AVENUE DE LA REPUBLIQUE\n83560\nVINON SUR VERDON", "channel_of_trade": null}, {"id": "FR-270320884", "name": "ESSO BOBIGNY J JAURES", "lat": 48.8996909, "lng": 2.4415077, "site_brand": "BP", "country_code": "FR", "address": "19 AV  JEAN JAURES", "city": "BOBIGNY", "state": null, "postcode": "93000", "telephone": "+33 1 48 10 02 84", "facilities": ["car_wash", "toilet", "supermarket", "shop", "accepts_routex_cards", "open_saturday", "open_sunday"], "products": [], "website": null, "watchlist_id": null, "formatted_address": "19 AV  JEAN JAURES\n93000\nBOBIGNY", "channel_of_trade": null}, {"id": "FR-277867546", "name": "ESSO AIRE DE MARCOUSSIS BEAUVE", "lat": 48.648371, "lng": 2.188537, "site_brand": "BP", "country_code": "FR", "address": "VOIE EXP F6 LIEUDIT BEAUVERT", "city": "MARCOUSSIS", "state": null, "postcode": "91460", "telephone": "+33 1 64 49 30 10", "facilities": ["high_speed_pump", "truck_suitable_site", "toilet", "motorway_site", "shop", "accepts_routex_cards", "open_saturday", "open_sunday"], "products": [], "website": null, "watchlist_id": null, "formatted_address": "VOIE EXP F6 LIEUDIT BEAUVERT\n91460\nMARCOUSSIS", "channel_of_trade": null}, {"id": "FR-279133951", "name": "ESSO ST ETIENNE BEAULIEU", "lat": 45.424337, "lng": 4.4111991, "site_brand": "BP", "country_code": "FR", "address": "12 BD KARL MARX", "city": "SAINT ETIENNE", "state": null, "postcode": "42100", "telephone": "+33 4 77 25 19 50", "facilities": ["car_wash", "toilet", "supermarket", "shop", "accepts_routex_cards", "open_saturday", "open_sunday"], "products": [], "website": null, "watchlist_id": null, "formatted_address": "12 BD KARL MARX\n42100\nSAINT ETIENNE", "channel_of_trade": null}, {"id": "FR-279630057", "name": "ESSO NICE ARENAS", "lat": 43.67001, "lng": 7.22052, "site_brand": "BP", "country_code": "FR", "address": "ZAC ARENAS 123 BD RENE CASSIN", "city": "NICE", "state": null, "postcode": "06200", "telephone": "+33 4 92 29 02 02", "facilities": ["car_wash", "truck_suitable_site", "toilet", "shop", "accepts_routex_cards", "open_saturday", "open_sunday"], "products": [], "website": null, "watchlist_id": null, "formatted_address": "ZAC ARENAS 123 BD RENE CASSIN\n06200\nNICE", "channel_of_trade": null}, {"id": "FR-281791812", "name": "ESSO VERDUN SUD", "lat": 49.118526, "lng": 5.508914, "site_brand": "BP", "country_code": "FR", "address": "AUTOROUTE A4 AIRE DE VERDUN SAINT N", "city": "HAUDIOMONT", "state": null, "postcode": "55160", "telephone": "+33 3 29 86 51 10", "facilities": ["truck_suitable_site", "toilet", "motorway_site", "shop", "accepts_routex_cards", "open_saturday", "open_sunday"], "products": [], "website": null, "watchlist_id": null, "formatted_address": "AUTOROUTE A4 AIRE DE VERDUN SAINT N\n55160\nHAUDIOMONT", "channel_of_trade": null}, {"id": "FR-281812063", "name": "ESSO MARSEILLE S8", "lat": 43.31633, "lng": 5.40965, "site_brand": "BP", "country_code": "FR", "address": "12 AV JEAN PAUL SARTRE", "city": "MARSEILLE", "state": null, "postcode": "13013", "telephone": "+33 4 91 06 47 89", "facilities": ["car_wash", "high_speed_pump", "truck_suitable_site", "toilet", "shop", "accepts_routex_cards", "open_saturday", "open_sunday"], "products": [], "website": null, "watchlist_id": null, "formatted_address": "12 AV JEAN PAUL SARTRE\n13013\nMARSEILLE", "channel_of_trade": null}, {"id": "FR-282169783", "name": "ESSO CHILLY MAZARIN LONGJUMEAU", "lat": 48.69945, "lng": 2.30487, "site_brand": "BP", "country_code": "FR", "address": "10 RUE PIERRE BROSSOLETTE", "city": "CHILLY-MAZARIN", "state": null, "postcode": "91380", "telephone": "+33 1 60 10 01 66", "facilities": ["car_wash", "high_speed_pump", "truck_suitable_site", "toilet", "shop", "accepts_routex_cards", "open_saturday", "open_sunday"], "products": [], "website": null, "watchlist_id": null, "formatted_address": "10 RUE PIERRE BROSSOLETTE\n91380\nCHILLY-MAZARIN", "channel_of_trade": null}, {"id": "FR-282196280", "name": "ESSO TRUCKSTOP ROYE", "lat": 49.7012234, "lng": 2.7668438, "site_brand": "BP", "country_code": "FR", "address": "CHEMIN DEPARTEMENTAL 54 E", "city": "ROYE", "state": null, "postcode": "80700", "telephone": "+33 3 22 87 18 52", "facilities": ["high_speed_pump", "truck_suitable_site", "toilet", "shop", "bakery_bistro", "accepts_routex_cards", "open_saturday", "open_sunday"], "products": [], "website": null, "watchlist_id": null, "formatted_address": "CHEMIN DEPARTEMENTAL 54 E\n80700\nROYE", "channel_of_trade": null}, {"id": "FR-282983441", "name": "ESSO JOINVILLE EUROPE", "lat": 48.8128758, "lng": 2.4665563, "site_brand": "BP", "country_code": "FR", "address": "17/19 BVD DE LEUROPE", "city": "JOINVILLE LE PONT", "state": null, "postcode": "94340", "telephone": "+33 1 48 83 86 56", "facilities": ["car_wash", "truck_suitable_site", "toilet", "shop", "accepts_routex_cards", "open_saturday", "open_sunday"], "products": [], "website": null, "watchlist_id": null, "formatted_address": "17/19 BVD DE LEUROPE\n94340\nJOINVILLE LE PONT", "channel_of_trade": null}, {"id": "FR-288611203", "name": "ESSO BOUGIVAL", "lat": 48.8570842, "lng": 2.1391533, "site_brand": "BP", "country_code": "FR", "address": "12 AV JEAN MOULIN", "city": "BOUGIVAL", "state": null, "postcode": "78380", "telephone": "+33 1 39 18 51 94", "facilities": ["car_wash", "truck_suitable_site", "toilet", "shop", "accepts_routex_cards", "open_saturday", "open_sunday"], "products": [], "website": null, "watchlist_id": null, "formatted_address": "12 AV JEAN MOULIN\n78380\nBOUGIVAL", "channel_of_trade": null}, {"id": "FR-290381602", "name": "ESSO CONFLANS DIR ST GERMAIN", "lat": 48.99523, "lng": 2.0804, "site_brand": "BP", "country_code": "FR", "address": "ROUTE NATIONALE 184   DIR ST GERMAI", "city": "CONFLANS STE HONORINE", "state": null, "postcode": "78700", "telephone": "+33 1 39 72 85 83", "facilities": ["car_wash", "high_speed_pump", "truck_suitable_site", "toilet", "shop", "accepts_routex_cards", "open_saturday", "open_sunday"], "products": [], "website": null, "watchlist_id": null, "formatted_address": "ROUTE NATIONALE 184   DIR ST GERMAI\n78700\nCONFLANS STE HONORINE", "channel_of_trade": null}, {"id": "FR-301940565", "name": "ESSO SURESNES", "lat": 48.8671485, "lng": 2.2212947, "site_brand": "BP", "country_code": "FR", "address": "138 BOULEVARD HENRI SELLIER", "city": "SURESNES", "state": null, "postcode": "92150", "telephone": "+33 1 45 06 13 18", "facilities": ["car_wash", "toilet", "shop", "accepts_routex_cards", "open_saturday", "open_sunday"], "products": [], "website": null, "watchlist_id": null, "formatted_address": "138 BOULEVARD HENRI SELLIER\n92150\nSURESNES", "channel_of_trade": null}, {"id": "FR-317649740", "name": "ESSO LEVALLOIS VICTOR HUGO", "lat": 48.8935369, "lng": 2.299548, "site_brand": "BP", "country_code": "FR", "address": "162 RUE VICTOR HUGO", "city": "LEVALLOIS PERRET", "state": null, "postcode": "92300", "telephone": "+33 1 47 39 06 97", "facilities": ["car_wash", "toilet", "supermarket", "shop", "accepts_routex_cards", "open_saturday", "open_sunday"], "products": [], "website": null, "watchlist_id": null, "formatted_address": "162 RUE VICTOR HUGO\n92300\nLEVALLOIS PERRET", "channel_of_trade": null}, {"id": "FR-317672962", "name": "ESSO AIRE DE LA CHAPONNE", "lat": 47.503003, "lng": 4.035027, "site_brand": "BP", "country_code": "FR", "address": "CIDEX 81 A MAISON DIEU", "city": "MAISON-DIEU", "state": null, "postcode": "89420", "telephone": "+33 3 86 32 13 45", "facilities": ["high_speed_pump", "truck_suitable_site", "toilet", "motorway_site", "shop", "accepts_routex_cards", "open_saturday", "open_sunday"], "products": [], "website": null, "watchlist_id": null, "formatted_address": "CIDEX 81 A MAISON DIEU\n89420\nMAISON-DIEU", "channel_of_trade": null}, {"id": "FR-319791030", "name": "ESSO MALAKOFF LAROUSSE", "lat": 48.82057, "lng": 2.3052121, "site_brand": "BP", "country_code": "FR", "address": "76 AV PIERRE LAROUSSE", "city": "MALAKOFF", "state": null, "postcode": "92240", "telephone": "+33 1 46 57 61 86", "facilities": ["car_wash", "truck_suitable_site", "toilet", "shop", "accepts_routex_cards", "open_saturday", "open_sunday"], "products": [], "website": null, "watchlist_id": null, "formatted_address": "76 AV PIERRE LAROUSSE\n92240\nMALAKOFF", "channel_of_trade": null}, {"id": "FR-322028025", "name": "ESSO AIRE DE LA FERTE", "lat": 46.694367, "lng": 4.843163, "site_brand": "BP", "country_code": "FR", "address": "AIRE DE LA FERTE AUT A6", "city": "LA FERTE SAINT AMBREUIL", "state": null, "postcode": "71240", "telephone": "+33 3 85 94 84 17", "facilities": ["truck_suitable_site", "accepts_routex_cards", "open_saturday", "open_sunday"], "products": [], "website": null, "watchlist_id": null, "formatted_address": "AIRE DE LA FERTE AUT A6\n71240\nLA FERTE SAINT AMBREUIL", "channel_of_trade": null}, {"id": "FR-322850126", "name": "ESSSO AIRE DE ST ROMAIN EN GIE", "lat": 45.570717, "lng": 4.711072, "site_brand": "BP", "country_code": "FR", "address": "AUTOROUTE A47 AIRE DE SAINT ROMAIN", "city": "GIVORS", "state": null, "postcode": "69700", "telephone": "+33 4 72 24 59 89", "facilities": ["high_speed_pump", "truck_suitable_site", "toilet", "motorway_site", "shop", "bakery_bistro", "accepts_routex_cards", "open_saturday", "open_sunday"], "products": [], "website": null, "watchlist_id": null, "formatted_address": "AUTOROUTE A47 AIRE DE SAINT ROMAIN\n69700\nGIVORS", "channel_of_trade": null}, {"id": "FR-34325272", "name": "ESSO AIRE DE DOLE ROMANGE", "lat": 47.14893, "lng": 5.582589, "site_brand": "BP", "country_code": "FR", "address": "AUTOROUTE A36 AIRE DE DOLE ROMANGE", "city": "ORCHAMPS", "state": null, "postcode": "39700", "telephone": "+33 3 84 70 69 30", "facilities": ["truck_suitable_site", "toilet", "motorway_site", "supermarket", "shop", "bakery_bistro", "accepts_routex_cards", "open_saturday", "open_sunday"], "products": [], "website": null, "watchlist_id": "34325272", "formatted_address": "AUTOROUTE A36 AIRE DE DOLE ROMANGE\n39700\nORCHAMPS", "channel_of_trade": null}, {"id": "FR-34374297", "name": "ESSO COURBEVOIE JOFFRE", "lat": 48.90183, "lng": 2.27837, "site_brand": "BP", "country_code": "FR", "address": "82 86 QUAI JOFFRE", "city": "COURBEVOIE", "state": null, "postcode": "92400", "telephone": "+33 1 43 33 79 06", "facilities": ["car_wash", "truck_suitable_site", "toilet", "shop", "accepts_routex_cards", "open_saturday", "open_sunday"], "products": [], "website": null, "watchlist_id": "34374297", "formatted_address": "82 86 QUAI JOFFRE\n92400\nCOURBEVOIE", "channel_of_trade": null}, {"id": "FR-36765461", "name": "ESSO AIRE AMBRUSSUM NORD", "lat": 43.714772, "lng": 4.133786, "site_brand": "BP", "country_code": "FR", "address": "AUTOROUTE A9 AIRE AMBRUSSUM NORD", "city": "LUNEL", "state": null, "postcode": "34440", "telephone": "+33 4 67 86 84 84", "facilities": ["high_speed_pump", "truck_suitable_site", "toilet", "motorway_site", "shop", "accepts_routex_cards", "open_saturday", "open_sunday"], "products": [], "website": null, "watchlist_id": "36765461", "formatted_address": "AUTOROUTE A9 AIRE AMBRUSSUM NORD\n34440\nLUNEL", "channel_of_trade": null}, {"id": "FR-372432470", "name": "ESSO GIF GAL LECLERC", "lat": 48.7033367, "lng": 2.1293704, "site_brand": "BP", "country_code": "FR", "address": "27 AV DU GENERAL LECLERC", "city": "GIF SUR YVETTE", "state": null, "postcode": "91190", "telephone": "+33 1 69 07 63 61", "facilities": ["car_wash", "toilet", "shop", "accepts_routex_cards", "open_saturday", "open_sunday"], "products": [], "website": null, "watchlist_id": null, "formatted_address": "27 AV DU GENERAL LECLERC\n91190\nGIF SUR YVETTE", "channel_of_trade": null}, {"id": "FR-372585299", "name": "BP  ARGENTEUIL HLM", "lat": 48.95698, "lng": 2.28388, "site_brand": "BP", "country_code": "FR", "address": "239 ROUTE DENGHIEN", "city": "ARGENTEUIL", "state": null, "postcode": "95100", "telephone": "+33 1 39 80 97 39", "facilities": ["truck_suitable_site", "shop", "accepts_routex_cards", "open_saturday", "open_sunday"], "products": [], "website": null, "watchlist_id": null, "formatted_address": "239 ROUTE DENGHIEN\n95100\nARGENTEUIL", "channel_of_trade": null}, {"id": "FR-382000646", "name": "ESSO PARIS MURAT", "lat": 48.8467775, "lng": 2.2582768, "site_brand": "BP", "country_code": "FR", "address": "7 BOULEVARD MURAT", "city": "PARIS", "state": null, "postcode": "75016", "telephone": "+33 1 40 71 00 65", "facilities": ["toilet", "shop", "accepts_routex_cards", "open_saturday", "open_sunday"], "products": [], "website": null, "watchlist_id": null, "formatted_address": "7 BOULEVARD MURAT\n75016\nPARIS", "channel_of_trade": null}, {"id": "FR-402756858", "name": "ESSO SOISY HIPPODROME", "lat": 48.9781493, "lng": 2.2916002, "site_brand": "BP", "country_code": "FR", "address": "59 BIS AVENUE KELLERMANN", "city": "SOISY S/S MONTMORENCY", "state": null, "postcode": "95230", "telephone": "+33 1 39 34 48 00", "facilities": ["car_wash", "truck_suitable_site", "toilet", "shop", "bakery_bistro", "accepts_routex_cards", "open_saturday", "open_sunday"], "products": [], "website": null, "watchlist_id": null, "formatted_address": "59 BIS AVENUE KELLERMANN\n95230\nSOISY S/S MONTMORENCY", "channel_of_trade": null}, {"id": "FR-406650729", "name": "ESSO FONTAINEBLEAU LA FOURCHE", "lat": 48.4082725, "lng": 2.6863294, "site_brand": "BP", "country_code": "FR", "address": "CARREFOUR DE LA LIBERATION", "city": "FONTAINEBLEAU", "state": null, "postcode": "77300", "telephone": "+33 1 64 22 42 82", "facilities": ["car_wash", "toilet", "shop", "accepts_routex_cards", "open_saturday", "open_sunday"], "products": [], "website": null, "watchlist_id": null, "formatted_address": "CARREFOUR DE LA LIBERATION\n77300\nFONTAINEBLEAU", "channel_of_trade": null}, {"id": "FR-406711628", "name": "BP AIRE DE BOURG TEYSONGUE", "lat": 46.20639, "lng": 5.294101, "site_brand": "BP", "country_code": "FR", "address": "AIRE DE BOURG TEYSONGUE A 40", "city": "CEYZERIAT", "state": null, "postcode": "01250", "telephone": "+33 4 74 22 80 70", "facilities": ["high_speed_pump", "truck_suitable_site", "toilet", "motorway_site", "shop", "accepts_routex_cards", "open_saturday", "open_sunday"], "products": [], "website": null, "watchlist_id": null, "formatted_address": "AIRE DE BOURG TEYSONGUE A 40\n01250\nCEYZERIAT", "channel_of_trade": null}, {"id": "FR-415080406", "name": "ESSO ST MARTIN D'HERES MURIER", "lat": 45.16866, "lng": 5.75566, "site_brand": "BP", "country_code": "FR", "address": "46 RUE DU PRE RUFFIER", "city": "SAINT MARTIN D'HERES", "state": null, "postcode": "38400", "telephone": "+33 4 76 25 23 44", "facilities": ["car_wash", "toilet", "supermarket", "shop", "accepts_routex_cards", "open_saturday", "open_sunday"], "products": [], "website": null, "watchlist_id": null, "formatted_address": "46 RUE DU PRE RUFFIER\n38400\nSAINT MARTIN D'HERES", "channel_of_trade": null}, {"id": "FR-415911204", "name": "ESSO TRUCKSTOPS MACON", "lat": 46.36492, "lng": 4.84317, "site_brand": "BP", "country_code": "FR", "address": "136 ZONE DACTIVITES", "city": "SENNECE LES MACON", "state": null, "postcode": "71000", "telephone": "+33 3 85 37 59 40", "facilities": ["high_speed_pump", "truck_suitable_site", "toilet", "shop", "bakery_bistro", "accepts_routex_cards", "open_saturday", "open_sunday"], "products": [], "website": null, "watchlist_id": null, "formatted_address": "136 ZONE DACTIVITES\n71000\nSENNECE LES MACON", "channel_of_trade": null}, {"id": "FR-419529155", "name": "ESSO VERSAILLES REPUBLIQUE", "lat": 48.80473, "lng": 2.15298, "site_brand": "BP", "country_code": "FR", "address": "60 60 BOULEVARD DE LA REPUBLIQUE", "city": "VERSAILLES", "state": null, "postcode": "78000", "telephone": "+33 1 39 50 45 02", "facilities": ["car_wash", "truck_suitable_site", "toilet", "shop", "accepts_routex_cards", "open_saturday", "open_sunday"], "products": [], "website": null, "watchlist_id": null, "formatted_address": "60 60 BOULEVARD DE LA REPUBLIQUE\n78000\nVERSAILLES", "channel_of_trade": null}, {"id": "FR-420167531", "name": "ESSO AIRE DES PORTES D ANGERS", "lat": 47.500314, "lng": -0.491146, "site_brand": "BP", "country_code": "FR", "address": "A 11 LES PORTES D ANGERS SUD", "city": "SAINT SYLVAIN D'ANJOU", "state": null, "postcode": "49480", "telephone": "+33 2 41 18 10 51", "facilities": ["high_speed_pump", "truck_suitable_site", "toilet", "motorway_site", "shop", "accepts_routex_cards", "open_saturday", "open_sunday"], "products": [], "website": null, "watchlist_id": null, "formatted_address": "A 11 LES PORTES D ANGERS SUD\n49480\nSAINT SYLVAIN D'ANJOU", "channel_of_trade": null}, {"id": "FR-423490441", "name": "ESSO VERSAILLES CLEMENT ADER", "lat": 48.791226, "lng": 2.1089943, "site_brand": "BP", "country_code": "FR", "address": "AV CLEMENT ADER", "city": "VERSAILLES", "state": null, "postcode": "78000", "telephone": "+33 1 39 02 16 16", "facilities": ["truck_suitable_site", "toilet", "shop", "accepts_routex_cards", "open_saturday", "open_sunday"], "products": [], "website": null, "watchlist_id": null, "formatted_address": "AV CLEMENT ADER\n78000\nVERSAILLES", "channel_of_trade": null}, {"id": "FR-432772455", "name": "ESSO MANDELIEU RELAIS LESTEREL", "lat": 43.53705, "lng": 6.93456, "site_brand": "BP", "country_code": "FR", "address": "ROUTE NATIONALE 7", "city": "MANDELIEU", "state": null, "postcode": "06210", "telephone": "+33 4 93 49 50 47", "facilities": ["car_wash", "toilet", "shop", "accepts_routex_cards", "open_saturday", "open_sunday"], "products": [], "website": null, "watchlist_id": null, "formatted_address": "ROUTE NATIONALE 7\n06210\nMANDELIEU", "channel_of_trade": null}, {"id": "FR-434778881", "name": "ESSO IGNY OUEST", "lat": 48.73325, "lng": 2.21306, "site_brand": "BP", "country_code": "FR", "address": "ROUTE NATIONALE 444", "city": "IGNY OUEST", "state": null, "postcode": "91430", "telephone": "+33 1 69 41 17 81", "facilities": ["car_wash", "high_speed_pump", "truck_suitable_site", "toilet", "shop", "accepts_routex_cards", "open_saturday", "open_sunday"], "products": [], "website": null, "watchlist_id": null, "formatted_address": "ROUTE NATIONALE 444\n91430\nIGNY OUEST", "channel_of_trade": null}, {"id": "FR-44838633", "name": "ESSO ST MICHEL SUR ORGE", "lat": 48.63221, "lng": 2.29728, "site_brand": "BP", "country_code": "FR", "address": "ROUTE DE LA BOELE", "city": "SAINT MICHEL SUR ORGE", "state": null, "postcode": "91240", "telephone": "+33 1 69 01 57 20", "facilities": ["car_wash", "toilet", "shop", "accepts_routex_cards", "open_saturday", "open_sunday"], "products": [], "website": null, "watchlist_id": "44838633", "formatted_address": "ROUTE DE LA BOELE\n91240\nSAINT MICHEL SUR ORGE", "channel_of_trade": null}, {"id": "FR-470716143", "name": "ESSO FREJUS ST PONS", "lat": 43.43329929, "lng": 6.728938446, "site_brand": "BP", "country_code": "FR", "address": "RD 37 QUARTIER ST PONS", "city": "FREJUS", "state": null, "postcode": "83600", "telephone": "+33 4 94 53 14 75", "facilities": ["jet_wash", "truck_suitable_site", "wifi", "supermarket", "accepts_routex_cards", "open_saturday", "open_sunday"], "products": ["ad_blue_pump", "ad_blue"], "website": null, "watchlist_id": null, "formatted_address": "RD 37 QUARTIER ST PONS\n83600\nFREJUS", "channel_of_trade": null}, {"id": "FR-473251208", "name": "ESSO ST FONS PIERRE SEMARD", "lat": 45.70979, "lng": 4.844, "site_brand": "BP", "country_code": "FR", "address": "RN 383 BRD PIERRE SEMARD", "city": "SAINT FONS", "state": null, "postcode": "69190", "telephone": "+33 4 78 69 38 20", "facilities": ["high_speed_pump", "truck_suitable_site", "toilet", "shop", "accepts_routex_cards", "open_saturday", "open_sunday"], "products": [], "website": null, "watchlist_id": null, "formatted_address": "RN 383 BRD PIERRE SEMARD\n69190\nSAINT FONS", "channel_of_trade": null}, {"id": "FR-475208705", "name": "ESSO LE PLESSIS TREVISE", "lat": 48.81044, "lng": 2.5724, "site_brand": "BP", "country_code": "FR", "address": "26 AV ARDOUIN", "city": "LE PLESSIS TREVISE", "state": null, "postcode": "94420", "telephone": "+33 1 45 76 90 94", "facilities": ["car_wash", "toilet", "shop", "accepts_routex_cards", "open_saturday", "open_sunday"], "products": [], "website": null, "watchlist_id": null, "formatted_address": "26 AV ARDOUIN\n94420\nLE PLESSIS TREVISE", "channel_of_trade": null}, {"id": "FR-482181546", "name": "ESSO DEUIL LA BARRE", "lat": 48.9681772, "lng": 2.3156465, "site_brand": "BP", "country_code": "FR", "address": "28 A 32 AV DE LA DIV LECLERC", "city": "DEUIL LA BARRE", "state": null, "postcode": "95170", "telephone": "+33 1 39 64 61 01", "facilities": ["car_wash", "toilet", "shop", "accepts_routex_cards", "open_saturday", "open_sunday"], "products": [], "website": null, "watchlist_id": null, "formatted_address": "28 A 32 AV DE LA DIV LECLERC\n95170\nDEUIL LA BARRE", "channel_of_trade": null}, {"id": "FR-482527703", "name": "ESSO ATTAINVILLE", "lat": 49.059963, "lng": 2.348328, "site_brand": "BP", "country_code": "FR", "address": "9 ROUTE DEPARTEMENTALE  104", "city": "ATTAINVILLE", "state": null, "postcode": "95570", "telephone": "+33 1 39 91 80 74", "facilities": ["high_speed_pump", "truck_suitable_site", "toilet", "motorway_site", "shop", "bakery_bistro", "accepts_routex_cards", "open_saturday", "open_sunday"], "products": [], "website": null, "watchlist_id": null, "formatted_address": "9 ROUTE DEPARTEMENTALE  104\n95570\nATTAINVILLE", "channel_of_trade": null}, {"id": "FR-48295583", "name": "ESSO ST LEU LA FORET", "lat": 49.0015086, "lng": 2.2515475, "site_brand": "BP", "country_code": "FR", "address": "BD ANDRE BREMOND", "city": "ST LEU LA FORET", "state": null, "postcode": "95320", "telephone": "+33 1 39 60 65 38", "facilities": ["car_wash", "high_speed_pump", "truck_suitable_site", "toilet", "shop", "accepts_routex_cards", "open_saturday", "open_sunday"], "products": [], "website": null, "watchlist_id": "48295583", "formatted_address": "BD ANDRE BREMOND\n95320\nST LEU LA FORET", "channel_of_trade": null}, {"id": "FR-484476711", "name": "ESSO VAUCRESSON", "lat": 48.8377104, "lng": 2.1656669, "site_brand": "BP", "country_code": "FR", "address": "BD REPUBLIQUE ZAC PEPINIERE", "city": "VAUCRESSON", "state": null, "postcode": "92420", "telephone": "+33 1 47 41 31 53", "facilities": ["car_wash", "toilet", "shop", "accepts_routex_cards", "open_saturday", "open_sunday"], "products": [], "website": null, "watchlist_id": null, "formatted_address": "BD REPUBLIQUE ZAC PEPINIERE\n92420\nVAUCRESSON", "channel_of_trade": null}, {"id": "FR-485560643", "name": "ESSO NOISY LE SEC BREMENT", "lat": 48.8881342, "lng": 2.4588694, "site_brand": "BP", "country_code": "FR", "address": "107 RUE DE BREMENT", "city": "NOISY LE SEC", "state": null, "postcode": "93130", "telephone": "+33 1 48 40 99 90", "facilities": ["car_wash", "toilet", "supermarket", "shop", "accepts_routex_cards", "open_saturday", "open_sunday"], "products": [], "website": null, "watchlist_id": null, "formatted_address": "107 RUE DE BREMENT\n93130\nNOISY LE SEC", "channel_of_trade": null}, {"id": "FR-486612826", "name": "ESSO AIRE DE MEILLAC", "lat": 44.97493, "lng": -0.431965, "site_brand": "BP", "country_code": "FR", "address": "AUTOROUTE A10 CUBZAC LES PONTS", "city": "SAINT ANDRE DE CUBZAC", "state": null, "postcode": "33240", "telephone": "+33 5 57 43 09 17", "facilities": ["high_speed_pump", "truck_suitable_site", "toilet", "motorway_site", "shop", "accepts_routex_cards", "open_saturday", "open_sunday"], "products": [], "website": null, "watchlist_id": null, "formatted_address": "AUTOROUTE A10 CUBZAC LES PONTS\n33240\nSAINT ANDRE DE CUBZAC", "channel_of_trade": null}, {"id": "FR-486740315", "name": "ESSO ST GENIS LAVAL", "lat": 45.70194, "lng": 4.79552, "site_brand": "BP", "country_code": "FR", "address": "66  RUE GEORGES CLEMENCEAU", "city": "SAINT GENIS LAVAL", "state": null, "postcode": "69230", "telephone": "+33 4 72 39 33 97", "facilities": ["car_wash", "toilet", "supermarket", "shop", "accepts_routex_cards", "open_saturday", "open_sunday"], "products": [], "website": null, "watchlist_id": null, "formatted_address": "66  RUE GEORGES CLEMENCEAU\n69230\nSAINT GENIS LAVAL", "channel_of_trade": null}, {"id": "FR-489697956", "name": "ESSO ATHIS MONS", "lat": 48.705816, "lng": 2.3682511, "site_brand": "BP", "country_code": "FR", "address": "38 AV DE MORANGIS", "city": "ATHIS MONS", "state": null, "postcode": "91200", "telephone": "+33 1 69 38 17 41", "facilities": ["car_wash", "toilet", "shop", "accepts_routex_cards", "open_saturday", "open_sunday"], "products": [], "website": null, "watchlist_id": null, "formatted_address": "38 AV DE MORANGIS\n91200\nATHIS MONS", "channel_of_trade": null}, {"id": "FR-49551611", "name": "BP VIDAUBAN NORD", "lat": 43.4135, "lng": 6.44904, "site_brand": "BP", "country_code": "FR", "address": "AIRE DE VIDAUBAN NORD A8", "city": "VIDAUBAN", "state": null, "postcode": "83550", "telephone": "", "facilities": ["truck_suitable_site", "toilet", "motorway_site", "shop", "accepts_routex_cards", "open_saturday", "open_sunday"], "products": [], "website": null, "watchlist_id": "49551611", "formatted_address": "AIRE DE VIDAUBAN NORD A8\n83550\nVIDAUBAN", "channel_of_trade": null}, {"id": "FR-500178621", "name": "ESSO BALLAINVILLIERS", "lat": 48.68584, "lng": 2.2858, "site_brand": "BP", "country_code": "FR", "address": "ROUTE NATIONALE 20", "city": "BALLAINVILLIERS", "state": null, "postcode": "91160", "telephone": "+33 1 69 34 37 75", "facilities": ["car_wash", "high_speed_pump", "truck_suitable_site", "toilet", "shop", "accepts_routex_cards", "open_saturday", "open_sunday"], "products": [], "website": null, "watchlist_id": null, "formatted_address": "ROUTE NATIONALE 20\n91160\nBALLAINVILLIERS", "channel_of_trade": null}, {"id": "FR-518072634", "name": "ESSO AIRE DE DOLE AUDELANGE", "lat": 47.147094, "lng": 5.579737, "site_brand": "BP", "country_code": "FR", "address": "AUT A36 AIRE DE DOLE AUDELANGE", "city": "AUDELANGE", "state": null, "postcode": "39700", "telephone": "+33 3 84 70 63 55", "facilities": ["truck_suitable_site", "toilet", "motorway_site", "supermarket", "shop", "bakery_bistro", "accepts_routex_cards", "open_saturday", "open_sunday"], "products": [], "website": null, "watchlist_id": null, "formatted_address": "AUT A36 AIRE DE DOLE AUDELANGE\n39700\nAUDELANGE", "channel_of_trade": null}, {"id": "FR-520209239", "name": "ESSO VILLEURBANNE THILLEUL", "lat": 45.7631041, "lng": 4.8764994, "site_brand": "BP", "country_code": "FR", "address": "72 COURS TOLSTOI", "city": "VILLEURBANNE", "state": null, "postcode": "69100", "telephone": "+33 4 78 68 20 24", "facilities": ["car_wash", "accepts_routex_cards", "open_saturday", "open_sunday"], "products": [], "website": null, "watchlist_id": null, "formatted_address": "72 COURS TOLSTOI\n69100\nVILLEURBANNE", "channel_of_trade": null}, {"id": "FR-521246098", "name": "ESSO PARIS PAUL DOUMER", "lat": 48.8609002, "lng": 2.2829848, "site_brand": "BP", "country_code": "FR", "address": "26 AV PAUL DOUMER", "city": "PARIS", "state": null, "postcode": "75016", "telephone": "+33 1 45 03 47 07", "facilities": ["car_wash", "toilet", "shop", "accepts_routex_cards", "open_saturday", "open_sunday"], "products": [], "website": null, "watchlist_id": null, "formatted_address": "26 AV PAUL DOUMER\n75016\nPARIS", "channel_of_trade": null}, {"id": "FR-521329746", "name": "ESSO EVRY COURCOURONNES", "lat": 48.63116, "lng": 2.41729, "site_brand": "BP", "country_code": "FR", "address": "AVENUE DE LORME A MARTIN", "city": "COURCOURONNES", "state": null, "postcode": "91080", "telephone": "+33 1 60 78 19 16", "facilities": ["car_wash", "truck_suitable_site", "toilet", "shop", "accepts_routex_cards", "open_saturday", "open_sunday"], "products": [], "website": null, "watchlist_id": null, "formatted_address": "AVENUE DE LORME A MARTIN\n91080\nCOURCOURONNES", "channel_of_trade": null}, {"id": "FR-523268260", "name": "ESSO LA GARDE 708", "lat": 44.87105, "lng": 3.24927, "site_brand": "BP", "country_code": "FR", "address": "LIEUDIT LA GARDE D809", "city": "ALBARET SAINTE MARIE", "state": null, "postcode": "48200", "telephone": "+33 4 66 45 60 23", "facilities": ["truck_suitable_site", "toilet", "motorway_site", "shop", "accepts_routex_cards", "open_saturday", "open_sunday"], "products": [], "website": null, "watchlist_id": null, "formatted_address": "LIEUDIT LA GARDE D809\n48200\nALBARET SAINTE MARIE", "channel_of_trade": null}, {"id": "FR-536755045", "name": "ESSO ST FARGEAU", "lat": 48.52997, "lng": 2.53998, "site_brand": "BP", "country_code": "FR", "address": "LOTISS DES BORDES RN 7", "city": "ST FARGEAU PONTHIERRY", "state": null, "postcode": "77310", "telephone": "+33 1 60 65 71 92", "facilities": ["car_wash", "truck_suitable_site", "toilet", "shop", "accepts_routex_cards", "open_saturday", "open_sunday"], "products": [], "website": null, "watchlist_id": null, "formatted_address": "LOTISS DES BORDES RN 7\n77310\nST FARGEAU PONTHIERRY", "channel_of_trade": null}, {"id": "FR-536794386", "name": "ESSO LIVRY GARGAN SPEEDY", "lat": 48.9141983, "lng": 2.5262067, "site_brand": "BP", "country_code": "FR", "address": "137 AV ARISTIDE BRIAND", "city": "LIVRY GARGAN", "state": null, "postcode": "93190", "telephone": "+33 1 43 30 39 65", "facilities": ["car_wash", "truck_suitable_site", "toilet", "shop", "bakery_bistro", "accepts_routex_cards", "open_saturday", "open_sunday"], "products": [], "website": null, "watchlist_id": null, "formatted_address": "137 AV ARISTIDE BRIAND\n93190\nLIVRY GARGAN", "channel_of_trade": null}, {"id": "FR-536989202", "name": "ESSO LA CELLE ST CLOUD", "lat": 48.8588191, "lng": 2.1458403, "site_brand": "BP", "country_code": "FR", "address": "24 AV DE LA JONCHERE", "city": "LA CELLE SAINT CLOUD", "state": null, "postcode": "78170", "telephone": "+33 1 39 69 94 77", "facilities": ["car_wash", "truck_suitable_site", "toilet", "shop", "accepts_routex_cards", "open_saturday", "open_sunday"], "products": [], "website": null, "watchlist_id": null, "formatted_address": "24 AV DE LA JONCHERE\n78170\nLA CELLE SAINT CLOUD", "channel_of_trade": null}, {"id": "FR-537123754", "name": "ESSO MARSEILLE ETOILE", "lat": 43.35221, "lng": 5.43693, "site_brand": "BP", "country_code": "FR", "address": "37 AVENUE DE CHATEAU GOMBERT", "city": "MARSEILLE", "state": null, "postcode": "13013", "telephone": "+33 4 91 68 14 30", "facilities": ["car_wash", "toilet", "shop", "accepts_routex_cards", "open_saturday", "open_sunday"], "products": [], "website": null, "watchlist_id": null, "formatted_address": "37 AVENUE DE CHATEAU GOMBERT\n13013\nMARSEILLE", "channel_of_trade": null}, {"id": "FR-538905025", "name": "ESSO VIGNEUX", "lat": 48.7001572, "lng": 2.4199085, "site_brand": "BP", "country_code": "FR", "address": "54 AV  HENRI BARBUSSE", "city": "VIGNEUX SUR SEINE", "state": null, "postcode": "91270", "telephone": "+33 1 69 40 37 44", "facilities": ["car_wash", "shop", "accepts_routex_cards", "open_saturday", "open_sunday"], "products": [], "website": null, "watchlist_id": null, "formatted_address": "54 AV  HENRI BARBUSSE\n91270\nVIGNEUX SUR SEINE", "channel_of_trade": null}, {"id": "FR-548614053", "name": "ESSO DRANCY", "lat": 48.9131225, "lng": 2.4629568, "site_brand": "BP", "country_code": "FR", "address": "274 AV J JAURES", "city": "DRANCY", "state": null, "postcode": "93700", "telephone": "+33 1 48 30 30 50", "facilities": ["car_wash", "toilet", "shop", "accepts_routex_cards", "open_saturday", "open_sunday"], "products": [], "website": null, "watchlist_id": null, "formatted_address": "274 AV J JAURES\n93700\nDRANCY", "channel_of_trade": null}, {"id": "FR-552599840", "name": "ESSO LHAY LES ROSES", "lat": 48.77966, "lng": 2.33921, "site_brand": "BP", "country_code": "FR", "address": "110 BD P VAILLANT COUTURIER", "city": "L'HAY LES ROSES", "state": null, "postcode": "94240", "telephone": "+33 1 46 64 48 60", "facilities": ["car_wash", "toilet", "shop", "accepts_routex_cards", "open_saturday", "open_sunday"], "products": [], "website": null, "watchlist_id": null, "formatted_address": "110 BD P VAILLANT COUTURIER\n94240\nL'HAY LES ROSES", "channel_of_trade": null}, {"id": "FR-571395445", "name": "ESSO DES CLAYES LA VIGNERAIE", "lat": 48.8289063, "lng": 1.976279, "site_brand": "BP", "country_code": "FR", "address": "AVENUE HENRI BARBUSSE", "city": "LES CLAYES SOUS BOIS", "state": null, "postcode": "78340", "telephone": "+33 1 30 55 39 59", "facilities": ["car_wash", "truck_suitable_site", "toilet", "shop", "accepts_routex_cards", "open_saturday", "open_sunday"], "products": [], "website": null, "watchlist_id": null, "formatted_address": "AVENUE HENRI BARBUSSE\n78340\nLES CLAYES SOUS BOIS", "channel_of_trade": null}, {"id": "FR-574585404", "name": "ESSO JOINVILLE CHAPSAL", "lat": 48.8238178, "lng": 2.4652332, "site_brand": "BP", "country_code": "FR", "address": "39 RUE CHAPSAL", "city": "JOINVILLE LE PONT", "state": null, "postcode": "94340", "telephone": "+33 1 48 83 43 90", "facilities": ["toilet", "shop", "accepts_routex_cards", "open_saturday", "open_sunday"], "products": [], "website": null, "watchlist_id": null, "formatted_address": "39 RUE CHAPSAL\n94340\nJOINVILLE LE PONT", "channel_of_trade": null}, {"id": "FR-574611364", "name": "ESSO AIRE ST GERMAIN BUTTE GRA", "lat": 48.630957, "lng": 2.48642, "site_brand": "BP", "country_code": "FR", "address": "LIEUDIT BUTTE DE GRAVOIS RN104", "city": "SAINT GERMAIN LES CORBEIL", "state": null, "postcode": "91250", "telephone": "+33 1 69 89 67 00", "facilities": ["car_wash", "high_speed_pump", "truck_suitable_site", "toilet", "motorway_site", "shop", "bakery_bistro", "accepts_routex_cards", "open_saturday", "open_sunday"], "products": [], "website": null, "watchlist_id": null, "formatted_address": "LIEUDIT BUTTE DE GRAVOIS RN104\n91250\nSAINT GERMAIN LES CORBEIL", "channel_of_trade": null}, {"id": "FR-576026768", "name": "BP MENTON UNION", "lat": 43.7659602, "lng": 7.487676, "site_brand": "BP", "country_code": "FR", "address": "1 AVENUE GENERAL DE GAULLE", "city": "MENTON", "state": null, "postcode": "06500", "telephone": "+33 4 93 35 98 48", "facilities": ["car_wash", "toilet", "shop", "accepts_routex_cards", "open_saturday", "open_sunday"], "products": [], "website": null, "watchlist_id": null, "formatted_address": "1 AVENUE GENERAL DE GAULLE\n06500\nMENTON", "channel_of_trade": null}, {"id": "FR-585895360", "name": "ESSO SAINT THIBAULT DES VIGNES", "lat": 48.89305, "lng": 2.71197, "site_brand": "BP", "country_code": "FR", "address": "AVENUE ST GERMAIN DES NOYERS", "city": "SAINT THIBAULT DES VIGNES", "state": null, "postcode": "77400", "telephone": "+33 1 60 07 30 15", "facilities": ["car_wash", "high_speed_pump", "truck_suitable_site", "toilet", "shop", "accepts_routex_cards", "open_saturday", "open_sunday"], "products": [], "website": null, "watchlist_id": null, "formatted_address": "AVENUE ST GERMAIN DES NOYERS\n77400\nSAINT THIBAULT DES VIGNES", "channel_of_trade": null}, {"id": "FR-588132843", "name": "ESSO OSNY", "lat": 49.06096, "lng": 2.08386, "site_brand": "BP", "country_code": "FR", "address": "LIEUDIT LE CHAMP POURRI CD 915", "city": "OSNY", "state": null, "postcode": "95520", "telephone": "+33 1 30 73 47 58", "facilities": ["car_wash", "truck_suitable_site", "toilet", "shop", "accepts_routex_cards", "open_saturday", "open_sunday"], "products": [], "website": null, "watchlist_id": null, "formatted_address": "LIEUDIT LE CHAMP POURRI CD 915\n95520\nOSNY", "channel_of_trade": null}, {"id": "FR-59652571", "name": "ESSO AIRE DES CHAMPS D AMOUR", "lat": 47.090624, "lng": 1.843463, "site_brand": "BP", "country_code": "FR", "address": "A20 AIRE DES CHAMPS D  AMOUR", "city": "MEUNET SUR VATAN", "state": null, "postcode": "36150", "telephone": "+33 2 54 49 88 07", "facilities": ["high_speed_pump", "truck_suitable_site", "toilet", "motorway_site", "shop", "accepts_routex_cards", "open_saturday", "open_sunday"], "products": [], "website": null, "watchlist_id": "59652571", "formatted_address": "A20 AIRE DES CHAMPS D  AMOUR\n36150\nMEUNET SUR VATAN", "channel_of_trade": null}, {"id": "FR-601024279", "name": "ESSO CALAIS VIRVAL", "lat": 50.9380493, "lng": 1.8819037, "site_brand": "BP", "country_code": "FR", "address": "320 RUE DE SAINT OMER", "city": "CALAIS", "state": null, "postcode": "62100", "telephone": "+33 3 21 96 78 99", "facilities": ["high_speed_pump", "truck_suitable_site", "toilet", "shop", "accepts_routex_cards", "open_saturday", "open_sunday"], "products": [], "website": null, "watchlist_id": null, "formatted_address": "320 RUE DE SAINT OMER\n62100\nCALAIS", "channel_of_trade": null}, {"id": "FR-602238691", "name": "ESSO CHANTILLY PARC AUMONT", "lat": 49.1913298, "lng": 2.4640646, "site_brand": "BP", "country_code": "FR", "address": "38 AVENUE DU MARECHAL JOFFRE", "city": "CHANTILLY", "state": null, "postcode": "60500", "telephone": "+33 3 44 57 28 66", "facilities": ["car_wash", "toilet", "shop", "accepts_routex_cards", "open_saturday", "open_sunday"], "products": [], "website": null, "watchlist_id": null, "formatted_address": "38 AVENUE DU MARECHAL JOFFRE\n60500\nCHANTILLY", "channel_of_trade": null}, {"id": "FR-602675016", "name": "ESSO LA CIOTAT SUD", "lat": 43.19320373, "lng": 5.666217461, "site_brand": "BP", "country_code": "FR", "address": "AIRE DU LIOUQUET SUD - A50", "city": "LA CIOTAT", "state": null, "postcode": "13600", "telephone": "+33 4 42 83 04 68", "facilities": ["truck_suitable_site", "toilet", "motorway_site", "shop", "accepts_routex_cards", "open_saturday", "open_sunday"], "products": [], "website": null, "watchlist_id": null, "formatted_address": "AIRE DU LIOUQUET SUD - A50\n13600\nLA CIOTAT", "channel_of_trade": null}, {"id": "FR-61526750", "name": "ESSO PERSAN J JAURES", "lat": 49.1462471, "lng": 2.2843476, "site_brand": "BP", "country_code": "FR", "address": "5 A 11 AV JEAN JAURES", "city": "PERSAN", "state": null, "postcode": "95340", "telephone": "+33 1 34 70 00 31", "facilities": ["car_wash", "high_speed_pump", "truck_suitable_site", "toilet", "shop", "accepts_routex_cards", "open_saturday", "open_sunday"], "products": [], "website": null, "watchlist_id": "61526750", "formatted_address": "5 A 11 AV JEAN JAURES\n95340\nPERSAN", "channel_of_trade": null}, {"id": "FR-62910146", "name": "ESSO BAGNEUX CHATILLON", "lat": 48.7972996, "lng": 2.2980865, "site_brand": "BP", "country_code": "FR", "address": "12/14 AV DU GENERAL DE GAULLE", "city": "BAGNEUX", "state": null, "postcode": "92220", "telephone": "+33 1 46 54 14 03", "facilities": ["car_wash", "toilet", "shop", "accepts_routex_cards", "open_saturday", "open_sunday"], "products": [], "website": null, "watchlist_id": "62910146", "formatted_address": "12/14 AV DU GENERAL DE GAULLE\n92220\nBAGNEUX", "channel_of_trade": null}, {"id": "FR-63114390", "name": "ESSO PUTEAUX LE FRANCE", "lat": 48.88266, "lng": 2.24708, "site_brand": "BP", "country_code": "FR", "address": "42 QUAI DE DION BOUTON", "city": "PUTEAUX", "state": null, "postcode": "92800", "telephone": "+33 1 49 03 75 86", "facilities": ["car_wash", "toilet", "shop", "accepts_routex_cards", "open_saturday", "open_sunday"], "products": [], "website": null, "watchlist_id": "63114390", "formatted_address": "42 QUAI DE DION BOUTON\n92800\nPUTEAUX", "channel_of_trade": null}, {"id": "FR-654497914", "name": "ESSO PARIS VERSAILLES", "lat": 48.8452202, "lng": 2.2715433, "site_brand": "BP", "country_code": "FR", "address": "99 AV DE VERSAILLES", "city": "PARIS", "state": null, "postcode": "75016", "telephone": "+33 1 42 24 81 46", "facilities": ["toilet", "shop", "accepts_routex_cards", "open_saturday", "open_sunday"], "products": [], "website": null, "watchlist_id": null, "formatted_address": "99 AV DE VERSAILLES\n75016\nPARIS", "channel_of_trade": null}, {"id": "FR-658702709", "name": "ESSO MASSY", "lat": 48.72775, "lng": 2.26978, "site_brand": "BP", "country_code": "FR", "address": "VOIE EXPRESS CD 117", "city": "MASSY", "state": null, "postcode": "91300", "telephone": "+33 1 60 14 74 74", "facilities": ["car_wash", "toilet", "shop", "accepts_routex_cards", "open_saturday", "open_sunday"], "products": [], "website": null, "watchlist_id": null, "formatted_address": "VOIE EXPRESS CD 117\n91300\nMASSY", "channel_of_trade": null}, {"id": "FR-668324322", "name": "ESSO AIRE DE CHATEAUVILLAIN", "lat": 48.055958, "lng": 4.960702, "site_brand": "BP", "country_code": "FR", "address": "A 5 AIRE DE CHATEAUVILLAIN SUR ORGE", "city": "CHATEAUVILLAIN", "state": null, "postcode": "52120", "telephone": "+33 3 25 31 29 20", "facilities": ["high_speed_pump", "truck_suitable_site", "toilet", "motorway_site", "shop", "accepts_routex_cards", "open_saturday", "open_sunday"], "products": [], "website": null, "watchlist_id": null, "formatted_address": "A 5 AIRE DE CHATEAUVILLAIN SUR ORGE\n52120\nCHATEAUVILLAIN", "channel_of_trade": null}, {"id": "FR-700092582", "name": "ESSO VALENCIENNES CROIX DANZIN", "lat": 50.3661735, "lng": 3.5128024, "site_brand": "BP", "country_code": "FR", "address": "36 AV DE ST AMAND", "city": "VALENCIENNES", "state": null, "postcode": "59300", "telephone": "+33 3 27 47 62 52", "facilities": ["car_wash", "toilet", "shop", "accepts_routex_cards", "open_saturday", "open_sunday"], "products": [], "website": null, "watchlist_id": null, "formatted_address": "36 AV DE ST AMAND\n59300\nVALENCIENNES", "channel_of_trade": null}, {"id": "FR-702775554", "name": "ESSO MEUDON TASSIGNY", "lat": 48.784773, "lng": 2.2269288, "site_brand": "BP", "country_code": "FR", "address": "38 AVENUE DU DELATTRE DE TASSIGNY", "city": "MEUDON LA FORET", "state": null, "postcode": "92360", "telephone": "+33 1 46 30 87 35", "facilities": ["car_wash", "shop", "bakery_bistro", "accepts_routex_cards", "open_saturday", "open_sunday"], "products": [], "website": null, "watchlist_id": null, "formatted_address": "38 AVENUE DU DELATTRE DE TASSIGNY\n92360\nMEUDON LA FORET", "channel_of_trade": null}, {"id": "FR-753230164", "name": "ESSO BAGNEUX BLAGIS", "lat": 48.79605, "lng": 2.30564, "site_brand": "BP", "country_code": "FR", "address": "98T AV DE BOURG LA REINE", "city": "BAGNEUX", "state": null, "postcode": "92220", "telephone": "+33 1 46 64 38 78", "facilities": ["car_wash", "truck_suitable_site", "toilet", "shop", "accepts_routex_cards", "open_saturday", "open_sunday"], "products": [], "website": null, "watchlist_id": null, "formatted_address": "98T AV DE BOURG LA REINE\n92220\nBAGNEUX", "channel_of_trade": null}, {"id": "FR-754175650", "name": "ESSO THIAIS SUD", "lat": 48.7657818, "lng": 2.392155, "site_brand": "BP", "country_code": "FR", "address": "334 THIAIS SUD C C BELLE 2PINE", "city": "THIAIS", "state": null, "postcode": "94651", "telephone": "+33 1 45 60 45 71", "facilities": ["car_wash", "high_speed_pump", "truck_suitable_site", "toilet", "shop", "accepts_routex_cards", "open_saturday", "open_sunday"], "products": [], "website": null, "watchlist_id": null, "formatted_address": "334 THIAIS SUD C C BELLE 2PINE\n94651\nTHIAIS", "channel_of_trade": null}, {"id": "FR-755900483", "name": "ESSO ST MAUR CRETEIL", "lat": 48.7981807, "lng": 2.4806611, "site_brand": "BP", "country_code": "FR", "address": "57 BD DE CRETEIL", "city": "SAINT MAUR DES FOSSES", "state": null, "postcode": "94100", "telephone": "+33 1 42 83 49 83", "facilities": ["toilet", "supermarket", "shop", "accepts_routex_cards", "open_saturday", "open_sunday"], "products": [], "website": null, "watchlist_id": null, "formatted_address": "57 BD DE CRETEIL\n94100\nSAINT MAUR DES FOSSES", "channel_of_trade": null}, {"id": "FR-756732411", "name": "ESSO AULNAY RN370", "lat": 48.5721, "lng": 2.29012, "site_brand": "BP", "country_code": "FR", "address": "RUE MICHEL ANGE ROUTE N 370", "city": "AULNAY SOUS BOIS", "state": null, "postcode": "93600", "telephone": "+33 1 48 69 05 45", "facilities": ["car_wash", "high_speed_pump", "truck_suitable_site", "toilet", "shop", "accepts_routex_cards", "open_saturday", "open_sunday"], "products": [], "website": null, "watchlist_id": null, "formatted_address": "RUE MICHEL ANGE ROUTE N 370\n93600\nAULNAY SOUS BOIS", "channel_of_trade": null}, {"id": "FR-757939402", "name": "ESSO ST LEGER OUEST", "lat": 45.6131218, "lng": -0.6060076, "site_brand": "BP", "country_code": "FR", "address": "AIRE DE SAINT LEGER OUEST AUTOROUTE", "city": "ST LEGER", "state": null, "postcode": "17800", "telephone": "+33 5 46 91 91 66", "facilities": ["high_speed_pump", "truck_suitable_site", "toilet", "motorway_site", "shop", "accepts_routex_cards", "open_saturday", "open_sunday"], "products": [], "website": null, "watchlist_id": null, "formatted_address": "AIRE DE SAINT LEGER OUEST AUTOROUTE\n17800\nST LEGER", "channel_of_trade": null}, {"id": "FR-768355206", "name": "ESSO DOMONT", "lat": 49.022749, "lng": 2.203479, "site_brand": "BP", "country_code": "FR", "address": "RN 1    BP4", "city": "DOMONT", "state": null, "postcode": "95331", "telephone": "+33 1 39 35 11 47", "facilities": ["car_wash", "high_speed_pump", "truck_suitable_site", "accepts_routex_cards", "open_saturday", "open_sunday"], "products": [], "website": null, "watchlist_id": null, "formatted_address": "RN 1    BP4\n95331\nDOMONT", "channel_of_trade": null}, {"id": "FR-768536572", "name": "ESSO RUNGIS NORD", "lat": 48.75214, "lng": 2.38957, "site_brand": "BP", "country_code": "FR", "address": "ROUTE NATIONALE 186", "city": "RUNGIS", "state": null, "postcode": "94579", "telephone": "+33 1 46 87 58 06", "facilities": ["car_wash", "high_speed_pump", "truck_suitable_site", "toilet", "shop", "accepts_routex_cards", "open_saturday", "open_sunday"], "products": [], "website": null, "watchlist_id": null, "formatted_address": "ROUTE NATIONALE 186\n94579\nRUNGIS", "channel_of_trade": null}, {"id": "FR-768989000", "name": "ESSO AIRE DE LA CHABURE", "lat": 45.445199, "lng": 4.466574, "site_brand": "BP", "country_code": "FR", "address": "RN 88 LIEUDIT LA MAISON ROUGE", "city": "ST JEAN BONNEFONDS", "state": null, "postcode": "42650", "telephone": "+33 4 77 22 20 60", "facilities": ["high_speed_pump", "truck_suitable_site", "toilet", "motorway_site", "shop", "bakery_bistro", "accepts_routex_cards", "open_saturday", "open_sunday"], "products": [], "website": null, "watchlist_id": null, "formatted_address": "RN 88 LIEUDIT LA MAISON ROUGE\n42650\nST JEAN BONNEFONDS", "channel_of_trade": null}, {"id": "FR-769389817", "name": "ESSO ARGENTEUIL J JAURES", "lat": 48.9397705, "lng": 2.2333376, "site_brand": "BP", "country_code": "FR", "address": "63 AV JEAN JAURES", "city": "ARGENTEUIL", "state": null, "postcode": "95100", "telephone": "+33 1 39 61 74 32", "facilities": ["car_wash", "truck_suitable_site", "toilet", "shop", "accepts_routex_cards", "open_saturday", "open_sunday"], "products": [], "website": null, "watchlist_id": null, "formatted_address": "63 AV JEAN JAURES\n95100\nARGENTEUIL", "channel_of_trade": null}, {"id": "FR-774804", "name": "ESSO ASNIERES ARGENTEUIL", "lat": 48.9145398, "lng": 2.2831993, "site_brand": "BP", "country_code": "FR", "address": "96 AV D ARGENTEUIL", "city": "ASNIERES SUR SEINE", "state": null, "postcode": "92600", "telephone": "+33 1 47 90 03 34", "facilities": ["car_wash", "toilet", "supermarket", "shop", "accepts_routex_cards", "open_saturday", "open_sunday"], "products": [], "website": null, "watchlist_id": null, "formatted_address": "96 AV D ARGENTEUIL\n92600\nASNIERES SUR SEINE", "channel_of_trade": null}, {"id": "FR-780287813", "name": "ESSO AIRE DE BARALLE", "lat": 50.225636, "lng": 3.069854, "site_brand": "BP", "country_code": "FR", "address": "AIRE DE BARALLE AUTOROUTE A 26", "city": "MARQUION", "state": null, "postcode": "62860", "telephone": "+33 3 21 50 28 77", "facilities": ["high_speed_pump", "truck_suitable_site", "toilet", "motorway_site", "shop", "bakery_bistro", "restaurant", "accepts_routex_cards", "open_saturday", "open_sunday"], "products": [], "website": null, "watchlist_id": null, "formatted_address": "AIRE DE BARALLE AUTOROUTE A 26\n62860\nMARQUION", "channel_of_trade": null}, {"id": "FR-788351275", "name": "ESSO RUNGIS SUD", "lat": 48.75294, "lng": 2.36118, "site_brand": "BP", "country_code": "FR", "address": "ROUTE NATIONALE 186", "city": "RUNGIS", "state": null, "postcode": "94579", "telephone": "+33 1 46 87 34 72", "facilities": ["car_wash", "high_speed_pump", "truck_suitable_site", "toilet", "shop", "accepts_routex_cards", "open_saturday", "open_sunday"], "products": [], "website": null, "watchlist_id": null, "formatted_address": "ROUTE NATIONALE 186\n94579\nRUNGIS", "channel_of_trade": null}, {"id": "FR-805429756", "name": "BP AIRE DE GIBERVILLE SUD", "lat": 49.166675, "lng": -0.276064, "site_brand": "BP", "country_code": "FR", "address": "AUTOROUTE A13 AIRE DE GIBERVILLE SU", "city": "GIBERVILLE", "state": null, "postcode": "14730", "telephone": "+33 2 31 35 21 30", "facilities": ["high_speed_pump", "truck_suitable_site", "toilet", "motorway_site", "shop", "accepts_routex_cards", "open_saturday", "open_sunday"], "products": [], "website": null, "watchlist_id": null, "formatted_address": "AUTOROUTE A13 AIRE DE GIBERVILLE SU\n14730\nGIBERVILLE", "channel_of_trade": null}, {"id": "FR-806327334", "name": "ESSO ST CLOUD REPUBLIQUE", "lat": 48.844503, "lng": 2.2103929, "site_brand": "BP", "country_code": "FR", "address": "35 BD DE LA REPUBLIQUE", "city": "SAINT CLOUD", "state": null, "postcode": "92210", "telephone": "+33 1 46 02 53 02", "facilities": ["car_wash", "truck_suitable_site", "toilet", "shop", "accepts_routex_cards", "open_saturday", "open_sunday"], "products": [], "website": null, "watchlist_id": null, "formatted_address": "35 BD DE LA REPUBLIQUE\n92210\nSAINT CLOUD", "channel_of_trade": null}, {"id": "FR-817963476", "name": "ESSO CHELLES", "lat": 48.8995919, "lng": 2.6143505, "site_brand": "BP", "country_code": "FR", "address": "20 AV DE CLAYE", "city": "CHELLES", "state": null, "postcode": "77500", "telephone": "+33 9 52 19 97 46", "facilities": ["car_wash", "high_speed_pump", "truck_suitable_site", "toilet", "shop", "accepts_routex_cards", "open_saturday", "open_sunday"], "products": [], "website": null, "watchlist_id": null, "formatted_address": "20 AV DE CLAYE\n77500\nCHELLES", "channel_of_trade": null}, {"id": "FR-818794056", "name": "ESSO NOISY LE SEC A3", "lat": 48.880458, "lng": 2.452749, "site_brand": "BP", "country_code": "FR", "address": "5 RUE DE LA CHASSE A 3 BP 52", "city": "NOISY LE SEC", "state": null, "postcode": "93130", "telephone": "+33 1 48 59 49 57", "facilities": ["car_wash", "high_speed_pump", "truck_suitable_site", "toilet", "motorway_site", "accepts_routex_cards", "open_saturday", "open_sunday"], "products": [], "website": null, "watchlist_id": null, "formatted_address": "5 RUE DE LA CHASSE A 3 BP 52\n93130\nNOISY LE SEC", "channel_of_trade": null}, {"id": "FR-818880649", "name": "ESSO VILLEURBANNE FACULTES", "lat": 45.7788136, "lng": 4.8693639, "site_brand": "BP", "country_code": "FR", "address": "110 BD DU 11 NOVEMBRE 1918", "city": "VILLEURBANNE", "state": null, "postcode": "69100", "telephone": "+33 4 78 94 16 67", "facilities": ["car_wash", "toilet", "supermarket", "shop", "accepts_routex_cards", "open_saturday", "open_sunday"], "products": [], "website": null, "watchlist_id": null, "formatted_address": "110 BD DU 11 NOVEMBRE 1918\n69100\nVILLEURBANNE", "channel_of_trade": null}, {"id": "FR-820954193", "name": "ESSO CERGY ST CHRISTOPHE", "lat": 49.04691, "lng": 2.0237, "site_brand": "BP", "country_code": "FR", "address": "ROND POINT DU CHENE (BD DE LOISE)", "city": "CERGY", "state": null, "postcode": "95800", "telephone": "+33 1 30 38 44 43", "facilities": ["car_wash", "toilet", "supermarket", "shop", "accepts_routex_cards", "open_saturday", "open_sunday"], "products": [], "website": null, "watchlist_id": null, "formatted_address": "ROND POINT DU CHENE (BD DE LOISE)\n95800\nCERGY", "channel_of_trade": null}, {"id": "FR-823513301", "name": "ESSO GRENOBLE VERCORS", "lat": 45.1800485, "lng": 5.7123975, "site_brand": "BP", "country_code": "FR", "address": "23   27 BRD JOSEPH VALLIER", "city": "GRENOBLE", "state": null, "postcode": "38000", "telephone": "+33 4 76 96 38 58", "facilities": ["car_wash", "toilet", "shop", "accepts_routex_cards", "open_saturday", "open_sunday"], "products": [], "website": null, "watchlist_id": null, "formatted_address": "23   27 BRD JOSEPH VALLIER\n38000\nGRENOBLE", "channel_of_trade": null}, {"id": "FR-824193992", "name": "BP VENISSIEUX", "lat": 45.70563, "lng": 4.87836, "site_brand": "BP", "country_code": "FR", "address": "61  AV DE LA REPUBLIQUE", "city": "VENISSIEUX", "state": null, "postcode": "69200", "telephone": "+33 4 72 50 43 32", "facilities": ["car_wash", "high_speed_pump", "truck_suitable_site", "shop", "accepts_routex_cards", "open_saturday", "open_sunday"], "products": [], "website": null, "watchlist_id": null, "formatted_address": "61  AV DE LA REPUBLIQUE\n69200\nVENISSIEUX", "channel_of_trade": null}, {"id": "FR-831738297", "name": "ESSO AIRE DE ST LAURENT", "lat": 50.259898, "lng": 2.857239, "site_brand": "BP", "country_code": "FR", "address": "AIRE DE ST LAURENT AUTOROUTE A25", "city": "STEENVOORDE", "state": null, "postcode": "59114", "telephone": "+33 3 28 44 65 33", "facilities": ["open_24_hours", "alcohol", "tobacco", "high_speed_pump", "lorry_and_truck_terminal", "truck_parking", "truck_suitable_site", "toilet", "wifi", "motorway_site", "supermarket", "shop", "bakery_bistro", "accepts_routex_cards", "open_saturday", "open_sunday"], "products": ["ad_blue_cannister"], "website": null, "watchlist_id": null, "formatted_address": "AIRE DE ST LAURENT AUTOROUTE A25\n59114\nSTEENVOORDE", "channel_of_trade": null}, {"id": "FR-845036185", "name": "ESSO ERMONT", "lat": 48.9893645, "lng": 2.2578426, "site_brand": "BP", "country_code": "FR", "address": "16B RUE DU 18 JUINN", "city": "ERMONT", "state": null, "postcode": "95120", "telephone": "+33 1 34 15 08 98", "facilities": ["car_wash", "toilet", "shop", "accepts_routex_cards", "open_saturday", "open_sunday"], "products": [], "website": null, "watchlist_id": null, "formatted_address": "16B RUE DU 18 JUINN\n95120\nERMONT", "channel_of_trade": null}, {"id": "FR-856399524", "name": "ESSO CAGNES MALVAN", "lat": 43.6600786, "lng": 7.1379323, "site_brand": "BP", "country_code": "FR", "address": "36 AVENUE DES ALPES", "city": "CAGNES SUR MER", "state": null, "postcode": "06800", "telephone": "+33 4 93 73 49 19", "facilities": ["car_wash", "toilet", "shop", "accepts_routex_cards", "open_saturday", "open_sunday"], "products": [], "website": null, "watchlist_id": null, "formatted_address": "36 AVENUE DES ALPES\n06800\nCAGNES SUR MER", "channel_of_trade": null}, {"id": "FR-858006319", "name": "ESSO AUBERVILLIERS PONT BLANC", "lat": 48.91877, "lng": 2.3936, "site_brand": "BP", "country_code": "FR", "address": "100 RUE CHARLES TILLON", "city": "AUBERVILLIERS", "state": null, "postcode": "93300", "telephone": "+33 1 48 33 81 91", "facilities": ["car_wash", "toilet", "shop", "accepts_routex_cards", "open_saturday", "open_sunday"], "products": [], "website": null, "watchlist_id": null, "formatted_address": "100 RUE CHARLES TILLON\n93300\nAUBERVILLIERS", "channel_of_trade": null}, {"id": "FR-859848059", "name": "ESSO VILLEPINTE CLEMENCEAU", "lat": 48.9550428, "lng": 2.5612264, "site_brand": "BP", "country_code": "FR", "address": "AVENUE G  CLEMENCEAU CD 40", "city": "VILLEPINTE", "state": null, "postcode": "93420", "telephone": "+33 1 48 61 92 03", "facilities": ["car_wash", "truck_suitable_site", "toilet", "shop", "accepts_routex_cards", "open_saturday", "open_sunday"], "products": [], "website": null, "watchlist_id": null, "formatted_address": "AVENUE G  CLEMENCEAU CD 40\n93420\nVILLEPINTE", "channel_of_trade": null}, {"id": "FR-863221449", "name": "ESSO AIRE DE GRANDE SYNTHE", "lat": 51.003855, "lng": 2.303979, "site_brand": "BP", "country_code": "FR", "address": "VOIE DU COURGAIN ROC SUD", "city": "GRANDE SYNTHE", "state": null, "postcode": "59760", "telephone": "+33 3 28 21 74 29", "facilities": ["high_speed_pump", "truck_suitable_site", "toilet", "motorway_site", "shop", "restaurant", "accepts_routex_cards", "open_saturday", "open_sunday"], "products": [], "website": null, "watchlist_id": null, "formatted_address": "VOIE DU COURGAIN ROC SUD\n59760\nGRANDE SYNTHE", "channel_of_trade": null}, {"id": "FR-870698378", "name": "ESSO  NANTERRE CLEMENCEAU", "lat": 48.885672, "lng": 2.2190138, "site_brand": "BP", "country_code": "FR", "address": "265 AV GEORGES CLEMENCEAU", "city": "NANTERRE", "state": null, "postcode": "92000", "telephone": "+33 1 47 24 02 12", "facilities": ["car_wash", "truck_suitable_site", "toilet", "shop", "accepts_routex_cards", "open_saturday", "open_sunday"], "products": [], "website": null, "watchlist_id": null, "formatted_address": "265 AV GEORGES CLEMENCEAU\n92000\nNANTERRE", "channel_of_trade": null}, {"id": "FR-872334167", "name": "ESSO NIMES LANGUEDOC", "lat": 43.8260181, "lng": 4.3529214, "site_brand": "BP", "country_code": "FR", "address": "40 AV MARECHAL JUIN", "city": "NIMES", "state": null, "postcode": "30900", "telephone": "+33 4 66 64 37 55", "facilities": ["car_wash", "toilet", "shop", "accepts_routex_cards", "open_saturday", "open_sunday"], "products": [], "website": null, "watchlist_id": null, "formatted_address": "40 AV MARECHAL JUIN\n30900\nNIMES", "channel_of_trade": null}, {"id": "FR-909470806", "name": "ESSO CHATENAY LA BRIAUDE", "lat": 48.7631281, "lng": 2.2778224, "site_brand": "BP", "country_code": "FR", "address": "157 AVENUE DIVISION LECLERC", "city": "CHATENAY MALABRY", "state": null, "postcode": "92290", "telephone": "+33 1 46 60 84 72", "facilities": ["car_wash", "truck_suitable_site", "toilet", "shop", "accepts_routex_cards", "open_saturday", "open_sunday"], "products": [], "website": null, "watchlist_id": null, "formatted_address": "157 AVENUE DIVISION LECLERC\n92290\nCHATENAY MALABRY", "channel_of_trade": null}, {"id": "FR-935476309", "name": "ESSO VAUJOURS", "lat": 48.9347947, "lng": 2.5676372, "site_brand": "BP", "country_code": "FR", "address": "64 RUE DE MEAUX", "city": "VAUJOURS", "state": null, "postcode": "93410", "telephone": "+33 1 48 60 70 12", "facilities": ["car_wash", "toilet", "shop", "accepts_routex_cards", "open_saturday", "open_sunday"], "products": [], "website": null, "watchlist_id": null, "formatted_address": "64 RUE DE MEAUX\n93410\nVAUJOURS", "channel_of_trade": null}, {"id": "FR-9506682", "name": "ESSO ERAGNY DIR ST GERMAIN", "lat": 49.0239013, "lng": 2.096628, "site_brand": "BP", "country_code": "FR", "address": "RN184  DIR ST GERMAIN EN LAYE", "city": "ERAGNY SUR OISE", "state": null, "postcode": "95610", "telephone": "+33 1 34 64 38 40", "facilities": ["car_wash", "high_speed_pump", "truck_suitable_site", "toilet", "shop", "accepts_routex_cards", "open_saturday", "open_sunday"], "products": [], "website": null, "watchlist_id": null, "formatted_address": "RN184  DIR ST GERMAIN EN LAYE\n95610\nERAGNY SUR OISE", "channel_of_trade": null}, {"id": "FR-954276185", "name": "ESSO AIRE DE ST AUGUSTIN LA CR", "lat": 43.135429, "lng": 6.047425, "site_brand": "BP", "country_code": "FR", "address": "A 570 AIRE DE ST AUGUSTIN", "city": "LA CRAU", "state": null, "postcode": "83260", "telephone": "+33 4 94 35 12 18", "facilities": ["car_wash", "high_speed_pump", "truck_suitable_site", "toilet", "motorway_site", "shop", "bakery_bistro", "accepts_routex_cards", "open_saturday", "open_sunday"], "products": [], "website": null, "watchlist_id": null, "formatted_address": "A 570 AIRE DE ST AUGUSTIN\n83260\nLA CRAU", "channel_of_trade": null}, {"id": "FR-958329227", "name": "ESSO MARSEILLE ST BARNABE", "lat": 43.3041233, "lng": 5.4116993, "site_brand": "BP", "country_code": "FR", "address": "53 AV DE ST BARNABE", "city": "MARSEILLE", "state": null, "postcode": "13012", "telephone": "+33 4 91 49 29 02", "facilities": ["car_wash", "toilet", "supermarket", "shop", "accepts_routex_cards", "open_saturday", "open_sunday"], "products": [], "website": null, "watchlist_id": null, "formatted_address": "53 AV DE ST BARNABE\n13012\nMARSEILLE", "channel_of_trade": null}]