[{"id": "362", "name": "Aspang, Wechselstr. 15", "lat": 47.5673, "lng": 16.0978, "site_brand": "BP", "country_code": "AT", "address": "Wechselstra\u00dfe 15", "city": "Aspang", "state": null, "postcode": "2870", "telephone": "+43 2642 52577", "facilities": ["open_24_hours", "tobacco", "car_wash", "high_speed_pump", "truck_suitable_site", "toilet", "shop", "accepts_routex_cards", "accepts_toll_payments", "reminder_service", "open_saturday", "open_sunday"], "products": ["ad_blue_cannister", "diesel_on", "red_diesel", "ultimate", "ultimate_diesel", "ultimate_unleaded", "unleaded_95"], "website": null, "watchlist_id": null, "formatted_address": "Wechselstra\u00dfe 15\nAspang\n2870", "channel_of_trade": null}, {"id": "1563497945", "name": "Schaeffern, Gewerbepark 10", "lat": 47.480713, "lng": 16.091953, "site_brand": "BP", "country_code": "AT", "address": "Gewerbepark 10", "city": "Sch\u00e4ffern", "state": null, "postcode": "8244", "telephone": "+43 3339 70365", "facilities": ["open_24_hours", "restaurant", "accepts_routex_cards", "accepts_toll_payments", "reminder_service", "open_saturday", "open_sunday"], "products": ["ad_blue_cannister", "ad_blue_pump", "diesel_on", "ultimate", "ultimate_diesel", "ultimate_unleaded", "unleaded_95", "ad_blue"], "website": null, "watchlist_id": null, "formatted_address": "Gewerbepark 10\nSch\u00e4ffern\n8244", "channel_of_trade": null}, {"id": "1497227096", "name": "Paldau, Saaz 92", "lat": 46.953953, "lng": 15.849611, "site_brand": "BP", "country_code": "AT", "address": "Saaz 92", "city": "Paldau", "state": null, "postcode": "8341", "telephone": "+43 3152 67735", "facilities": ["restaurant", "accepts_routex_cards", "accepts_toll_payments", "reminder_service", "open_saturday", "open_sunday"], "products": ["ad_blue_cannister", "ad_blue_pump", "diesel_on", "ultimate", "ultimate_diesel", "ultimate_unleaded", "unleaded_95", "ad_blue"], "website": null, "watchlist_id": null, "formatted_address": "Saaz 92\nPaldau\n8341", "channel_of_trade": null}, {"id": "19005", "name": "Sebersdorf 304", "lat": 47.182678, "lng": 15.992691, "site_brand": "BP", "country_code": "AT", "address": "Sebersdorf 304", "city": "Sebersdorf", "state": null, "postcode": "8272", "telephone": "+43 3333 24899", "facilities": ["tobacco", "high_speed_pump", "truck_suitable_site", "truck_wash", "toilet", "shop", "accepts_routex_cards", "accepts_toll_payments", "reminder_service"], "products": ["ad_blue_cannister", "ad_blue_pump", "diesel_on", "ultimate", "ultimate_diesel", "ultimate_unleaded", "unleaded_95", "ad_blue"], "website": null, "watchlist_id": null, "formatted_address": "Sebersdorf 304\nSebersdorf\n8272", "channel_of_trade": null}, {"id": "1594825830", "name": "Hartberg, Ressavarstr. 4", "lat": 47.275829, "lng": 15.96666, "site_brand": "BP", "country_code": "AT", "address": "Ressavarstra\u00dfe 4", "city": "Hartberg", "state": null, "postcode": "8230", "telephone": "+43 3332 62571", "facilities": ["shop", "accepts_routex_cards", "accepts_toll_payments", "reminder_service", "open_saturday", "open_sunday"], "products": ["ad_blue_cannister", "diesel_on", "ultimate", "ultimate_diesel", "ultimate_unleaded", "unleaded_95"], "website": null, "watchlist_id": null, "formatted_address": "Ressavarstra\u00dfe 4\nHartberg\n8230", "channel_of_trade": null}, {"id": "1312950519", "name": "ST-EIBISWALD, AIBL 72", "lat": 46.681945, "lng": 15.230276, "site_brand": "BP", "country_code": "AT", "address": "Aibl 72", "city": "Eibiswald", "state": null, "postcode": "8552", "telephone": "+43 3466 42318", "facilities": ["car_wash", "accepts_routex_cards", "accepts_toll_payments", "reminder_service"], "products": ["ad_blue_cannister", "ad_blue_pump", "diesel_on", "ultimate", "ultimate_diesel", "ultimate_unleaded", "unleaded_95", "ad_blue"], "website": null, "watchlist_id": null, "formatted_address": "Aibl 72\nEibiswald\n8552", "channel_of_trade": null}, {"id": "1876931075", "name": "Gralla, Gewerbepark Sued 4", "lat": 46.804099, "lng": 15.557495, "site_brand": "BP", "country_code": "AT", "address": "Gewerbepark S\u00fcd 4", "city": "Gralla", "state": null, "postcode": "8431", "telephone": "+43 3452 71416", "facilities": ["toilet", "restaurant", "accepts_routex_cards", "accepts_toll_payments", "reminder_service", "open_saturday", "open_sunday"], "products": ["ad_blue_cannister", "diesel_on", "ultimate", "ultimate_diesel", "ultimate_unleaded", "unleaded_95"], "website": null, "watchlist_id": null, "formatted_address": "Gewerbepark S\u00fcd 4\nGralla\n8431", "channel_of_trade": null}, {"id": "357", "name": "Anger, Umfahrungsstr. 4", "lat": 47.2788429, "lng": 15.6936064, "site_brand": "BP", "country_code": "AT", "address": "Umfahrungstra\u00dfe 4", "city": "Anger", "state": null, "postcode": "8184", "telephone": "+43 664 6384247", "facilities": ["toilet", "shop", "accepts_routex_cards", "reminder_service"], "products": ["ad_blue_cannister", "diesel_on", "ultimate", "ultimate_diesel", "ultimate_unleaded", "unleaded_95"], "website": null, "watchlist_id": null, "formatted_address": "Umfahrungstra\u00dfe 4\nAnger\n8184", "channel_of_trade": null}, {"id": "360", "name": "Arnwiesen", "lat": 47.105595, "lng": 15.768947, "site_brand": "BP", "country_code": "AT", "address": "A-2 S\u00fcdautobahn", "city": "Arnwiesen-Gleisdorf", "state": null, "postcode": "8200", "telephone": "+43 3112 6744", "facilities": ["open_24_hours", "tobacco", "high_speed_pump", "truck_parking", "truck_suitable_site", "disabled_facilities", "toilet", "wifi", "motorway_site", "shop", "bakery_bistro", "restaurant", "wild_bean_cafe", "accepts_routex_cards", "accepts_toll_payments", "reminder_service", "open_saturday", "open_sunday"], "products": ["ad_blue_cannister", "ad_blue_pump", "diesel_on", "ultimate", "ultimate_diesel", "ultimate_unleaded", "unleaded_95", "ad_blue"], "website": null, "watchlist_id": null, "formatted_address": "A-2 S\u00fcdautobahn\nArnwiesen-Gleisdorf\n8200", "channel_of_trade": null}, {"id": "9872", "name": "Weiz, Gleisdorfer Str. 60", "lat": 47.2123, "lng": 15.6293, "site_brand": "BP", "country_code": "AT", "address": "Gleisdorfer Stra\u00dfe 60", "city": "Weiz", "state": null, "postcode": "8160", "telephone": "+43 3172 2073", "facilities": ["tobacco", "car_wash", "high_speed_pump", "truck_suitable_site", "toilet", "merkur", "shop", "bakery_bistro", "wild_bean_cafe", "accepts_routex_cards", "accepts_toll_payments", "reminder_service", "open_saturday", "open_sunday"], "products": ["ad_blue_cannister", "diesel_on", "ultimate", "ultimate_diesel", "ultimate_unleaded", "unleaded_95"], "website": null, "watchlist_id": null, "formatted_address": "Gleisdorfer Stra\u00dfe 60\nWeiz\n8160", "channel_of_trade": null}, {"id": "1277019718", "name": "Gleisdorf, Hofstaetten 113", "lat": 47.081403, "lng": 15.739456, "site_brand": "BP", "country_code": "AT", "address": "Hofstetten 113", "city": "Gleisdorf", "state": null, "postcode": "8200", "telephone": "+43 3112 590031", "facilities": ["high_speed_pump", "truck_parking", "truck_suitable_site", "shop", "restaurant", "accepts_routex_cards", "accepts_toll_payments", "reminder_service"], "products": ["ad_blue_cannister", "ad_blue_pump", "diesel_on", "ultimate", "ultimate_diesel", "ultimate_unleaded", "unleaded_95", "ad_blue"], "website": null, "watchlist_id": null, "formatted_address": "Hofstetten 113\nGleisdorf\n8200", "channel_of_trade": null}, {"id": "9876", "name": "Fladnitz, Schrems 3", "lat": 47.2685733, "lng": 15.4807577, "site_brand": "BP", "country_code": "AT", "address": "Schrems 3", "city": "Fladnitz", "state": null, "postcode": "8163", "telephone": "+43 3179 6132", "facilities": ["tobacco", "car_wash", "high_speed_pump", "truck_suitable_site", "truck_wash", "toilet", "shop", "restaurant", "accepts_routex_cards", "accepts_toll_payments", "reminder_service", "open_saturday", "open_sunday"], "products": ["ad_blue_cannister", "diesel_on", "ultimate", "ultimate_diesel", "ultimate_unleaded", "unleaded_95"], "website": null, "watchlist_id": null, "formatted_address": "Schrems 3\nFladnitz\n8163", "channel_of_trade": null}, {"id": "463", "name": "Heiligenkreuz am Waasen, Liebensdorf 36", "lat": 46.9822, "lng": 15.5648, "site_brand": "BP", "country_code": "AT", "address": "Liebensdorf 36", "city": "Heiligenkreuz am Waasen", "state": null, "postcode": "8081", "telephone": "+43 3134 2313", "facilities": ["tobacco", "high_speed_pump", "truck_suitable_site", "toilet", "shop", "accepts_routex_cards", "accepts_toll_payments", "reminder_service", "open_saturday"], "products": ["ad_blue_cannister", "diesel_on", "red_diesel", "ultimate", "ultimate_diesel", "ultimate_unleaded", "unleaded_95"], "website": null, "watchlist_id": null, "formatted_address": "Liebensdorf 36\nHeiligenkreuz am Waasen\n8081", "channel_of_trade": null}, {"id": "861977885", "name": "ST-LIEBOCH, HANS THALH. STR. 1", "lat": 46.9631909, "lng": 15.3508663, "site_brand": "BP", "country_code": "AT", "address": "Hans Thalhammer Stra\u00dfe 1", "city": "Lieboch", "state": null, "postcode": "8501", "telephone": "+43 676 845727200", "facilities": ["open_24_hours", "accepts_routex_cards", "reminder_service", "open_saturday", "open_sunday"], "products": [], "website": null, "watchlist_id": null, "formatted_address": "Hans Thalhammer Stra\u00dfe 1\nLieboch\n8501", "channel_of_trade": null}, {"id": "897575300", "name": "Werndorf, Gewerbepark 1", "lat": 46.933411, "lng": 15.467321, "site_brand": "BP", "country_code": "AT", "address": "Gewerbepark 1", "city": "Werndorf", "state": null, "postcode": "8402", "telephone": "+43 3135 57199", "facilities": ["open_24_hours", "truck_parking", "truck_suitable_site", "restaurant", "accepts_routex_cards", "accepts_toll_payments", "reminder_service", "open_saturday", "open_sunday"], "products": ["ad_blue_cannister", "ad_blue_pump", "diesel_on", "ultimate", "ultimate_diesel", "ultimate_unleaded", "unleaded_95", "ad_blue"], "website": null, "watchlist_id": null, "formatted_address": "Gewerbepark 1\nWerndorf\n8402", "channel_of_trade": null}, {"id": "433", "name": "Graz, Froehlichgasse 45", "lat": 47.0559, "lng": 15.4483, "site_brand": "BP", "country_code": "AT", "address": "Fr\u00f6hlichgasse 45", "city": "Graz", "state": null, "postcode": "8010", "telephone": "+43 316 472595", "facilities": ["open_24_hours", "tobacco", "high_speed_pump", "truck_suitable_site", "toilet", "shop", "bakery_bistro", "wild_bean_cafe", "accepts_routex_cards", "accepts_toll_payments", "reminder_service", "open_saturday", "open_sunday"], "products": ["ad_blue_cannister", "diesel_on", "ultimate", "ultimate_diesel", "ultimate_unleaded", "unleaded_95"], "website": null, "watchlist_id": null, "formatted_address": "Fr\u00f6hlichgasse 45\nGraz\n8010", "channel_of_trade": null}, {"id": "538", "name": "Graz, Muenzgrabenstr. 121", "lat": 47.0568059, "lng": 15.4536062, "site_brand": "BP", "country_code": "AT", "address": "M\u00fcnzgrabenstra\u00dfe 121", "city": "Graz", "state": null, "postcode": "8010", "telephone": "+43 316 465444", "facilities": ["tobacco", "high_speed_pump", "truck_suitable_site", "toilet", "shop", "bakery_bistro", "wild_bean_cafe", "accepts_routex_cards", "accepts_toll_payments", "reminder_service", "open_saturday", "open_sunday"], "products": ["ad_blue_cannister", "diesel_on", "ultimate", "ultimate_diesel", "ultimate_unleaded", "unleaded_95"], "website": null, "watchlist_id": null, "formatted_address": "M\u00fcnzgrabenstra\u00dfe 121\nGraz\n8010", "channel_of_trade": null}, {"id": "9898", "name": "Graz, Puntigamer Str. 130", "lat": 47.0335, "lng": 15.4427, "site_brand": "BP", "country_code": "AT", "address": "Puntigamer Stra\u00dfe 130", "city": "Graz", "state": null, "postcode": "8055", "telephone": "+43 316 292492", "facilities": ["open_24_hours", "tobacco", "car_wash", "high_speed_pump", "truck_suitable_site", "toilet", "merkur", "shop", "bakery_bistro", "wild_bean_cafe", "accepts_routex_cards", "accepts_toll_payments", "reminder_service", "open_saturday", "open_sunday"], "products": ["ad_blue_cannister", "ad_blue_pump", "diesel_on", "ultimate", "ultimate_diesel", "ultimate_unleaded", "unleaded_95", "ad_blue"], "website": null, "watchlist_id": null, "formatted_address": "Puntigamer Stra\u00dfe 130\nGraz\n8055", "channel_of_trade": null}, {"id": "429", "name": "Gratkorn, Harterstr. 8", "lat": 47.1221, "lng": 15.3604, "site_brand": "BP", "country_code": "AT", "address": "Harter Stra\u00dfe 8", "city": "Gratkorn", "state": null, "postcode": "8101", "telephone": "+43 3124 290291", "facilities": ["tobacco", "high_speed_pump", "truck_suitable_site", "toilet", "shop", "wild_bean_cafe", "accepts_routex_cards", "accepts_toll_payments", "reminder_service", "open_saturday", "open_sunday"], "products": ["ad_blue_cannister", "ad_blue_pump", "diesel_on", "ultimate", "ultimate_diesel", "ultimate_unleaded", "unleaded_95", "ad_blue"], "website": null, "watchlist_id": null, "formatted_address": "Harter Stra\u00dfe 8\nGratkorn\n8101", "channel_of_trade": null}, {"id": "2144425674", "name": "Gratwein, Bahnhofstr. 27", "lat": 47.130132, "lng": 15.323842, "site_brand": "BP", "country_code": "AT", "address": "Bahnhofstra\u00dfe 27", "city": "Gratwein", "state": null, "postcode": "8112", "telephone": "+43 3124 52168", "facilities": ["toilet", "accepts_routex_cards", "accepts_toll_payments", "reminder_service", "open_saturday", "open_sunday"], "products": ["ad_blue_cannister", "ad_blue_pump", "diesel_on", "ultimate", "ultimate_diesel", "ultimate_unleaded", "unleaded_95", "ad_blue"], "website": null, "watchlist_id": null, "formatted_address": "Bahnhofstra\u00dfe 27\nGratwein\n8112", "channel_of_trade": null}, {"id": "169653509", "name": "Graz, Reininghausstr. 63", "lat": 47.062958, "lng": 15.399311, "site_brand": "BP", "country_code": "AT", "address": "Reininghausstra\u00dfe 63", "city": "Graz", "state": null, "postcode": "8020", "telephone": "+43 316 583551", "facilities": ["accepts_routex_cards", "reminder_service"], "products": ["ad_blue_cannister", "diesel_on", "ultimate", "ultimate_diesel", "ultimate_unleaded", "unleaded_95"], "website": null, "watchlist_id": null, "formatted_address": "Reininghausstra\u00dfe 63\nGraz\n8020", "channel_of_trade": null}, {"id": "521", "name": "Lieboch, Packerstr. 144", "lat": 46.9765, "lng": 15.3287, "site_brand": "BP", "country_code": "AT", "address": "Packerstra\u00dfe", "city": "Lieboch", "state": null, "postcode": "8501", "telephone": "+43 3136 61187", "facilities": ["tobacco", "high_speed_pump", "truck_suitable_site", "toilet", "shop", "accepts_routex_cards", "accepts_toll_payments", "reminder_service", "open_saturday", "open_sunday"], "products": ["ad_blue_cannister", "ad_blue_pump", "diesel_on", "ultimate", "ultimate_diesel", "ultimate_unleaded", "unleaded_95", "ad_blue"], "website": null, "watchlist_id": null, "formatted_address": "Packerstra\u00dfe\nLieboch\n8501", "channel_of_trade": null}, {"id": "428916883", "name": "Lannach, Radlpassstr. 26", "lat": 46.948625, "lng": 15.337613, "site_brand": "BP", "country_code": "AT", "address": "Radlpa\u00dfstra\u00dfe 26", "city": "Lannach", "state": null, "postcode": "8502", "telephone": "+43 3136 83140", "facilities": ["toilet", "shop", "accepts_routex_cards", "accepts_toll_payments", "reminder_service", "open_saturday", "open_sunday"], "products": ["ad_blue_cannister", "diesel_on", "natural_gas", "ultimate", "ultimate_diesel", "ultimate_unleaded", "unleaded_95"], "website": null, "watchlist_id": null, "formatted_address": "Radlpa\u00dfstra\u00dfe 26\nLannach\n8502", "channel_of_trade": null}, {"id": "641", "name": "St. Michael, Bundesstr. 59", "lat": 47.3503359, "lng": 15.0085854, "site_brand": "BP", "country_code": "AT", "address": "Bundesstra\u00dfe 59", "city": "St. Michael", "state": null, "postcode": "8770", "telephone": "+43 3843 5116", "facilities": ["tobacco", "car_wash", "high_speed_pump", "truck_suitable_site", "toilet", "shop", "accepts_routex_cards", "accepts_toll_payments", "reminder_service", "open_saturday", "open_sunday"], "products": ["ad_blue_cannister", "diesel_on", "red_diesel", "ultimate", "ultimate_diesel", "ultimate_unleaded", "unleaded_95"], "website": null, "watchlist_id": null, "formatted_address": "Bundesstra\u00dfe 59\nSt. Michael\n8770", "channel_of_trade": null}, {"id": "669", "name": "Trofaiach, Hauptstr. 9A", "lat": 47.420513, "lng": 15.0140597, "site_brand": "BP", "country_code": "AT", "address": "Hauptstra\u00dfe 9A", "city": "Trofaiach", "state": null, "postcode": "8793", "telephone": "+43 3847 2879", "facilities": ["tobacco", "car_wash", "high_speed_pump", "truck_suitable_site", "toilet", "shop", "accepts_routex_cards", "accepts_toll_payments", "reminder_service", "open_saturday", "open_sunday"], "products": ["ad_blue_cannister", "diesel_on", "red_diesel", "ultimate", "ultimate_diesel", "ultimate_unleaded", "unleaded_95"], "website": null, "watchlist_id": null, "formatted_address": "Hauptstra\u00dfe 9A\nTrofaiach\n8793", "channel_of_trade": null}, {"id": "8945", "name": "Leoben-Goess, Hirschgraben 7", "lat": 47.3640164, "lng": 15.0961791, "site_brand": "BP", "country_code": "AT", "address": "Hirschgraben", "city": "Leoben-Goess", "state": null, "postcode": "8707", "telephone": "+43 3842 22194", "facilities": ["open_24_hours", "tobacco", "car_wash", "high_speed_pump", "truck_suitable_site", "toilet", "merkur", "shop", "bakery_bistro", "wild_bean_cafe", "accepts_routex_cards", "accepts_toll_payments", "reminder_service", "open_saturday", "open_sunday"], "products": ["ad_blue_cannister", "diesel_on", "ultimate", "ultimate_diesel", "ultimate_unleaded", "unleaded_95"], "website": null, "watchlist_id": null, "formatted_address": "Hirschgraben\nLeoben-Goess\n8707", "channel_of_trade": null}, {"id": "8946", "name": "Knittelfeld, Wiener Str. 51", "lat": 47.2202, "lng": 14.829, "site_brand": "BP", "country_code": "AT", "address": "Wiener Stra\u00dfe 51", "city": "Knittelfeld", "state": null, "postcode": "8720", "telephone": "+43 3512 83710", "facilities": ["tobacco", "car_wash", "high_speed_pump", "truck_suitable_site", "toilet", "accepts_routex_cards", "accepts_toll_payments", "reminder_service", "open_saturday", "open_sunday"], "products": ["ad_blue_cannister", "ad_blue_pump", "diesel_on", "ultimate", "ultimate_diesel", "ultimate_unleaded", "unleaded_95", "ad_blue"], "website": null, "watchlist_id": null, "formatted_address": "Wiener Stra\u00dfe 51\nKnittelfeld\n8720", "channel_of_trade": null}, {"id": "1818254620", "name": "Leoben, Ostererweg 2a", "lat": 47.3802672, "lng": 15.1070368, "site_brand": "BP", "country_code": "AT", "address": "Ostererweg 2a", "city": "Leoben", "state": null, "postcode": "8700", "telephone": "+43 3842 46179", "facilities": ["toilet", "shop", "accepts_routex_cards", "accepts_toll_payments", "reminder_service", "open_saturday", "open_sunday"], "products": ["ad_blue_cannister", "diesel_on", "ultimate", "ultimate_diesel", "ultimate_unleaded", "unleaded_95"], "website": null, "watchlist_id": null, "formatted_address": "Ostererweg 2a\nLeoben\n8700", "channel_of_trade": null}, {"id": "2100411926", "name": "Zeltweg, Hauptstr. 2", "lat": 47.1973514, "lng": 14.7665027, "site_brand": "BP", "country_code": "AT", "address": "Hauptstra\u00dfe 2", "city": "Zeltweg", "state": null, "postcode": "8740", "telephone": "+43 3577 24800", "facilities": ["high_speed_pump", "truck_suitable_site", "shop", "accepts_routex_cards", "accepts_toll_payments", "reminder_service", "open_saturday", "open_sunday"], "products": ["ad_blue_cannister", "diesel_on", "ultimate", "ultimate_diesel", "ultimate_unleaded", "unleaded_95"], "website": null, "watchlist_id": null, "formatted_address": "Hauptstra\u00dfe 2\nZeltweg\n8740", "channel_of_trade": null}, {"id": "17890927", "name": "Trofaiach, Hauptstr. 12", "lat": 47.4204189, "lng": 15.0147581, "site_brand": "BP", "country_code": "AT", "address": "Hauptstra\u00dfe 12", "city": "Trofaiach", "state": null, "postcode": "8793", "telephone": "+43 3847 2933", "facilities": ["shop", "accepts_routex_cards", "accepts_toll_payments", "reminder_service", "open_saturday", "open_sunday"], "products": ["ad_blue_cannister", "diesel_on", "ultimate", "ultimate_diesel", "ultimate_unleaded", "unleaded_95"], "website": null, "watchlist_id": "17890927", "formatted_address": "Hauptstra\u00dfe 12\nTrofaiach\n8793", "channel_of_trade": null}, {"id": "9891", "name": "Krems, Wiener Str. 76", "lat": 48.415, "lng": 15.6175, "site_brand": "BP", "country_code": "AT", "address": "Wiener Stra\u00dfe 76", "city": "Krems", "state": null, "postcode": "3500", "telephone": "+43 2732 77998", "facilities": ["open_24_hours", "tobacco", "car_wash", "high_speed_pump", "truck_suitable_site", "toilet", "merkur", "shop", "bakery_bistro", "restaurant", "wild_bean_cafe", "accepts_routex_cards", "accepts_toll_payments", "reminder_service", "open_saturday", "open_sunday"], "products": ["ad_blue_cannister", "diesel_on", "ultimate", "ultimate_diesel", "ultimate_unleaded", "unleaded_95"], "website": null, "watchlist_id": null, "formatted_address": "Wiener Stra\u00dfe 76\nKrems\n3500", "channel_of_trade": null}, {"id": "784", "name": "Ybbsitz, Alte Poststr. 23", "lat": 47.9486638, "lng": 14.8964086, "site_brand": "BP", "country_code": "AT", "address": "Alte Poststra\u00dfe 25", "city": "Ybbsitz", "state": null, "postcode": "3341", "telephone": "+43 7443 86514", "facilities": ["open_24_hours", "tobacco", "car_wash", "high_speed_pump", "truck_suitable_site", "toilet", "shop", "accepts_routex_cards", "reminder_service", "open_saturday", "open_sunday"], "products": ["ad_blue_cannister", "diesel_on", "ultimate", "ultimate_diesel", "ultimate_unleaded", "unleaded_95"], "website": null, "watchlist_id": null, "formatted_address": "Alte Poststra\u00dfe 25\nYbbsitz\n3341", "channel_of_trade": null}, {"id": "354", "name": "Amstetten, Ybbsstr. 39", "lat": 48.1166141, "lng": 14.8716214, "site_brand": "BP", "country_code": "AT", "address": "Ybbsstra\u00dfe 39", "city": "Amstetten", "state": null, "postcode": "3300", "telephone": "+43 7472 68222", "facilities": ["tobacco", "car_wash", "toilet", "shop", "accepts_routex_cards", "accepts_toll_payments", "reminder_service", "open_saturday", "open_sunday"], "products": ["ad_blue_cannister", "diesel_on", "ultimate", "ultimate_diesel", "ultimate_unleaded", "unleaded_95"], "website": null, "watchlist_id": null, "formatted_address": "Ybbsstra\u00dfe 39\nAmstetten\n3300", "channel_of_trade": null}, {"id": "673", "name": "Grein, Ufer 4", "lat": 48.2229, "lng": 14.8503, "site_brand": "BP", "country_code": "AT", "address": "Ufer 4", "city": "Grein", "state": null, "postcode": "4360", "telephone": "", "facilities": ["tobacco", "car_wash", "high_speed_pump", "truck_suitable_site", "toilet", "shop", "bakery_bistro", "bistro", "accepts_routex_cards", "accepts_toll_payments", "reminder_service", "open_saturday", "open_sunday"], "products": ["ad_blue_cannister", "diesel_on", "ultimate", "ultimate_diesel", "ultimate_unleaded", "unleaded_95"], "website": null, "watchlist_id": null, "formatted_address": "Ufer 4\nGrein\n4360", "channel_of_trade": null}, {"id": "703835927", "name": "Perg, Naarner Str. 73", "lat": 48.2394955, "lng": 14.6262131, "site_brand": "BP", "country_code": "AT", "address": "Naarner Stra\u00dfe 73", "city": "Perg", "state": null, "postcode": "4320", "telephone": "+43 7262 53235", "facilities": ["toilet", "restaurant", "accepts_routex_cards", "accepts_toll_payments", "reminder_service"], "products": ["ad_blue_cannister", "diesel_on", "natural_gas", "ultimate", "ultimate_diesel", "ultimate_unleaded", "unleaded_95"], "website": null, "watchlist_id": null, "formatted_address": "Naarner Stra\u00dfe 73\nPerg\n4320", "channel_of_trade": null}, {"id": "376", "name": "Boeheimkirchen, Stockhofstr. 1", "lat": 48.1909328, "lng": 15.7660241, "site_brand": "BP", "country_code": "AT", "address": "Hainfelderstra\u00dfe", "city": "B\u00f6heimkirchen", "state": null, "postcode": "3071", "telephone": "+43 2743 3265", "facilities": ["tobacco", "car_wash", "high_speed_pump", "truck_suitable_site", "truck_wash", "toilet", "shop", "accepts_routex_cards", "accepts_toll_payments", "reminder_service", "open_saturday", "open_sunday"], "products": ["ad_blue_cannister", "diesel_on", "red_diesel", "ultimate", "ultimate_diesel", "ultimate_unleaded", "unleaded_95"], "website": null, "watchlist_id": null, "formatted_address": "Hainfelderstra\u00dfe\nB\u00f6heimkirchen\n3071", "channel_of_trade": null}, {"id": "627", "name": "Spratzern, Mariazellerstr. 182", "lat": 48.1792415, "lng": 15.6155487, "site_brand": "BP", "country_code": "AT", "address": "Mariazellerstra\u00dfe 182", "city": "Spratzern", "state": null, "postcode": "3106", "telephone": "+43 2742 74960", "facilities": ["open_24_hours", "tobacco", "car_wash", "high_speed_pump", "truck_suitable_site", "toilet", "merkur", "shop", "bakery_bistro", "wild_bean_cafe", "accepts_routex_cards", "accepts_toll_payments", "reminder_service", "open_saturday", "open_sunday"], "products": ["ad_blue_cannister", "ad_blue_pump", "diesel_on", "ultimate", "ultimate_diesel", "ultimate_unleaded", "unleaded_95", "ad_blue"], "website": null, "watchlist_id": null, "formatted_address": "Mariazellerstra\u00dfe 182\nSpratzern\n3106", "channel_of_trade": null}, {"id": "8957", "name": "St. Poelten, Mariazellerstr. 264", "lat": 48.1574248, "lng": 15.6142557, "site_brand": "BP", "country_code": "AT", "address": "Mariazeller Stra\u00dfe 264", "city": "St. P\u00f6lten", "state": null, "postcode": "3100", "telephone": "+43 2742 883738", "facilities": ["tobacco", "car_wash", "high_speed_pump", "truck_suitable_site", "toilet", "shop", "bakery_bistro", "wild_bean_cafe", "accepts_routex_cards", "accepts_toll_payments", "reminder_service", "open_saturday", "open_sunday"], "products": ["ad_blue_cannister", "diesel_on", "ultimate", "ultimate_diesel", "ultimate_unleaded", "unleaded_95"], "website": null, "watchlist_id": null, "formatted_address": "Mariazeller Stra\u00dfe 264\nSt. P\u00f6lten\n3100", "channel_of_trade": null}, {"id": "8961", "name": "Voellerndorf Truck-only, A1", "lat": 48.176044, "lng": 15.556898, "site_brand": "BP", "country_code": "AT", "address": "An Der Raststation-Lkw", "city": "V\u00f6llerndorf/St.P\u00f6lten", "state": null, "postcode": "3385", "telephone": "800223350", "facilities": ["open_24_hours", "high_speed_pump", "truck_parking", "truck_suitable_site", "toilet", "motorway_site", "shop", "bakery_bistro", "bistro", "restaurant", "accepts_routex_cards", "reminder_service", "open_saturday", "open_sunday"], "products": ["ad_blue_pump", "diesel_on", "ad_blue"], "website": null, "watchlist_id": null, "formatted_address": "An Der Raststation-Lkw\nV\u00f6llerndorf/St.P\u00f6lten\n3385", "channel_of_trade": null}, {"id": "9900", "name": "St. Poelten, Noe-Ring 20", "lat": 48.198098, "lng": 15.639392, "site_brand": "BP", "country_code": "AT", "address": "Nieder\u00f6sterreichring 20", "city": "St. P\u00f6lten", "state": null, "postcode": "3100", "telephone": "+43 2742 230033", "facilities": ["tobacco", "car_wash", "high_speed_pump", "truck_suitable_site", "toilet", "merkur", "shop", "bakery_bistro", "wild_bean_cafe", "accepts_routex_cards", "accepts_toll_payments", "reminder_service", "open_saturday", "open_sunday"], "products": ["ad_blue_cannister", "diesel_on", "ultimate", "ultimate_diesel", "ultimate_unleaded", "unleaded_95"], "website": null, "watchlist_id": null, "formatted_address": "Nieder\u00f6sterreichring 20\nSt. P\u00f6lten\n3100", "channel_of_trade": null}, {"id": "553", "name": "Merkenstetten, Stock 11", "lat": 48.039127, "lng": 15.14372, "site_brand": "BP", "country_code": "AT", "address": "Stock 11", "city": "Merkenstetten", "state": null, "postcode": "3251", "telephone": "+43 7489 2481", "facilities": ["tobacco", "car_wash", "high_speed_pump", "truck_suitable_site", "toilet", "shop", "accepts_routex_cards", "accepts_toll_payments", "reminder_service", "open_saturday", "open_sunday"], "products": ["ad_blue_cannister", "ad_blue_pump", "diesel_on", "ultimate", "ultimate_diesel", "ultimate_unleaded", "unleaded_95", "ad_blue"], "website": null, "watchlist_id": null, "formatted_address": "Stock 11\nMerkenstetten\n3251", "channel_of_trade": null}, {"id": "17880", "name": "Oberndorf, Wieselburger Strasse 2", "lat": 48.0659052, "lng": 15.2158903, "site_brand": "BP", "country_code": "AT", "address": "Wieselburger Stra\u00dfe 2", "city": "Oberndorf an der Melk", "state": null, "postcode": "3281", "telephone": "+43 7483 7000", "facilities": ["toilet", "accepts_routex_cards", "accepts_toll_payments", "reminder_service", "open_saturday", "open_sunday"], "products": ["ad_blue_cannister", "diesel_on", "red_diesel", "unleaded_95"], "website": null, "watchlist_id": null, "formatted_address": "Wieselburger Stra\u00dfe 2\nOberndorf an der Melk\n3281", "channel_of_trade": null}, {"id": "1587363564", "name": "Mauer bei Amstetten", "lat": 48.0825413, "lng": 14.8017456, "site_brand": "BP", "country_code": "AT", "address": "Hausmeninger Stra\u00dfe 74", "city": "Mauer bei Amstetten", "state": null, "postcode": "3362", "telephone": "+43 7475 52619", "facilities": ["tobacco", "car_wash", "toilet", "shop", "accepts_routex_cards", "reminder_service", "open_saturday", "open_sunday"], "products": ["ad_blue_cannister", "ad_blue_pump", "diesel_on", "ultimate", "ultimate_diesel", "ultimate_unleaded", "unleaded_95", "ad_blue"], "website": null, "watchlist_id": null, "formatted_address": "Hausmeninger Stra\u00dfe 74\nMauer bei Amstetten\n3362", "channel_of_trade": null}, {"id": "9873", "name": "Voellerndorf, Autobahn, PKW", "lat": 48.1774881, "lng": 15.5527113, "site_brand": "BP", "country_code": "AT", "address": "Autobahn St.P\u00f6lten-Pkw", "city": "V\u00f6llerndorf/St.P\u00f6lten", "state": null, "postcode": "3385", "telephone": "+43 2749 2511", "facilities": ["open_24_hours", "tobacco", "high_speed_pump", "truck_suitable_site", "toilet", "wifi", "motorway_site", "shop", "bakery_bistro", "restaurant", "wild_bean_cafe", "accepts_routex_cards", "accepts_toll_payments", "reminder_service", "open_saturday", "open_sunday"], "products": ["ad_blue_cannister", "diesel_on", "ultimate", "ultimate_diesel", "ultimate_unleaded", "unleaded_95"], "website": null, "watchlist_id": null, "formatted_address": "Autobahn St.P\u00f6lten-Pkw\nV\u00f6llerndorf/St.P\u00f6lten\n3385", "channel_of_trade": null}, {"id": "19004", "name": "Obergrafendorf, Hauptstr. 34", "lat": 48.1498, "lng": 15.5495, "site_brand": "BP", "country_code": "AT", "address": "Hauptstra\u00dfe 34", "city": "Obergrafendorf", "state": null, "postcode": "3200", "telephone": "+43 2747 2275", "facilities": ["tobacco", "car_wash", "toilet", "shop", "accepts_routex_cards", "accepts_toll_payments", "reminder_service", "open_saturday", "open_sunday"], "products": ["ad_blue_cannister", "diesel_on", "ultimate", "ultimate_diesel", "ultimate_unleaded", "unleaded_95"], "website": null, "watchlist_id": null, "formatted_address": "Hauptstra\u00dfe 34\nObergrafendorf\n3200", "channel_of_trade": null}, {"id": "486", "name": "Kemmelbach, Autobahn A1, Rasthausstr. 10", "lat": 48.1551024, "lng": 15.1001745, "site_brand": "BP", "country_code": "AT", "address": "Autobahn A1, Rasthausstra\u00dfe 10", "city": "Kemmelbach", "state": null, "postcode": "3373", "telephone": "+43 7412 52748", "facilities": ["open_24_hours", "tobacco", "high_speed_pump", "truck_parking", "truck_suitable_site", "toilet", "wifi", "motorway_site", "shop", "bakery_bistro", "restaurant", "wild_bean_cafe", "accepts_routex_cards", "accepts_toll_payments", "reminder_service", "open_saturday", "open_sunday"], "products": ["ad_blue_cannister", "ad_blue_pump", "diesel_on", "ultimate", "ultimate_diesel", "ultimate_unleaded", "unleaded_95", "ad_blue"], "website": null, "watchlist_id": null, "formatted_address": "Autobahn A1, Rasthausstra\u00dfe 10\nKemmelbach\n3373", "channel_of_trade": null}, {"id": "771", "name": "Wieselburg, Zur Autobahn 2", "lat": 48.135225, "lng": 15.141678, "site_brand": "BP", "country_code": "AT", "address": "Zur Autobahn 2", "city": "Wieselburg", "state": null, "postcode": "3250", "telephone": "+43 7416 58788", "facilities": ["tobacco", "car_wash", "high_speed_pump", "truck_suitable_site", "toilet", "shop", "bakery_bistro", "wild_bean_cafe", "accepts_routex_cards", "accepts_toll_payments", "reminder_service", "open_saturday", "open_sunday"], "products": ["ad_blue_cannister", "diesel_on", "ultimate", "ultimate_diesel", "ultimate_unleaded", "unleaded_95"], "website": null, "watchlist_id": null, "formatted_address": "Zur Autobahn 2\nWieselburg\n3250", "channel_of_trade": null}, {"id": "1105998879", "name": "Klein Poechlarn, Wachauerstrasse 4", "lat": 48.21736, "lng": 15.2160691, "site_brand": "BP", "country_code": "AT", "address": "Wachauerstra\u00dfe 4", "city": "Klein P\u00f6chlarn", "state": null, "postcode": "3660", "telephone": "+43 7413 8008", "facilities": ["tobacco", "car_wash", "toilet", "shop", "accepts_routex_cards", "accepts_toll_payments", "reminder_service", "open_saturday", "open_sunday"], "products": ["ad_blue_cannister", "diesel_on", "ultimate", "ultimate_diesel", "ultimate_unleaded", "unleaded_95"], "website": null, "watchlist_id": null, "formatted_address": "Wachauerstra\u00dfe 4\nKlein P\u00f6chlarn\n3660", "channel_of_trade": null}, {"id": "2043813079", "name": "Persenbeug, Nibelungenstrasse 68", "lat": 48.1898373, "lng": 15.0960731, "site_brand": "BP", "country_code": "AT", "address": "Nibelungenstra\u00dfe 68", "city": "Persenbeug", "state": null, "postcode": "3680", "telephone": "+43 7412 54840", "facilities": ["tobacco", "car_wash", "toilet", "shop", "accepts_routex_cards", "accepts_toll_payments", "reminder_service"], "products": ["ad_blue_cannister", "diesel_on", "ultimate", "ultimate_diesel", "ultimate_unleaded", "unleaded_95"], "website": null, "watchlist_id": null, "formatted_address": "Nibelungenstra\u00dfe 68\nPersenbeug\n3680", "channel_of_trade": null}, {"id": "1597954519", "name": "Poechlarn, Reichsstr. 14", "lat": 48.198069, "lng": 15.221268, "site_brand": "BP", "country_code": "AT", "address": "Reichsstra\u00dfe 14", "city": "P\u00f6chlarn", "state": null, "postcode": "3380", "telephone": "+43 2757 20212", "facilities": ["open_24_hours", "toilet", "shop", "restaurant", "accepts_routex_cards", "accepts_toll_payments", "reminder_service", "open_saturday", "open_sunday"], "products": ["ad_blue_cannister", "ad_blue_pump", "diesel_on", "lpg", "natural_gas", "ultimate", "ultimate_diesel", "ultimate_unleaded", "unleaded_95", "ad_blue"], "website": null, "watchlist_id": null, "formatted_address": "Reichsstra\u00dfe 14\nP\u00f6chlarn\n3380", "channel_of_trade": null}, {"id": "418", "name": "Gerasdorf, Leopoldauerstr. 7", "lat": 48.2942543, "lng": 16.4675981, "site_brand": "BP", "country_code": "AT", "address": "Leopoldauerstra\u00dfe 1", "city": "Gerasdorf", "state": null, "postcode": "2201", "telephone": "+43 2246 2334", "facilities": ["tobacco", "car_wash", "high_speed_pump", "truck_suitable_site", "toilet", "shop", "wild_bean_cafe", "accepts_routex_cards", "accepts_toll_payments", "reminder_service", "open_saturday", "open_sunday"], "products": ["ad_blue_cannister", "diesel_on", "ultimate", "ultimate_diesel", "ultimate_unleaded", "unleaded_95"], "website": null, "watchlist_id": null, "formatted_address": "Leopoldauerstra\u00dfe 1\nGerasdorf\n2201", "channel_of_trade": null}, {"id": "763264043", "name": "Leopoldsdorf im Marchfeld, Hauptstr. 22", "lat": 48.2258029, "lng": 16.6952783, "site_brand": "BP", "country_code": "AT", "address": "Hauptstra\u00dfe 22", "city": "Leopoldsdorf im Marchfeld", "state": null, "postcode": "2285", "telephone": "+43 2216 202363", "facilities": ["car_wash", "shop", "accepts_routex_cards", "accepts_toll_payments", "reminder_service", "open_saturday", "open_sunday"], "products": ["ad_blue_cannister", "ad_blue_pump", "diesel_on", "ultimate", "ultimate_diesel", "ultimate_unleaded", "unleaded_95", "ad_blue"], "website": null, "watchlist_id": null, "formatted_address": "Hauptstra\u00dfe 22\nLeopoldsdorf im Marchfeld\n2285", "channel_of_trade": null}, {"id": "642", "name": "Stockerau, Pragerstr./Hornerstr.", "lat": 48.3859492, "lng": 16.1987658, "site_brand": "BP", "country_code": "AT", "address": "Pragerstra\u00dfe/Hornerstra\u00dfe", "city": "Stockerau", "state": null, "postcode": "2000", "telephone": "+43 2266 62438", "facilities": ["tobacco", "car_wash", "high_speed_pump", "truck_suitable_site", "toilet", "bakery_bistro", "accepts_routex_cards", "accepts_toll_payments", "reminder_service", "open_saturday", "open_sunday"], "products": ["ad_blue_cannister", "diesel_on", "ultimate", "ultimate_diesel", "ultimate_unleaded", "unleaded_95"], "website": null, "watchlist_id": null, "formatted_address": "Pragerstra\u00dfe/Hornerstra\u00dfe\nStockerau\n2000", "channel_of_trade": null}, {"id": "735", "name": "Wien 20, Handelskai 90", "lat": 48.2431, "lng": 16.3841, "site_brand": "BP", "country_code": "AT", "address": "Handelskai 90", "city": "Wien", "state": null, "postcode": "1200", "telephone": "800223350", "facilities": ["accepts_routex_cards", "reminder_service", "open_saturday", "open_sunday"], "products": ["diesel_on", "unleaded_95"], "website": null, "watchlist_id": null, "formatted_address": "Handelskai 90\nWien\n1200", "channel_of_trade": null}, {"id": "746", "name": "Wien 19, Krottenbachstr. 17", "lat": 48.240355, "lng": 16.341965, "site_brand": "BP", "country_code": "AT", "address": "Krottenbachstra\u00dfe 17", "city": "Wien", "state": null, "postcode": "1190", "telephone": "+43 1 3681379", "facilities": ["tobacco", "high_speed_pump", "truck_suitable_site", "toilet", "merkur", "shop", "bakery_bistro", "wild_bean_cafe", "accepts_routex_cards", "accepts_toll_payments", "reminder_service", "open_saturday", "open_sunday"], "products": ["ad_blue_cannister", "diesel_on", "ultimate", "ultimate_diesel", "ultimate_unleaded", "unleaded_95"], "website": null, "watchlist_id": null, "formatted_address": "Krottenbachstra\u00dfe 17\nWien\n1190", "channel_of_trade": null}, {"id": "9895", "name": "Wien 21, Bruennerstr. 186", "lat": 48.2837235, "lng": 16.4133932, "site_brand": "BP", "country_code": "AT", "address": "Br\u00fcnnerstra\u00dfe 186", "city": "Wien", "state": null, "postcode": "1210", "telephone": "+43 1 2926869", "facilities": ["open_24_hours", "tobacco", "car_wash", "high_speed_pump", "truck_suitable_site", "toilet", "merkur", "shop", "bakery_bistro", "restaurant", "wild_bean_cafe", "accepts_routex_cards", "accepts_toll_payments", "reminder_service", "open_saturday", "open_sunday"], "products": ["ad_blue_cannister", "diesel_on", "ultimate", "ultimate_diesel", "ultimate_unleaded", "unleaded_95"], "website": null, "watchlist_id": null, "formatted_address": "Br\u00fcnnerstra\u00dfe 186\nWien\n1210", "channel_of_trade": null}, {"id": "1324374001", "name": "Wien, Siemensstr. 105 B", "lat": 48.267149, "lng": 16.428972, "site_brand": "BP", "country_code": "AT", "address": "Siemensstra\u00dfe 105b", "city": "Wien", "state": null, "postcode": "1210", "telephone": "+43 1 2580094", "facilities": ["toilet", "shop", "restaurant", "accepts_routex_cards", "accepts_toll_payments", "reminder_service", "open_saturday", "open_sunday"], "products": ["ad_blue_cannister", "diesel_on", "natural_gas", "ultimate", "ultimate_diesel", "ultimate_unleaded", "unleaded_95"], "website": null, "watchlist_id": null, "formatted_address": "Siemensstra\u00dfe 105b\nWien\n1210", "channel_of_trade": null}, {"id": "136428437", "name": "20,DRESDNERSTRASSE 8", "lat": 48.2408, "lng": 16.3746, "site_brand": "BP", "country_code": "AT", "address": "Dresdnerstra\u00dfe 8", "city": "Wien", "state": null, "postcode": "1200", "telephone": "+43 1 3304231", "facilities": ["open_24_hours", "car_wash", "shop", "wild_bean_cafe", "accepts_routex_cards", "accepts_toll_payments", "open_saturday", "open_sunday"], "products": ["ad_blue_cannister", "diesel_on", "ultimate", "ultimate_diesel", "ultimate_unleaded", "unleaded_95"], "website": null, "watchlist_id": null, "formatted_address": "Dresdnerstra\u00dfe 8\nWien\n1200", "channel_of_trade": null}, {"id": "1815862924", "name": "Tulln an der Donau, Staasdorfer Str. 1", "lat": 48.3261402, "lng": 16.059315, "site_brand": "BP", "country_code": "AT", "address": "Staasdorferstra\u00dfe 1", "city": "Tulln", "state": null, "postcode": "3430", "telephone": "+43 2272 62523", "facilities": ["toilet", "shop", "restaurant", "accepts_routex_cards", "accepts_toll_payments", "reminder_service", "open_saturday", "open_sunday"], "products": ["ad_blue_cannister", "ad_blue_pump", "diesel_on", "ultimate", "ultimate_diesel", "ultimate_unleaded", "unleaded_95", "ad_blue"], "website": null, "watchlist_id": null, "formatted_address": "Staasdorferstra\u00dfe 1\nTulln\n3430", "channel_of_trade": null}, {"id": "769", "name": "Wien 22, Wr. Nordrandstr. B302 Gew. Park Stadlau", "lat": 48.2476153, "lng": 16.4658336, "site_brand": "BP", "country_code": "AT", "address": "Gewerbeparkstr.On1 Gew.Park Stadlau", "city": "Wien", "state": null, "postcode": "1220", "telephone": "+43 1 7344935", "facilities": ["open_24_hours", "tobacco", "car_wash", "high_speed_pump", "truck_parking", "truck_suitable_site", "toilet", "shop", "bakery_bistro", "wild_bean_cafe", "accepts_routex_cards", "accepts_toll_payments", "reminder_service", "open_saturday", "open_sunday"], "products": ["ad_blue_cannister", "ad_blue_pump", "diesel_on", "ultimate", "ultimate_diesel", "ultimate_unleaded", "unleaded_95", "ad_blue"], "website": null, "watchlist_id": null, "formatted_address": "Gewerbeparkstr.On1 Gew.Park Stadlau\nWien\n1220", "channel_of_trade": null}, {"id": "87249014", "name": "Steyr-Gleink, Ennser Str. 95", "lat": 48.2673928, "lng": 16.4293918, "site_brand": "BP", "country_code": "AT", "address": "Ennserstra\u00dfe 95", "city": "Steyr-Gleink", "state": null, "postcode": "4407", "telephone": "+43 732 664001", "facilities": ["toilet", "accepts_routex_cards", "reminder_service", "open_saturday", "open_sunday"], "products": ["ad_blue_cannister", "diesel_on", "ultimate", "ultimate_diesel", "ultimate_unleaded", "unleaded_95"], "website": null, "watchlist_id": "87249014", "formatted_address": "Ennserstra\u00dfe 95\nSteyr-Gleink\n4407", "channel_of_trade": null}, {"id": "707", "name": "Wien 21, Bruennerstr. 57A", "lat": 48.267139, "lng": 16.402564, "site_brand": "BP", "country_code": "AT", "address": "Br\u00fcnnerstra\u00dfe 57c", "city": "Wien", "state": null, "postcode": "1210", "telephone": "+43 1 2782239", "facilities": ["open_24_hours", "tobacco", "car_wash", "high_speed_pump", "truck_suitable_site", "toilet", "shop", "bakery_bistro", "wild_bean_cafe", "accepts_routex_cards", "accepts_toll_payments", "reminder_service", "open_saturday", "open_sunday"], "products": ["ad_blue_cannister", "diesel_on", "ultimate", "ultimate_diesel", "ultimate_unleaded", "unleaded_95"], "website": null, "watchlist_id": null, "formatted_address": "Br\u00fcnnerstra\u00dfe 57c\nWien\n1210", "channel_of_trade": null}, {"id": "739", "name": "Wien 19, Heiligenstaedterstr. 77", "lat": 48.2440263, "lng": 16.3615186, "site_brand": "BP", "country_code": "AT", "address": "Heiligenst\u00e4dterstra\u00dfe 77", "city": "Wien", "state": null, "postcode": "1190", "telephone": "+43 1 3681494", "facilities": ["open_24_hours", "tobacco", "car_wash", "high_speed_pump", "truck_suitable_site", "toilet", "merkur", "shop", "bakery_bistro", "wild_bean_cafe", "accepts_routex_cards", "accepts_toll_payments", "reminder_service", "open_saturday", "open_sunday"], "products": ["ad_blue_cannister", "diesel_on", "ultimate", "ultimate_diesel", "ultimate_unleaded", "unleaded_95"], "website": null, "watchlist_id": null, "formatted_address": "Heiligenst\u00e4dterstra\u00dfe 77\nWien\n1190", "channel_of_trade": null}, {"id": "349", "name": "Alland (A21)", "lat": 48.070115, "lng": 16.06662, "site_brand": "BP", "country_code": "AT", "address": "Au\u00dfenringautobahn A21", "city": "Alland", "state": null, "postcode": "2534", "telephone": "+43 2258 76180", "facilities": ["open_24_hours", "tobacco", "high_speed_pump", "truck_parking", "truck_suitable_site", "disabled_facilities", "toilet", "wifi", "aral_store", "motorway_site", "supermarket", "shop", "bakery_bistro", "ms_simply_food", "restaurant", "wild_bean_cafe", "accepts_routex_cards", "accepts_toll_payments", "reminder_service", "open_saturday", "open_sunday"], "products": ["ad_blue_cannister", "ad_blue_pump", "diesel_on", "ultimate", "ultimate_diesel", "ultimate_unleaded", "unleaded_95", "ad_blue"], "website": null, "watchlist_id": null, "formatted_address": "Au\u00dfenringautobahn A21\nAlland\n2534", "channel_of_trade": null}, {"id": "8955", "name": "Natschbach, Schnellstr. S6", "lat": 47.7067365, "lng": 16.102159, "site_brand": "BP", "country_code": "AT", "address": "Schnellstra\u00dfe S 6", "city": "Natschbach", "state": null, "postcode": "2620", "telephone": "+43 2635 69714", "facilities": ["open_24_hours", "tobacco", "high_speed_pump", "truck_suitable_site", "toilet", "bakery_bistro", "accepts_routex_cards", "accepts_toll_payments", "reminder_service", "open_saturday", "open_sunday"], "products": ["ad_blue_cannister", "diesel_on", "ultimate", "ultimate_diesel", "ultimate_unleaded", "unleaded_95"], "website": null, "watchlist_id": null, "formatted_address": "Schnellstra\u00dfe S 6\nNatschbach\n2620", "channel_of_trade": null}, {"id": "9850", "name": "Berndorf, Leobersdorfer Str. 12", "lat": 47.9436, "lng": 16.1115, "site_brand": "BP", "country_code": "AT", "address": "Leobersdorfer Stra\u00dfe 12", "city": "Berndorf", "state": null, "postcode": "2560", "telephone": "+43 2672 82579", "facilities": ["tobacco", "car_wash", "high_speed_pump", "truck_suitable_site", "toilet", "merkur", "shop", "bakery_bistro", "wild_bean_cafe", "accepts_routex_cards", "accepts_toll_payments", "reminder_service", "open_saturday", "open_sunday"], "products": ["ad_blue_cannister", "diesel_on", "ultimate", "ultimate_diesel", "ultimate_unleaded", "unleaded_95"], "website": null, "watchlist_id": null, "formatted_address": "Leobersdorfer Stra\u00dfe 12\nBerndorf\n2560", "channel_of_trade": null}, {"id": "744", "name": "Wien 11, Kaiser Ebersdorfer Str. 248-250", "lat": 48.1596809, "lng": 16.4577638, "site_brand": "BP", "country_code": "AT", "address": "Kaiser Ebersdorferstra\u00dfe 248-250", "city": "Wien", "state": null, "postcode": "1110", "telephone": "+43 676 5606735", "facilities": ["tobacco", "car_wash", "high_speed_pump", "truck_suitable_site", "toilet", "merkur", "shop", "bakery_bistro", "wild_bean_cafe", "accepts_routex_cards", "accepts_toll_payments", "reminder_service", "open_saturday", "open_sunday"], "products": ["ad_blue_cannister", "diesel_on", "ultimate", "ultimate_diesel", "ultimate_unleaded", "unleaded_95"], "website": null, "watchlist_id": null, "formatted_address": "Kaiser Ebersdorferstra\u00dfe 248-250\nWien\n1110", "channel_of_trade": null}, {"id": "770", "name": "Wien 11, Zinnergasse 4", "lat": 48.1612, "lng": 16.4715, "site_brand": "BP", "country_code": "AT", "address": "Zinnergasse 4", "city": "Wien", "state": null, "postcode": "1110", "telephone": "+43 1 7676404", "facilities": ["tobacco", "car_wash", "high_speed_pump", "truck_suitable_site", "toilet", "shop", "bakery_bistro", "wild_bean_cafe", "accepts_routex_cards", "accepts_toll_payments", "reminder_service", "open_saturday", "open_sunday"], "products": ["ad_blue_cannister", "diesel_on", "ultimate", "ultimate_diesel", "ultimate_unleaded", "unleaded_95"], "website": null, "watchlist_id": null, "formatted_address": "Zinnergasse 4\nWien\n1110", "channel_of_trade": null}, {"id": "572", "name": "Neusiedl/See, Wienerstr. 69", "lat": 47.9580858, "lng": 16.8352404, "site_brand": "BP", "country_code": "AT", "address": "Wienerstra\u00dfe 69", "city": "Neusiedl am See", "state": null, "postcode": "7100", "telephone": "+43 2167 314412", "facilities": ["open_24_hours", "tobacco", "car_wash", "high_speed_pump", "truck_suitable_site", "toilet", "shop", "accepts_routex_cards", "accepts_toll_payments", "reminder_service", "open_saturday", "open_sunday"], "products": ["ad_blue_cannister", "diesel_on", "ultimate", "ultimate_diesel", "ultimate_unleaded", "unleaded_95"], "website": null, "watchlist_id": null, "formatted_address": "Wienerstra\u00dfe 69\nNeusiedl am See\n7100", "channel_of_trade": null}, {"id": "720", "name": "Wien 21, Einzingerstr. 2", "lat": 48.2825, "lng": 16.3799, "site_brand": "BP", "country_code": "AT", "address": "Einzingergasse 2", "city": "Wien", "state": null, "postcode": "1210", "telephone": "+43 1 2704191", "facilities": ["open_24_hours", "tobacco", "car_wash", "high_speed_pump", "truck_suitable_site", "toilet", "merkur", "shop", "bakery_bistro", "wild_bean_cafe", "accepts_routex_cards", "accepts_toll_payments", "reminder_service", "open_saturday", "open_sunday"], "products": ["ad_blue_cannister", "diesel_on", "ultimate", "ultimate_diesel", "ultimate_unleaded", "unleaded_95"], "website": null, "watchlist_id": null, "formatted_address": "Einzingergasse 2\nWien\n1210", "channel_of_trade": null}, {"id": "723", "name": "Wien 22, Erzherzog Karlstr. 253", "lat": 48.2206, "lng": 16.4799, "site_brand": "BP", "country_code": "AT", "address": "Erzherzog-Karl-Stra\u00dfe 253", "city": "Wien", "state": null, "postcode": "1220", "telephone": "+43 1 2821480", "facilities": ["tobacco", "car_wash", "high_speed_pump", "truck_suitable_site", "toilet", "shop", "bakery_bistro", "wild_bean_cafe", "accepts_routex_cards", "accepts_toll_payments", "reminder_service", "open_saturday", "open_sunday"], "products": ["ad_blue_cannister", "diesel_on", "ultimate", "ultimate_diesel", "ultimate_unleaded", "unleaded_95"], "website": null, "watchlist_id": null, "formatted_address": "Erzherzog-Karl-Stra\u00dfe 253\nWien\n1220", "channel_of_trade": null}, {"id": "727", "name": "Wien 16, Gablenzgasse 72", "lat": 48.2059, "lng": 16.3218, "site_brand": "BP", "country_code": "AT", "address": "Gablenzgasse 72", "city": "Wien", "state": null, "postcode": "1160", "telephone": "+43 1 4921006", "facilities": ["tobacco", "high_speed_pump", "truck_suitable_site", "toilet", "merkur", "shop", "bakery_bistro", "wild_bean_cafe", "accepts_routex_cards", "reminder_service", "open_saturday", "open_sunday"], "products": ["ad_blue_cannister", "diesel_on", "ultimate", "ultimate_diesel", "ultimate_unleaded", "unleaded_95"], "website": null, "watchlist_id": null, "formatted_address": "Gablenzgasse 72\nWien\n1160", "channel_of_trade": null}, {"id": "734", "name": "Wien 17, Hernalser Hauptstr. 32-34", "lat": 48.2171142, "lng": 16.3382813, "site_brand": "BP", "country_code": "AT", "address": "Hernalser Hauptstra\u00dfe 32-34", "city": "Wien", "state": null, "postcode": "1170", "telephone": "+43 1 4064649", "facilities": ["tobacco", "car_wash", "high_speed_pump", "truck_suitable_site", "toilet", "merkur", "shop", "bakery_bistro", "wild_bean_cafe", "accepts_routex_cards", "accepts_toll_payments", "reminder_service", "open_saturday", "open_sunday"], "products": ["ad_blue_cannister", "diesel_on", "ultimate", "ultimate_diesel", "ultimate_unleaded", "unleaded_95"], "website": null, "watchlist_id": null, "formatted_address": "Hernalser Hauptstra\u00dfe 32-34\nWien\n1170", "channel_of_trade": null}, {"id": "737", "name": "Wien 02, Handelskai 276-280/Offbg.", "lat": 48.216659, "lng": 16.416943, "site_brand": "BP", "country_code": "AT", "address": "Handelskai 276-280", "city": "Wien", "state": null, "postcode": "1020", "telephone": "+43 1 7293183", "facilities": ["open_24_hours", "tobacco", "car_wash", "high_speed_pump", "truck_suitable_site", "toilet", "merkur", "shop", "bakery_bistro", "wild_bean_cafe", "accepts_routex_cards", "accepts_toll_payments", "reminder_service", "open_saturday", "open_sunday"], "products": ["ad_blue_cannister", "diesel_on", "ultimate", "ultimate_diesel", "ultimate_unleaded", "unleaded_95"], "website": null, "watchlist_id": null, "formatted_address": "Handelskai 276-280\nWien\n1020", "channel_of_trade": null}, {"id": "751", "name": "Wien 06, Linke Wienzeile 90-92", "lat": 48.1948633, "lng": 16.3537291, "site_brand": "BP", "country_code": "AT", "address": "Linke Wienzeile 90-92", "city": "Wien", "state": null, "postcode": "1060", "telephone": "+43 1 5856962", "facilities": ["tobacco", "high_speed_pump", "truck_suitable_site", "toilet", "shop", "bakery_bistro", "wild_bean_cafe", "accepts_routex_cards", "accepts_toll_payments", "reminder_service", "open_saturday", "open_sunday"], "products": ["ad_blue_cannister", "diesel_on", "ultimate", "ultimate_diesel", "ultimate_unleaded", "unleaded_95"], "website": null, "watchlist_id": null, "formatted_address": "Linke Wienzeile 90-92\nWien\n1060", "channel_of_trade": null}, {"id": "755", "name": "Wien 14, Maroltingergasse 5", "lat": 48.2034159, "lng": 16.3028248, "site_brand": "BP", "country_code": "AT", "address": "Maroltingergasse 5", "city": "Wien", "state": null, "postcode": "1140", "telephone": "+43 1 9143237", "facilities": ["open_24_hours", "tobacco", "high_speed_pump", "truck_suitable_site", "toilet", "shop", "bakery_bistro", "wild_bean_cafe", "accepts_routex_cards", "accepts_toll_payments", "reminder_service", "open_saturday", "open_sunday"], "products": ["ad_blue_cannister", "diesel_on", "ultimate", "ultimate_diesel", "ultimate_unleaded", "unleaded_95"], "website": null, "watchlist_id": null, "formatted_address": "Maroltingergasse 5\nWien\n1140", "channel_of_trade": null}, {"id": "728", "name": "Wien 12, Gaudenzdorfer Guertel 77", "lat": 48.187575, "lng": 16.339478, "site_brand": "BP", "country_code": "AT", "address": "Gaudenzdorfer G\u00fcrtel 75", "city": "Wien", "state": null, "postcode": "1120", "telephone": "+43 1 8155177", "facilities": ["open_24_hours", "tobacco", "high_speed_pump", "truck_suitable_site", "toilet", "merkur", "shop", "bakery_bistro", "wild_bean_cafe", "accepts_routex_cards", "accepts_toll_payments", "reminder_service", "open_saturday", "open_sunday"], "products": ["ad_blue_cannister", "diesel_on", "ultimate", "ultimate_diesel", "ultimate_unleaded", "unleaded_95"], "website": null, "watchlist_id": null, "formatted_address": "Gaudenzdorfer G\u00fcrtel 75\nWien\n1120", "channel_of_trade": null}, {"id": "754", "name": "Wien 05, Margaretenguertel 43-45", "lat": 48.1798, "lng": 16.3517, "site_brand": "BP", "country_code": "AT", "address": "Margareteng\u00fcrtel 43-45", "city": "Wien", "state": null, "postcode": "1050", "telephone": "+43 1 5480292", "facilities": ["open_24_hours", "tobacco", "car_wash", "high_speed_pump", "truck_suitable_site", "toilet", "merkur", "shop", "bakery_bistro", "wild_bean_cafe", "accepts_routex_cards", "accepts_toll_payments", "reminder_service", "open_saturday", "open_sunday"], "products": ["ad_blue_cannister", "diesel_on", "ultimate", "ultimate_diesel", "ultimate_unleaded", "unleaded_95"], "website": null, "watchlist_id": null, "formatted_address": "Margareteng\u00fcrtel 43-45\nWien\n1050", "channel_of_trade": null}, {"id": "765", "name": "Wien 10, Triesterstr. 104", "lat": 48.1573, "lng": 16.3411, "site_brand": "BP", "country_code": "AT", "address": "Triesterstra\u00dfe 104", "city": "Wien", "state": null, "postcode": "1100", "telephone": "+43 1 6674134", "facilities": ["open_24_hours", "tobacco", "car_wash", "high_speed_pump", "truck_suitable_site", "toilet", "merkur", "shop", "bakery_bistro", "wild_bean_cafe", "accepts_routex_cards", "accepts_toll_payments", "reminder_service", "open_saturday", "open_sunday"], "products": ["ad_blue_cannister", "diesel_on", "ultimate", "ultimate_diesel", "ultimate_unleaded", "unleaded_95"], "website": null, "watchlist_id": null, "formatted_address": "Triesterstra\u00dfe 104\nWien\n1100", "channel_of_trade": null}, {"id": "766", "name": "Wien 10, Triesterstr. 153", "lat": 48.1565, "lng": 16.3416, "site_brand": "BP", "country_code": "AT", "address": "Triesterstra\u00dfe 153", "city": "Wien", "state": null, "postcode": "1100", "telephone": "+43 1 6167464", "facilities": ["open_24_hours", "tobacco", "car_wash", "high_speed_pump", "truck_suitable_site", "toilet", "merkur", "shop", "bakery_bistro", "wild_bean_cafe", "accepts_routex_cards", "accepts_toll_payments", "reminder_service", "open_saturday", "open_sunday"], "products": ["ad_blue_cannister", "ad_blue_pump", "diesel_on", "ultimate", "ultimate_diesel", "ultimate_unleaded", "unleaded_95", "ad_blue"], "website": null, "watchlist_id": null, "formatted_address": "Triesterstra\u00dfe 153\nWien\n1100", "channel_of_trade": null}, {"id": "768", "name": "Wien 12, Wienerbergstr. 29", "lat": 48.1709, "lng": 16.3368, "site_brand": "BP", "country_code": "AT", "address": "Wienerbergstra\u00dfe 29", "city": "Wien", "state": null, "postcode": "1120", "telephone": "+43 1 8156279", "facilities": ["tobacco", "car_wash", "high_speed_pump", "truck_suitable_site", "toilet", "merkur", "shop", "bakery_bistro", "wild_bean_cafe", "accepts_routex_cards", "accepts_toll_payments", "reminder_service", "open_saturday", "open_sunday"], "products": ["ad_blue_cannister", "diesel_on", "ultimate", "ultimate_diesel", "ultimate_unleaded", "unleaded_95"], "website": null, "watchlist_id": null, "formatted_address": "Wienerbergstra\u00dfe 29\nWien\n1120", "channel_of_trade": null}, {"id": "9851", "name": "Wien 10, Triesterstr. 68", "lat": 48.1656, "lng": 16.3465, "site_brand": "BP", "country_code": "AT", "address": "Triesterstra\u00dfe 68", "city": "Wien", "state": null, "postcode": "1100", "telephone": "+43 1 6676173", "facilities": ["open_24_hours", "tobacco", "car_wash", "high_speed_pump", "truck_suitable_site", "toilet", "merkur", "shop", "bakery_bistro", "wild_bean_cafe", "accepts_routex_cards", "accepts_toll_payments", "reminder_service", "shop_open_24_hours", "open_saturday", "open_sunday"], "products": ["ad_blue_cannister", "auto_gas", "diesel_on", "natural_gas", "ultimate", "ultimate_diesel", "ultimate_unleaded", "unleaded_95"], "website": null, "watchlist_id": null, "formatted_address": "Triesterstra\u00dfe 68\nWien\n1100", "channel_of_trade": null}, {"id": "597", "name": "Reichenau an der Rax, Hauptstr. 92", "lat": 47.6979763, "lng": 15.836456, "site_brand": "BP", "country_code": "AT", "address": "Hauptstra\u00dfe 92", "city": "Reichenau an der Rax", "state": null, "postcode": "2651", "telephone": "+43 2666 52424", "facilities": ["tobacco", "car_wash", "toilet", "shop", "accepts_routex_cards", "accepts_toll_payments", "reminder_service", "open_saturday", "open_sunday"], "products": ["ad_blue_cannister", "diesel_on", "ultimate", "ultimate_diesel", "ultimate_unleaded", "unleaded_95"], "website": null, "watchlist_id": null, "formatted_address": "Hauptstra\u00dfe 92\nReichenau an der Rax\n2651", "channel_of_trade": null}, {"id": "738", "name": "Wien 14, Hadikgasse 252/Kefergasse", "lat": 48.1927411, "lng": 16.2775969, "site_brand": "BP", "country_code": "AT", "address": "Hadikgasse/Kefergasse", "city": "Wien", "state": null, "postcode": "1140", "telephone": "+43 1 9141238", "facilities": ["open_24_hours", "tobacco", "car_wash", "truck_suitable_site", "toilet", "merkur", "shop", "bakery_bistro", "wild_bean_cafe", "accepts_routex_cards", "accepts_toll_payments", "reminder_service", "open_saturday", "open_sunday"], "products": ["ad_blue_cannister", "diesel_on", "ultimate", "ultimate_diesel", "ultimate_unleaded", "unleaded_95"], "website": null, "watchlist_id": null, "formatted_address": "Hadikgasse/Kefergasse\nWien\n1140", "channel_of_trade": null}, {"id": "742", "name": "Wien 13, Hietz. Kai 133-135", "lat": 48.1915, "lng": 16.2798, "site_brand": "BP", "country_code": "AT", "address": "Hietzinger Kai 133-135", "city": "Wien", "state": null, "postcode": "1130", "telephone": "+43 1 8771451", "facilities": ["open_24_hours", "tobacco", "car_wash", "high_speed_pump", "truck_suitable_site", "toilet", "merkur", "shop", "bakery_bistro", "wild_bean_cafe", "accepts_routex_cards", "accepts_toll_payments", "reminder_service", "open_saturday", "open_sunday"], "products": ["ad_blue_cannister", "diesel_on", "ultimate", "ultimate_diesel", "ultimate_unleaded", "unleaded_95"], "website": null, "watchlist_id": null, "formatted_address": "Hietzinger Kai 133-135\nWien\n1130", "channel_of_trade": null}, {"id": "9833", "name": "Pressbaum, Hauptstr. 54", "lat": 48.1803, "lng": 16.078, "site_brand": "BP", "country_code": "AT", "address": "Hauptstra\u00dfe 54", "city": "Pressbaum", "state": null, "postcode": "3021", "telephone": "+43 2233 52543", "facilities": ["tobacco", "car_wash", "high_speed_pump", "truck_suitable_site", "toilet", "merkur", "shop", "bakery_bistro", "restaurant", "wild_bean_cafe", "accepts_routex_cards", "accepts_toll_payments", "reminder_service", "open_saturday", "open_sunday"], "products": ["ad_blue_cannister", "diesel_on", "ultimate", "ultimate_diesel", "ultimate_unleaded", "unleaded_95"], "website": null, "watchlist_id": null, "formatted_address": "Hauptstra\u00dfe 54\nPressbaum\n3021", "channel_of_trade": null}, {"id": "781", "name": "Wr. Neudorf, IZ Sued II", "lat": 48.0788244, "lng": 16.323924, "site_brand": "BP", "country_code": "AT", "address": "Industriezentrum S\u00fcd II", "city": "Wiener Neudorf", "state": null, "postcode": "2351", "telephone": "+43 2236 62430", "facilities": ["tobacco", "car_wash", "high_speed_pump", "truck_suitable_site", "toilet", "shop", "bakery_bistro", "wild_bean_cafe", "accepts_routex_cards", "accepts_toll_payments", "reminder_service", "open_saturday", "open_sunday"], "products": ["ad_blue_cannister", "ad_blue_pump", "diesel_on", "ultimate", "ultimate_diesel", "ultimate_unleaded", "unleaded_95", "ad_blue"], "website": null, "watchlist_id": null, "formatted_address": "Industriezentrum S\u00fcd II\nWiener Neudorf\n2351", "channel_of_trade": null}, {"id": "2072749127", "name": "Achau, Lanzendorfer Str. 9", "lat": 48.0826508, "lng": 16.391651, "site_brand": "BP", "country_code": "AT", "address": "Lanzendorfer Stra\u00dfe 9", "city": "Achau", "state": null, "postcode": "2481", "telephone": "+43 2236 710698", "facilities": ["tobacco", "accepts_routex_cards", "accepts_toll_payments", "reminder_service", "open_saturday", "open_sunday"], "products": ["ad_blue_cannister", "diesel_on", "ultimate", "ultimate_diesel", "ultimate_unleaded", "unleaded_95"], "website": null, "watchlist_id": null, "formatted_address": "Lanzendorfer Stra\u00dfe 9\nAchau\n2481", "channel_of_trade": null}, {"id": "721", "name": "Wien 03, Erbergerlaende 30", "lat": 48.2012, "lng": 16.4037, "site_brand": "BP", "country_code": "AT", "address": "Erdbergerl\u00e4nde 30", "city": "Wien", "state": null, "postcode": "1030", "telephone": "+43 1 7154826", "facilities": ["open_24_hours", "tobacco", "car_wash", "toilet", "merkur", "shop", "bakery_bistro", "wild_bean_cafe", "accepts_routex_cards", "accepts_toll_payments", "reminder_service", "open_saturday", "open_sunday"], "products": ["ad_blue_cannister", "diesel_on", "ultimate", "ultimate_diesel", "ultimate_unleaded", "unleaded_95"], "website": null, "watchlist_id": null, "formatted_address": "Erdbergerl\u00e4nde 30\nWien\n1030", "channel_of_trade": null}, {"id": "722", "name": "Wien 03, Erdbergstr. 184", "lat": 48.193174, "lng": 16.410318, "site_brand": "BP", "country_code": "AT", "address": "Erdbergstra\u00dfe 184", "city": "Wien", "state": null, "postcode": "1030", "telephone": "+43 1 7963275", "facilities": ["open_24_hours", "tobacco", "car_wash", "toilet", "shop", "wild_bean_cafe", "accepts_routex_cards", "reminder_service", "open_saturday", "open_sunday"], "products": ["ad_blue_cannister", "ad_blue_pump", "diesel_on", "ultimate", "ultimate_diesel", "ultimate_unleaded", "unleaded_95", "ad_blue"], "website": null, "watchlist_id": null, "formatted_address": "Erdbergstra\u00dfe 184\nWien\n1030", "channel_of_trade": null}, {"id": "726", "name": "Wien 01, Franz Josefskai 17/Morzinpl.", "lat": 48.212817, "lng": 16.375256, "site_brand": "BP", "country_code": "AT", "address": "Franz Josefskai/Morzinpl", "city": "Wien", "state": null, "postcode": "1010", "telephone": "+43 1 5337398", "facilities": ["open_24_hours", "tobacco", "high_speed_pump", "truck_suitable_site", "toilet", "shop", "bakery_bistro", "wild_bean_cafe", "accepts_routex_cards", "accepts_toll_payments", "reminder_service", "open_saturday", "open_sunday"], "products": ["ad_blue_cannister", "diesel_on", "ultimate", "ultimate_diesel", "ultimate_unleaded", "unleaded_95"], "website": null, "watchlist_id": null, "formatted_address": "Franz Josefskai/Morzinpl\nWien\n1010", "channel_of_trade": null}, {"id": "706", "name": "Wien 03, Arsenalstr. 5B", "lat": 48.1777, "lng": 16.3929, "site_brand": "BP", "country_code": "AT", "address": "Arsenalstra\u00dfe 5b", "city": "Wien", "state": null, "postcode": "1030", "telephone": "+43 1 7982552", "facilities": ["open_24_hours", "tobacco", "car_wash", "high_speed_pump", "truck_suitable_site", "toilet", "shop", "bakery_bistro", "wild_bean_cafe", "accepts_routex_cards", "accepts_toll_payments", "reminder_service", "open_saturday", "open_sunday"], "products": ["ad_blue_cannister", "diesel_on", "ultimate", "ultimate_diesel", "ultimate_unleaded", "unleaded_95"], "website": null, "watchlist_id": null, "formatted_address": "Arsenalstra\u00dfe 5b\nWien\n1030", "channel_of_trade": null}, {"id": "725", "name": "Wien 03, Franzosengraben 18", "lat": 48.1868885, "lng": 16.4129331, "site_brand": "BP", "country_code": "AT", "address": "Franzosengraben", "city": "Wien", "state": null, "postcode": "1030", "telephone": "+43 1 7988210", "facilities": ["tobacco", "high_speed_pump", "truck_suitable_site", "toilet", "merkur", "shop", "bakery_bistro", "wild_bean_cafe", "accepts_routex_cards", "accepts_toll_payments", "reminder_service", "open_saturday", "open_sunday"], "products": ["ad_blue_cannister", "ad_blue_pump", "diesel_on", "ultimate", "ultimate_diesel", "ultimate_unleaded", "unleaded_95", "ad_blue"], "website": null, "watchlist_id": null, "formatted_address": "Franzosengraben\nWien\n1030", "channel_of_trade": null}, {"id": "729", "name": "Wien 11, Geiselbergstr. 47/Hauffg. 35", "lat": 48.174907, "lng": 16.407979, "site_brand": "BP", "country_code": "AT", "address": "Geiselbergstr.47/Hauffg.35", "city": "Wien", "state": null, "postcode": "1110", "telephone": "+43 1 7495599", "facilities": ["tobacco", "car_wash", "high_speed_pump", "truck_suitable_site", "toilet", "merkur", "shop", "bakery_bistro", "wild_bean_cafe", "accepts_routex_cards", "accepts_toll_payments", "reminder_service", "open_saturday", "open_sunday"], "products": ["ad_blue_cannister", "diesel_on", "ultimate", "ultimate_diesel", "ultimate_unleaded", "unleaded_95"], "website": null, "watchlist_id": null, "formatted_address": "Geiselbergstr.47/Hauffg.35\nWien\n1110", "channel_of_trade": null}, {"id": "748", "name": "Wien 10, Laxenburgerstr. 2A", "lat": 48.183289, "lng": 16.373414, "site_brand": "BP", "country_code": "AT", "address": "Laxenburgerstra\u00dfe", "city": "Wien", "state": null, "postcode": "1100", "telephone": "+43 1 6044132", "facilities": ["open_24_hours", "tobacco", "car_wash", "high_speed_pump", "truck_suitable_site", "toilet", "shop", "bakery_bistro", "wild_bean_cafe", "accepts_routex_cards", "accepts_toll_payments", "reminder_service", "open_saturday", "open_sunday"], "products": ["ad_blue_cannister", "diesel_on", "ultimate", "ultimate_diesel", "ultimate_unleaded", "unleaded_95"], "website": null, "watchlist_id": null, "formatted_address": "Laxenburgerstra\u00dfe\nWien\n1100", "channel_of_trade": null}, {"id": "9902", "name": "Wien 10, L.V.Hoehnelgasse 11", "lat": 48.159663, "lng": 16.3866275, "site_brand": "BP", "country_code": "AT", "address": "L.V.H\u00f6hnelgasse", "city": "Wien", "state": null, "postcode": "1100", "telephone": "+43 1 6881900", "facilities": ["tobacco", "car_wash", "high_speed_pump", "truck_suitable_site", "toilet", "shop", "bakery_bistro", "wild_bean_cafe", "accepts_routex_cards", "accepts_toll_payments", "reminder_service", "open_saturday", "open_sunday"], "products": ["ad_blue_cannister", "diesel_on", "ultimate", "ultimate_diesel", "ultimate_unleaded", "unleaded_95"], "website": null, "watchlist_id": null, "formatted_address": "L.V.H\u00f6hnelgasse\nWien\n1100", "channel_of_trade": null}, {"id": "702", "name": "Wien 12, Altmannsdorferstr. 94", "lat": 48.162186, "lng": 16.3172537, "site_brand": "BP", "country_code": "AT", "address": "Altmannsdorferstra\u00dfe 94", "city": "Wien", "state": null, "postcode": "1120", "telephone": "+43 1 8043718", "facilities": ["open_24_hours", "tobacco", "high_speed_pump", "truck_suitable_site", "toilet", "merkur", "shop", "bakery_bistro", "wild_bean_cafe", "accepts_routex_cards", "accepts_toll_payments", "reminder_service", "open_saturday", "open_sunday"], "products": ["ad_blue_cannister", "diesel_on", "ultimate", "ultimate_diesel", "ultimate_unleaded", "unleaded_95"], "website": null, "watchlist_id": null, "formatted_address": "Altmannsdorferstra\u00dfe 94\nWien\n1120", "channel_of_trade": null}, {"id": "703", "name": "Wien 12, Altmannsdorferstr. 117", "lat": 48.1609269, "lng": 16.3186078, "site_brand": "BP", "country_code": "AT", "address": "Altmannsdorferstra\u00dfe 117", "city": "Wien", "state": null, "postcode": "1120", "telephone": "+43 1 6678737", "facilities": ["open_24_hours", "tobacco", "high_speed_pump", "truck_suitable_site", "toilet", "merkur", "shop", "bakery_bistro", "wild_bean_cafe", "accepts_routex_cards", "accepts_toll_payments", "reminder_service", "open_saturday", "open_sunday"], "products": ["ad_blue_cannister", "diesel_on", "ultimate", "ultimate_diesel", "ultimate_unleaded", "unleaded_95"], "website": null, "watchlist_id": null, "formatted_address": "Altmannsdorferstra\u00dfe 117\nWien\n1120", "channel_of_trade": null}, {"id": "724", "name": "Wien 12, Am Fasangarten 9", "lat": 48.1708611, "lng": 16.305914, "site_brand": "BP", "country_code": "AT", "address": "Am Fasangarten 9", "city": "Wien", "state": null, "postcode": "1120", "telephone": "+43 1 8135374", "facilities": ["tobacco", "car_wash", "high_speed_pump", "truck_suitable_site", "toilet", "shop", "bakery_bistro", "wild_bean_cafe", "accepts_routex_cards", "accepts_toll_payments", "reminder_service", "open_saturday", "open_sunday"], "products": ["ad_blue_cannister", "diesel_on", "truck_diesel", "ultimate", "ultimate_diesel", "ultimate_unleaded", "unleaded_95"], "website": null, "watchlist_id": null, "formatted_address": "Am Fasangarten 9\nWien\n1120", "channel_of_trade": null}, {"id": "752", "name": "Wien 14, Linzerstr. 135-137", "lat": 48.1934, "lng": 16.3017, "site_brand": "BP", "country_code": "AT", "address": "Linzer Stra\u00dfe 135-137", "city": "Wien", "state": null, "postcode": "1140", "telephone": "+43 1 9854327", "facilities": ["tobacco", "car_wash", "high_speed_pump", "truck_suitable_site", "toilet", "merkur", "shop", "bakery_bistro", "wild_bean_cafe", "accepts_routex_cards", "accepts_toll_payments", "reminder_service", "open_saturday", "open_sunday"], "products": ["ad_blue_cannister", "diesel_on", "ultimate", "ultimate_diesel", "ultimate_unleaded", "unleaded_95"], "website": null, "watchlist_id": null, "formatted_address": "Linzer Stra\u00dfe 135-137\nWien\n1140", "channel_of_trade": null}, {"id": "8962", "name": "Wien 12, Breitenfurterstr. 112", "lat": 48.160533, "lng": 16.309534, "site_brand": "BP", "country_code": "AT", "address": "Breitenfurter Stra\u00dfe 112", "city": "Wien", "state": null, "postcode": "1120", "telephone": "+43 1 8023624", "facilities": ["tobacco", "high_speed_pump", "truck_suitable_site", "toilet", "shop", "bakery_bistro", "wild_bean_cafe", "accepts_routex_cards", "accepts_toll_payments", "reminder_service", "open_saturday", "open_sunday"], "products": ["ad_blue_cannister", "diesel_on", "ultimate", "ultimate_diesel", "ultimate_unleaded", "unleaded_95"], "website": null, "watchlist_id": null, "formatted_address": "Breitenfurter Stra\u00dfe 112\nWien\n1120", "channel_of_trade": null}, {"id": "410", "name": "Frohsdorf, Wr.Neustaedterstr. 120", "lat": 47.7550212, "lng": 16.2528991, "site_brand": "BP", "country_code": "AT", "address": "Wiener Neust\u00e4dter Stra\u00dfe 120", "city": "Frohsdorf", "state": null, "postcode": "2821", "telephone": "800223350", "facilities": ["open_24_hours", "toilet", "accepts_routex_cards", "reminder_service", "open_saturday", "open_sunday"], "products": ["diesel_on", "unleaded_95"], "website": null, "watchlist_id": null, "formatted_address": "Wiener Neust\u00e4dter Stra\u00dfe 120\nFrohsdorf\n2821", "channel_of_trade": null}, {"id": "778", "name": "Woellersdorf, Autobahnzubringer", "lat": 47.859765, "lng": 16.180752, "site_brand": "BP", "country_code": "AT", "address": "Bundesstra\u00dfe 21, 406", "city": "W\u00f6llersdorf", "state": null, "postcode": "2752", "telephone": "+43 2633 42822", "facilities": ["tobacco", "high_speed_pump", "truck_suitable_site", "toilet", "shop", "bakery_bistro", "bistro", "accepts_routex_cards", "accepts_toll_payments", "reminder_service", "open_saturday", "open_sunday"], "products": ["ad_blue_cannister", "diesel_on", "ultimate", "ultimate_diesel", "ultimate_unleaded", "unleaded_95"], "website": null, "watchlist_id": null, "formatted_address": "Bundesstra\u00dfe 21, 406\nW\u00f6llersdorf\n2752", "channel_of_trade": null}, {"id": "622791075", "name": "Wr. Neustadt, Fischauergasse 124", "lat": 47.822355, "lng": 16.223539, "site_brand": "BP", "country_code": "AT", "address": "Fischauergasse 124", "city": "Wiener Neustadt", "state": null, "postcode": "2700", "telephone": "+43 2622 22724", "facilities": ["car_wash", "shop", "accepts_routex_cards", "reminder_service"], "products": ["diesel_on", "ultimate", "ultimate_diesel", "ultimate_unleaded", "unleaded_95"], "website": null, "watchlist_id": null, "formatted_address": "Fischauergasse 124\nWiener Neustadt\n2700", "channel_of_trade": null}, {"id": "8758", "name": "Schwechat-Flughafen, Ausfahrtsstr. 1", "lat": 48.124809, "lng": 16.561996, "site_brand": "BP", "country_code": "AT", "address": "Ausfahrtsstra\u00dfe", "city": "Schwechat-Flughafen", "state": null, "postcode": "1300", "telephone": "+43 1 700732618", "facilities": ["open_24_hours", "tobacco", "car_wash", "high_speed_pump", "truck_suitable_site", "toilet", "shop", "bakery_bistro", "wild_bean_cafe", "accepts_routex_cards", "accepts_toll_payments", "reminder_service", "open_saturday", "open_sunday"], "products": ["ad_blue_cannister", "diesel_on", "ultimate", "ultimate_diesel", "ultimate_unleaded", "unleaded_95"], "website": null, "watchlist_id": null, "formatted_address": "Ausfahrtsstra\u00dfe\nSchwechat-Flughafen\n1300", "channel_of_trade": null}, {"id": "453", "name": "Guntramsdorf, A2", "lat": 48.0341287, "lng": 16.3379655, "site_brand": "BP", "country_code": "AT", "address": "Autobahn A2", "city": "Guntramsdorf West", "state": null, "postcode": "2353", "telephone": "+43 2236 52003", "facilities": ["open_24_hours", "tobacco", "high_speed_pump", "truck_parking", "truck_suitable_site", "disabled_facilities", "toilet", "wifi", "motorway_site", "shop", "bakery_bistro", "restaurant", "wild_bean_cafe", "accepts_routex_cards", "accepts_toll_payments", "reminder_service", "open_saturday", "open_sunday"], "products": ["ad_blue_cannister", "ad_blue_pump", "diesel_on", "ultimate", "ultimate_diesel", "ultimate_unleaded", "unleaded_95", "ad_blue"], "website": null, "watchlist_id": null, "formatted_address": "Autobahn A2\nGuntramsdorf West\n2353", "channel_of_trade": null}, {"id": "9836", "name": "Traiskirchen, Wiener Str. 58", "lat": 48.021232, "lng": 16.297963, "site_brand": "BP", "country_code": "AT", "address": "Wiener Stra\u00dfe 58", "city": "Traiskirchen", "state": null, "postcode": "2514", "telephone": "+43 2252 52359", "facilities": ["open_24_hours", "tobacco", "car_wash", "high_speed_pump", "truck_suitable_site", "toilet", "shop", "wild_bean_cafe", "accepts_routex_cards", "accepts_toll_payments", "reminder_service", "open_saturday", "open_sunday"], "products": ["ad_blue_cannister", "diesel_on", "ultimate", "ultimate_diesel", "ultimate_unleaded", "unleaded_95"], "website": null, "watchlist_id": null, "formatted_address": "Wiener Stra\u00dfe 58\nTraiskirchen\n2514", "channel_of_trade": null}, {"id": "1432732079", "name": "Traiskirchen, Wiener Neustaedter Str. 134", "lat": 47.996178, "lng": 16.298568, "site_brand": "BP", "country_code": "AT", "address": "Wiener Neust\u00e4dter Str. 134", "city": "Traiskirchen", "state": null, "postcode": "2512", "telephone": "+43 2252 259140", "facilities": ["open_24_hours", "toilet", "shop", "restaurant", "accepts_routex_cards", "accepts_toll_payments", "reminder_service", "open_saturday", "open_sunday"], "products": ["ad_blue_cannister", "ad_blue_pump", "diesel_on", "lpg", "ultimate", "ultimate_diesel", "ultimate_unleaded", "unleaded_95", "ad_blue"], "website": null, "watchlist_id": null, "formatted_address": "Wiener Neust\u00e4dter Str. 134\nTraiskirchen\n2512", "channel_of_trade": null}, {"id": "1239192424", "name": "Leobersdorf, Hirtenberger Strasse 4E", "lat": 47.934682, "lng": 16.216976, "site_brand": "BP", "country_code": "AT", "address": "Hirtenberger Stra\u00dfe 4e", "city": "Leobersdorf", "state": null, "postcode": "2544", "telephone": "+43 2256 64606", "facilities": ["car_wash", "shop", "wild_bean_cafe", "accepts_routex_cards", "accepts_toll_payments", "open_saturday", "open_sunday"], "products": ["ad_blue_cannister", "ad_blue_pump", "diesel_on", "ultimate", "ultimate_diesel", "ultimate_unleaded", "unleaded_95", "ad_blue"], "website": null, "watchlist_id": null, "formatted_address": "Hirtenberger Stra\u00dfe 4e\nLeobersdorf\n2544", "channel_of_trade": null}, {"id": "393", "name": "Drasenhofen, Drasenhofen Nr. 237", "lat": 48.777404, "lng": 16.640757, "site_brand": "BP", "country_code": "AT", "address": "Br\u00fcnnerstra\u00dfe/Staatsgr.", "city": "Drasenhofen", "state": null, "postcode": "2165", "telephone": "+43 2554 85523", "facilities": ["open_24_hours", "high_speed_pump", "truck_suitable_site", "toilet", "shop", "accepts_routex_cards", "accepts_toll_payments", "reminder_service", "open_saturday", "open_sunday"], "products": ["ad_blue_cannister", "diesel_on", "ultimate", "ultimate_diesel", "ultimate_unleaded", "unleaded_95"], "website": null, "watchlist_id": null, "formatted_address": "Br\u00fcnnerstra\u00dfe/Staatsgr.\nDrasenhofen\n2165", "channel_of_trade": null}, {"id": "515994268", "name": "Schrick, Antensee 3", "lat": 48.519049, "lng": 16.617422, "site_brand": "BP", "country_code": "AT", "address": "Antensee 3", "city": "Schrick", "state": null, "postcode": "2291", "telephone": "+43 2574 29364", "facilities": ["open_24_hours", "shop", "restaurant", "accepts_routex_cards", "accepts_toll_payments", "reminder_service", "open_saturday", "open_sunday"], "products": ["ad_blue_cannister", "ad_blue_pump", "diesel_on", "lpg", "ultimate", "ultimate_diesel", "ultimate_unleaded", "unleaded_95", "ad_blue"], "website": null, "watchlist_id": null, "formatted_address": "Antensee 3\nSchrick\n2291", "channel_of_trade": null}, {"id": "416", "name": "Gaweinstal, Wienerstr. 35", "lat": 48.472861, "lng": 16.588735, "site_brand": "BP", "country_code": "AT", "address": "Wienerstra\u00dfe 35", "city": "Gaweinstal", "state": null, "postcode": "2191", "telephone": "+43 2574 2183", "facilities": ["tobacco", "car_wash", "high_speed_pump", "truck_suitable_site", "toilet", "shop", "wild_bean_cafe", "accepts_routex_cards", "accepts_toll_payments", "reminder_service", "open_saturday", "open_sunday"], "products": ["ad_blue_cannister", "diesel_on", "ultimate", "ultimate_diesel", "ultimate_unleaded", "unleaded_95"], "website": null, "watchlist_id": null, "formatted_address": "Wienerstra\u00dfe 35\nGaweinstal\n2191", "channel_of_trade": null}, {"id": "462", "name": "Heidenreichstein, Klein Pertholz 58", "lat": 48.850263, "lng": 15.096532, "site_brand": "BP", "country_code": "AT", "address": "Klein Pertholz 58", "city": "Heidenreichstein", "state": null, "postcode": "3860", "telephone": "+43 2862 52127", "facilities": ["tobacco", "car_wash", "high_speed_pump", "truck_suitable_site", "toilet", "wifi", "shop", "accepts_routex_cards", "accepts_toll_payments", "reminder_service", "open_saturday", "open_sunday"], "products": ["ad_blue_cannister", "diesel_on", "red_diesel", "ultimate", "ultimate_diesel", "ultimate_unleaded", "unleaded_95"], "website": null, "watchlist_id": null, "formatted_address": "Klein Pertholz 58\nHeidenreichstein\n3860", "channel_of_trade": null}, {"id": "370", "name": "Ulrichsberg, Dreisesselbergstr. 18", "lat": 48.6793, "lng": 13.9083, "site_brand": "BP", "country_code": "AT", "address": "Dreisesselbergstra\u00dfe 18", "city": "Ulrichsberg", "state": null, "postcode": "4161", "telephone": "+43 7288 8363", "facilities": ["tobacco", "high_speed_pump", "truck_suitable_site", "toilet", "accepts_routex_cards", "reminder_service", "open_saturday", "open_sunday"], "products": ["ad_blue_cannister", "ad_blue_pump", "diesel_on", "ultimate", "ultimate_diesel", "ultimate_unleaded", "unleaded_95", "ad_blue"], "website": null, "watchlist_id": null, "formatted_address": "Dreisesselbergstra\u00dfe 18\nUlrichsberg\n4161", "channel_of_trade": null}, {"id": "603", "name": "Rohrbach, Scheiblberg 44", "lat": 48.5596, "lng": 13.9871, "site_brand": "BP", "country_code": "AT", "address": "Scheiblberg 44", "city": "Berg bei Rohrbach", "state": null, "postcode": "4150", "telephone": "+43 7288 8363", "facilities": ["open_24_hours", "high_speed_pump", "truck_suitable_site", "toilet", "accepts_routex_cards", "reminder_service", "open_saturday", "open_sunday"], "products": ["ad_blue_pump", "diesel_on", "ultimate", "ultimate_diesel", "ultimate_unleaded", "unleaded_95", "ad_blue"], "website": null, "watchlist_id": null, "formatted_address": "Scheiblberg 44\nBerg bei Rohrbach\n4150", "channel_of_trade": null}, {"id": "205415585", "name": "Freistadt, Linzer Stra\u00dfe 44", "lat": 48.5023154, "lng": 14.5016524, "site_brand": "BP", "country_code": "AT", "address": "Linzer Stra\u00dfe 44", "city": "Freistadt", "state": null, "postcode": "4240", "telephone": "+43 7942 75096", "facilities": ["toilet", "restaurant", "accepts_routex_cards", "accepts_toll_payments", "reminder_service"], "products": ["ad_blue_cannister", "diesel_on", "natural_gas", "ultimate", "ultimate_diesel", "ultimate_unleaded", "unleaded_95"], "website": null, "watchlist_id": null, "formatted_address": "Linzer Stra\u00dfe 44\nFreistadt\n4240", "channel_of_trade": null}, {"id": "1455784815", "name": "Schwarzenberg, Schwarzenberg 168", "lat": 48.7362668, "lng": 13.8195991, "site_brand": "BP", "country_code": "AT", "address": "Schwarzenberg 168", "city": "Schwarzenberg am B\u00f6hmerwald", "state": null, "postcode": "4164", "telephone": "+43 7288 8363", "facilities": ["open_24_hours", "toilet", "shop", "accepts_routex_cards", "reminder_service", "open_saturday", "open_sunday"], "products": ["ad_blue_pump", "diesel_on", "ultimate", "ultimate_diesel", "ultimate_unleaded", "unleaded_95", "ad_blue"], "website": null, "watchlist_id": null, "formatted_address": "Schwarzenberg 168\nSchwarzenberg am B\u00f6hmerwald\n4164", "channel_of_trade": null}, {"id": "37", "name": "Peilstein, Hanriederstr. 43", "lat": 48.6205, "lng": 13.8857, "site_brand": "BP", "country_code": "AT", "address": "Hanriederstra\u00dfe 43", "city": "Peilstein im M\u00fchlviertel", "state": null, "postcode": "4153", "telephone": "+43 7287 752848", "facilities": ["high_speed_pump", "truck_suitable_site", "toilet", "accepts_routex_cards", "reminder_service", "open_saturday", "open_sunday"], "products": ["ad_blue_cannister", "ad_blue_pump", "diesel_on", "ultimate", "ultimate_diesel", "ultimate_unleaded", "unleaded_95", "ad_blue"], "website": null, "watchlist_id": null, "formatted_address": "Hanriederstra\u00dfe 43\nPeilstein im M\u00fchlviertel\n4153", "channel_of_trade": null}, {"id": "1576012949", "name": "Rohrbach, Umfahrung-Sued 1", "lat": 48.5650573, "lng": 13.9852452, "site_brand": "BP", "country_code": "AT", "address": "Umfahrung S\u00fcd 1", "city": "Rohrbach", "state": null, "postcode": "4150", "telephone": "+43 7289 8939", "facilities": ["toilet", "restaurant", "accepts_routex_cards", "accepts_toll_payments", "reminder_service"], "products": ["ad_blue_cannister", "ad_blue_pump", "diesel_on", "natural_gas", "ultimate", "ultimate_diesel", "ultimate_unleaded", "unleaded_95", "ad_blue"], "website": null, "watchlist_id": null, "formatted_address": "Umfahrung S\u00fcd 1\nRohrbach\n4150", "channel_of_trade": null}, {"id": "18975", "name": "Kollerschlag, Falkensteinstr. 16", "lat": 48.6023, "lng": 13.8389, "site_brand": "BP", "country_code": "AT", "address": "Falkensteinstra\u00dfe 16", "city": "Kollerschlag", "state": null, "postcode": "4154", "telephone": "+43 7287 752848", "facilities": ["open_24_hours", "toilet", "accepts_routex_cards", "reminder_service", "open_saturday", "open_sunday"], "products": ["ad_blue_cannister", "ad_blue_pump", "diesel_on", "ultimate", "ultimate_diesel", "ultimate_unleaded", "unleaded_95", "ad_blue"], "website": null, "watchlist_id": null, "formatted_address": "Falkensteinstra\u00dfe 16\nKollerschlag\n4154", "channel_of_trade": null}, {"id": "397370100", "name": "Putzleinsdorf, Glotzing 20", "lat": 48.504476, "lng": 13.877298, "site_brand": "BP", "country_code": "AT", "address": "Glotzing 20", "city": "Putzleinsdorf", "state": null, "postcode": "4134", "telephone": "+43 7288 8363", "facilities": ["open_24_hours", "accepts_routex_cards", "reminder_service", "open_saturday", "open_sunday"], "products": ["ad_blue_pump", "diesel_on", "ultimate", "ultimate_diesel", "ultimate_unleaded", "unleaded_95", "ad_blue"], "website": null, "watchlist_id": null, "formatted_address": "Glotzing 20\nPutzleinsdorf\n4134", "channel_of_trade": null}, {"id": "639", "name": "St. Martin im Muehlkreis, Adsdorf 13", "lat": 48.4338, "lng": 14.0433, "site_brand": "BP", "country_code": "AT", "address": "Adsdorf 13", "city": "St. Martin im M\u00fchlkreis", "state": null, "postcode": "4113", "telephone": "+43 7232 22350", "facilities": ["open_24_hours", "tobacco", "high_speed_pump", "truck_suitable_site", "toilet", "shop", "accepts_routex_cards", "accepts_toll_payments", "reminder_service", "open_saturday", "open_sunday"], "products": ["ad_blue_cannister", "ad_blue_pump", "diesel_on", "ultimate", "ultimate_diesel", "ultimate_unleaded", "unleaded_95", "ad_blue"], "website": null, "watchlist_id": null, "formatted_address": "Adsdorf 13\nSt. Martin im M\u00fchlkreis\n4113", "channel_of_trade": null}, {"id": "1597308149", "name": "St. Martin im Muehlkreis, Windorf 10", "lat": 48.438227, "lng": 14.037018, "site_brand": "BP", "country_code": "AT", "address": "Windorf 10", "city": "St.Martin im M\u00fchlkreis", "state": null, "postcode": "4113", "telephone": "+43 7232 2230", "facilities": ["toilet", "restaurant", "accepts_routex_cards", "accepts_toll_payments", "reminder_service"], "products": ["ad_blue_cannister", "ad_blue_pump", "diesel_on", "ultimate", "ultimate_diesel", "ultimate_unleaded", "unleaded_95", "ad_blue"], "website": null, "watchlist_id": null, "formatted_address": "Windorf 10\nSt.Martin im M\u00fchlkreis\n4113", "channel_of_trade": null}, {"id": "590", "name": "Pregarten, Tragweinerstr. 31", "lat": 48.3534, "lng": 14.5359, "site_brand": "BP", "country_code": "AT", "address": "Tragweinerstra\u00dfe 31", "city": "Pregarten", "state": null, "postcode": "4230", "telephone": "+43 7236 2230", "facilities": ["open_24_hours", "tobacco", "toilet", "shop", "accepts_routex_cards", "accepts_toll_payments", "reminder_service", "open_saturday", "open_sunday"], "products": ["ad_blue_cannister", "diesel_on", "red_diesel", "ultimate", "ultimate_diesel", "ultimate_unleaded", "unleaded_95"], "website": null, "watchlist_id": null, "formatted_address": "Tragweinerstra\u00dfe 31\nPregarten\n4230", "channel_of_trade": null}, {"id": "772", "name": "Linz-Auhof, Altenberger Str. 7", "lat": 48.3316879, "lng": 14.3173009, "site_brand": "BP", "country_code": "AT", "address": "Altenberger Stra\u00dfe 7", "city": "Linz-Auhof", "state": null, "postcode": "4040", "telephone": "+43 732 245847", "facilities": ["open_24_hours", "tobacco", "car_wash", "high_speed_pump", "truck_suitable_site", "toilet", "merkur", "shop", "wild_bean_cafe", "accepts_routex_cards", "accepts_toll_payments", "reminder_service", "open_saturday", "open_sunday"], "products": ["ad_blue_cannister", "diesel_on", "ultimate", "ultimate_diesel", "ultimate_unleaded", "unleaded_95"], "website": null, "watchlist_id": null, "formatted_address": "Altenberger Stra\u00dfe 7\nLinz-Auhof\n4040", "channel_of_trade": null}, {"id": "9884", "name": "Aistersheim (A8)", "lat": 48.1789656, "lng": 13.7470789, "site_brand": "BP", "country_code": "AT", "address": "Innkreisautobahn A8", "city": "Aistersheim", "state": null, "postcode": "4676", "telephone": "+43 7734 2232", "facilities": ["open_24_hours", "tobacco", "high_speed_pump", "truck_parking", "truck_suitable_site", "toilet", "wifi", "motorway_site", "shop", "bakery_bistro", "restaurant", "wild_bean_cafe", "accepts_routex_cards", "accepts_toll_payments", "reminder_service", "open_saturday", "open_sunday"], "products": ["ad_blue_cannister", "ad_blue_pump", "diesel_on", "ultimate", "ultimate_diesel", "ultimate_unleaded", "unleaded_95", "ad_blue"], "website": null, "watchlist_id": null, "formatted_address": "Innkreisautobahn A8\nAistersheim\n4676", "channel_of_trade": null}, {"id": "9885", "name": "Marchtrenk, Linzerstr. 62", "lat": 48.1914, "lng": 14.1214, "site_brand": "BP", "country_code": "AT", "address": "Linzerstra\u00dfe 62", "city": "Marchtrenk", "state": null, "postcode": "4614", "telephone": "+43 7243 54456", "facilities": ["open_24_hours", "tobacco", "car_wash", "high_speed_pump", "truck_suitable_site", "toilet", "shop", "bakery_bistro", "wild_bean_cafe", "accepts_routex_cards", "accepts_toll_payments", "reminder_service", "open_saturday", "open_sunday"], "products": ["ad_blue_cannister", "diesel_on", "ultimate", "ultimate_diesel", "ultimate_unleaded", "unleaded_95"], "website": null, "watchlist_id": null, "formatted_address": "Linzerstra\u00dfe 62\nMarchtrenk\n4614", "channel_of_trade": null}, {"id": "1623972015", "name": "Haag, Geierau 4", "lat": 48.2000533, "lng": 13.6457734, "site_brand": "BP", "country_code": "AT", "address": "Geierau 4", "city": "Haag", "state": null, "postcode": "4680", "telephone": "+43 7732 4540", "facilities": ["open_24_hours", "truck_parking", "truck_suitable_site", "restaurant", "accepts_routex_cards", "accepts_toll_payments", "reminder_service", "open_saturday", "open_sunday"], "products": ["ad_blue_cannister", "ad_blue_pump", "diesel_on", "ultimate", "ultimate_diesel", "ultimate_unleaded", "unleaded_95", "ad_blue"], "website": null, "watchlist_id": null, "formatted_address": "Geierau 4\nHaag\n4680", "channel_of_trade": null}, {"id": "1426092169", "name": "Voecklamarkt, Frankenburger Str. 1a", "lat": 47.9953014, "lng": 13.4889876, "site_brand": "BP", "country_code": "AT", "address": "Frankenburger Stra\u00dfe 1a", "city": "V\u00f6cklamarkt", "state": null, "postcode": "4870", "telephone": "+43 7682 3728", "facilities": ["toilet", "restaurant", "accepts_routex_cards", "accepts_toll_payments", "reminder_service", "open_saturday", "open_sunday"], "products": ["ad_blue_cannister", "ad_blue_pump", "diesel_on", "ultimate", "ultimate_diesel", "ultimate_unleaded", "unleaded_95", "ad_blue"], "website": null, "watchlist_id": null, "formatted_address": "Frankenburger Stra\u00dfe 1a\nV\u00f6cklamarkt\n4870", "channel_of_trade": null}, {"id": "417", "name": "Geiersberg, Pramerdorf 13", "lat": 48.1987, "lng": 13.6049, "site_brand": "BP", "country_code": "AT", "address": "Pramerdorf 13", "city": "Geiersberg", "state": null, "postcode": "4922", "telephone": "+43 7732 2288", "facilities": ["tobacco", "high_speed_pump", "truck_suitable_site", "toilet", "shop", "accepts_routex_cards", "accepts_toll_payments", "reminder_service", "open_saturday", "open_sunday"], "products": ["ad_blue_cannister", "ad_blue_pump", "diesel_on", "ultimate", "ultimate_diesel", "ultimate_unleaded", "unleaded_95", "ad_blue"], "website": null, "watchlist_id": null, "formatted_address": "Pramerdorf 13\nGeiersberg\n4922", "channel_of_trade": null}, {"id": "1359100731", "name": "Tumeltsham, Hannesgrub Sued 3", "lat": 48.2180558, "lng": 13.4947438, "site_brand": "BP", "country_code": "AT", "address": "Hannesgrub S\u00fcd 3", "city": "Tumeltsham", "state": null, "postcode": "4911", "telephone": "+43 7752 88823", "facilities": ["shop", "accepts_routex_cards", "accepts_toll_payments", "reminder_service"], "products": ["ad_blue_cannister", "ad_blue_pump", "diesel_on", "ultimate", "ultimate_diesel", "ultimate_unleaded", "unleaded_95", "ad_blue"], "website": null, "watchlist_id": null, "formatted_address": "Hannesgrub S\u00fcd 3\nTumeltsham\n4911", "channel_of_trade": null}, {"id": "526", "name": "Lindach/Autobahn, Westautobahn A1", "lat": 48.0040507, "lng": 13.8513135, "site_brand": "BP", "country_code": "AT", "address": "Westautobahn A1", "city": "Lindach", "state": null, "postcode": "4663", "telephone": "+43 7613 8460", "facilities": ["open_24_hours", "tobacco", "high_speed_pump", "truck_parking", "truck_suitable_site", "disabled_facilities", "toilet", "wifi", "motorway_site", "shop", "bakery_bistro", "restaurant", "wild_bean_cafe", "accepts_routex_cards", "accepts_toll_payments", "reminder_service", "open_saturday", "open_sunday"], "products": ["ad_blue_cannister", "ad_blue_pump", "diesel_on", "ultimate", "ultimate_diesel", "ultimate_unleaded", "unleaded_95", "ad_blue"], "website": null, "watchlist_id": null, "formatted_address": "Westautobahn A1\nLindach\n4663", "channel_of_trade": null}, {"id": "9861", "name": "Steyrermuehl, Laakirchner Hauptstr. 43", "lat": 47.9893129, "lng": 13.811732, "site_brand": "BP", "country_code": "AT", "address": "Laakirchner Hauptstra\u00dfe 43", "city": "Steyrerm\u00fchl", "state": null, "postcode": "4662", "telephone": "+43 7613 2217", "facilities": ["tobacco", "car_wash", "high_speed_pump", "truck_suitable_site", "toilet", "merkur", "shop", "bakery_bistro", "wild_bean_cafe", "accepts_routex_cards", "accepts_toll_payments", "reminder_service", "open_saturday", "open_sunday"], "products": ["ad_blue_cannister", "diesel_on", "ultimate", "ultimate_diesel", "ultimate_unleaded", "unleaded_95"], "website": null, "watchlist_id": null, "formatted_address": "Laakirchner Hauptstra\u00dfe 43\nSteyrerm\u00fchl\n4662", "channel_of_trade": null}, {"id": "9903", "name": "Vorchdorf, Neue Landstr. 68", "lat": 48.0083, "lng": 13.9233, "site_brand": "BP", "country_code": "AT", "address": "Neue Landstra\u00dfe 68", "city": "Vorchdorf", "state": null, "postcode": "4655", "telephone": "+43 7614 5360", "facilities": ["tobacco", "car_wash", "high_speed_pump", "truck_suitable_site", "toilet", "merkur", "shop", "bakery_bistro", "wild_bean_cafe", "accepts_routex_cards", "accepts_toll_payments", "reminder_service", "open_saturday", "open_sunday"], "products": ["ad_blue_cannister", "diesel_on", "ultimate", "ultimate_diesel", "ultimate_unleaded", "unleaded_95"], "website": null, "watchlist_id": null, "formatted_address": "Neue Landstra\u00dfe 68\nVorchdorf\n4655", "channel_of_trade": null}, {"id": "17727", "name": "Regau, Salzkammergutstrasse 8", "lat": 47.9841675, "lng": 13.6975071, "site_brand": "BP", "country_code": "AT", "address": "Salzkammergut Str. 8", "city": "Regau", "state": null, "postcode": "4844", "telephone": "+43 7672 75371", "facilities": ["tobacco", "car_wash", "high_speed_pump", "truck_suitable_site", "toilet", "shop", "accepts_routex_cards", "accepts_toll_payments", "reminder_service", "open_saturday", "open_sunday"], "products": ["ad_blue_cannister", "diesel_on", "ultimate", "ultimate_diesel", "ultimate_unleaded", "unleaded_95"], "website": null, "watchlist_id": null, "formatted_address": "Salzkammergut Str. 8\nRegau\n4844", "channel_of_trade": null}, {"id": "2112758627", "name": "Eberstalzell, Solarstr. 2", "lat": 48.039795, "lng": 13.991393, "site_brand": "BP", "country_code": "AT", "address": "Solarstra\u00dfe 2", "city": "Eberstalzell", "state": null, "postcode": "4653", "telephone": "+43 7241 21389", "facilities": ["open_24_hours", "toilet", "restaurant", "accepts_routex_cards", "accepts_toll_payments", "reminder_service", "open_saturday", "open_sunday"], "products": ["ad_blue_cannister", "ad_blue_pump", "diesel_on", "ultimate", "ultimate_diesel", "ultimate_unleaded", "unleaded_95", "ad_blue"], "website": null, "watchlist_id": null, "formatted_address": "Solarstra\u00dfe 2\nEberstalzell\n4653", "channel_of_trade": null}, {"id": "1126226571", "name": "Hellmonsoedt, Linzer Str. 22", "lat": 48.4291267, "lng": 14.2950845, "site_brand": "BP", "country_code": "AT", "address": "Linzer Stra\u00dfe 22", "city": "Hellmons\u00f6dt", "state": null, "postcode": "4202", "telephone": "+43 7215 2428", "facilities": ["toilet", "shop", "accepts_routex_cards", "accepts_toll_payments", "reminder_service"], "products": ["ad_blue_cannister", "diesel_on", "ultimate", "ultimate_diesel", "ultimate_unleaded", "unleaded_95"], "website": null, "watchlist_id": null, "formatted_address": "Linzer Stra\u00dfe 22\nHellmons\u00f6dt\n4202", "channel_of_trade": null}, {"id": "555", "name": "Michaelnbach, Stauffstr. 6", "lat": 48.2891, "lng": 13.8334, "site_brand": "BP", "country_code": "AT", "address": "Stauffstra\u00dfe 6", "city": "Michaelnbach", "state": null, "postcode": "4712", "telephone": "+43 7277 2520", "facilities": ["toilet", "shop", "accepts_routex_cards", "reminder_service", "open_saturday", "open_sunday"], "products": ["ad_blue_pump", "diesel_on", "ultimate", "ultimate_diesel", "ultimate_unleaded", "unleaded_95", "ad_blue"], "website": null, "watchlist_id": null, "formatted_address": "Stauffstra\u00dfe 6\nMichaelnbach\n4712", "channel_of_trade": null}, {"id": "358", "name": "Ansfelden/Autobahn, Nord", "lat": 48.214988, "lng": 14.283562, "site_brand": "BP", "country_code": "AT", "address": "Westautobahn A1", "city": "Ansfelden", "state": null, "postcode": "4052", "telephone": "+43 7229 87115", "facilities": ["open_24_hours", "tobacco", "high_speed_pump", "truck_parking", "truck_suitable_site", "disabled_facilities", "toilet", "wifi", "motorway_site", "shop", "bakery_bistro", "restaurant", "wild_bean_cafe", "accepts_routex_cards", "accepts_toll_payments", "reminder_service", "open_saturday", "open_sunday"], "products": ["ad_blue_cannister", "ad_blue_pump", "diesel_on", "ultimate", "ultimate_diesel", "ultimate_unleaded", "unleaded_95", "ad_blue"], "website": null, "watchlist_id": null, "formatted_address": "Westautobahn A1\nAnsfelden\n4052", "channel_of_trade": null}, {"id": "456", "name": "Haag/Autobahn, Westautobahn A1", "lat": 48.1394515, "lng": 14.5792436, "site_brand": "BP", "country_code": "AT", "address": "Westautobahn A1", "city": "Haag", "state": null, "postcode": "3350", "telephone": "+43 7434 42153", "facilities": ["open_24_hours", "tobacco", "high_speed_pump", "truck_parking", "truck_suitable_site", "toilet", "wifi", "motorway_site", "shop", "bakery_bistro", "restaurant", "wild_bean_cafe", "accepts_routex_cards", "accepts_toll_payments", "reminder_service", "open_saturday", "open_sunday"], "products": ["ad_blue_cannister", "ad_blue_pump", "diesel_on", "ultimate", "ultimate_diesel", "ultimate_unleaded", "unleaded_95", "ad_blue"], "website": null, "watchlist_id": null, "formatted_address": "Westautobahn A1\nHaag\n3350", "channel_of_trade": null}, {"id": "317549996", "name": "Mauthausen, Dieselstr. 1", "lat": 48.241435, "lng": 14.544579, "site_brand": "BP", "country_code": "AT", "address": "Dieselstra\u00dfe 1", "city": "Mauthausen", "state": null, "postcode": "4310", "telephone": "+43 7238 3320", "facilities": ["toilet", "accepts_routex_cards", "accepts_toll_payments", "reminder_service"], "products": ["ad_blue_cannister", "diesel_on", "ultimate", "ultimate_diesel", "ultimate_unleaded", "unleaded_95"], "website": null, "watchlist_id": null, "formatted_address": "Dieselstra\u00dfe 1\nMauthausen\n4310", "channel_of_trade": null}, {"id": "622", "name": "Sierning, Steyrerstr. 29", "lat": 48.0462164, "lng": 14.3131072, "site_brand": "BP", "country_code": "AT", "address": "Steyrerstra\u00dfe 29", "city": "Sierning", "state": null, "postcode": "4522", "telephone": "+43 7259 2421", "facilities": ["tobacco", "high_speed_pump", "truck_suitable_site", "toilet", "accepts_routex_cards", "reminder_service", "open_saturday", "open_sunday"], "products": ["ad_blue_cannister", "diesel_on", "ultimate", "ultimate_diesel", "ultimate_unleaded", "unleaded_95"], "website": null, "watchlist_id": null, "formatted_address": "Steyrerstra\u00dfe 29\nSierning\n4522", "channel_of_trade": null}, {"id": "654", "name": "St. Ulrich/Garsten, Eisenstr. 85", "lat": 48.0011, "lng": 14.4104, "site_brand": "BP", "country_code": "AT", "address": "Eisenstra\u00dfe 85", "city": "St. Ulrich/Garsten", "state": null, "postcode": "4451", "telephone": "+43 7252 54161", "facilities": ["tobacco", "car_wash", "high_speed_pump", "truck_suitable_site", "toilet", "shop", "wild_bean_cafe", "accepts_routex_cards", "accepts_toll_payments", "reminder_service", "open_saturday", "open_sunday"], "products": ["ad_blue_cannister", "diesel_on", "ultimate", "ultimate_diesel", "ultimate_unleaded", "unleaded_95"], "website": null, "watchlist_id": null, "formatted_address": "Eisenstra\u00dfe 85\nSt. Ulrich/Garsten\n4451", "channel_of_trade": null}, {"id": "8956", "name": "Sattledt", "lat": 48.0670337, "lng": 14.033948, "site_brand": "BP", "country_code": "AT", "address": "Voralpenkreuz A8", "city": "Sattledt/Voralpenkreuz", "state": null, "postcode": "4642", "telephone": "+43 7244 20189", "facilities": ["open_24_hours", "tobacco", "high_speed_pump", "truck_parking", "truck_suitable_site", "toilet", "wifi", "motorway_site", "shop", "bakery_bistro", "restaurant", "wild_bean_cafe", "accepts_routex_cards", "accepts_toll_payments", "reminder_service", "open_saturday", "open_sunday"], "products": ["ad_blue_cannister", "ad_blue_pump", "diesel_on", "ultimate", "ultimate_diesel", "ultimate_unleaded", "unleaded_95", "ad_blue"], "website": null, "watchlist_id": null, "formatted_address": "Voralpenkreuz A8\nSattledt/Voralpenkreuz\n4642", "channel_of_trade": null}, {"id": "9897", "name": "Steyr, Ennser Str. 10A", "lat": 48.0543944, "lng": 14.421037, "site_brand": "BP", "country_code": "AT", "address": "Ennser Stra\u00dfe 10 A", "city": "Steyr", "state": null, "postcode": "4400", "telephone": "+43 7252 82255", "facilities": ["open_24_hours", "tobacco", "car_wash", "high_speed_pump", "truck_parking", "truck_suitable_site", "toilet", "merkur", "shop", "bakery_bistro", "restaurant", "wild_bean_cafe", "accepts_routex_cards", "accepts_toll_payments", "reminder_service", "open_saturday", "open_sunday"], "products": ["ad_blue_cannister", "diesel_on", "ultimate", "ultimate_diesel", "ultimate_unleaded", "unleaded_95"], "website": null, "watchlist_id": null, "formatted_address": "Ennser Stra\u00dfe 10 A\nSteyr\n4400", "channel_of_trade": null}, {"id": "168977531", "name": "Sankt Pankraz, Sankt Pankraz 70", "lat": 47.7731262, "lng": 14.1779956, "site_brand": "BP", "country_code": "AT", "address": "Sankt Pankraz 70", "city": "Sankt Pankraz", "state": null, "postcode": "4572", "telephone": "+43 7565 2340", "facilities": ["open_24_hours", "tobacco", "truck_parking", "truck_suitable_site", "toilet", "restaurant", "accepts_routex_cards", "accepts_toll_payments", "reminder_service", "open_saturday", "open_sunday"], "products": ["ad_blue_cannister", "ad_blue_pump", "diesel_on", "ultimate", "ultimate_diesel", "ultimate_unleaded", "unleaded_95", "ad_blue"], "website": null, "watchlist_id": null, "formatted_address": "Sankt Pankraz 70\nSankt Pankraz\n4572", "channel_of_trade": null}, {"id": "1936668538", "name": "Unterweitersdorf, Radingdorf 9", "lat": 48.358987, "lng": 14.477963, "site_brand": "BP", "country_code": "AT", "address": "Radingdorf 9", "city": "Unterweitersdorf", "state": null, "postcode": "4213", "telephone": "+43 7236 20895", "facilities": ["toilet", "shop", "restaurant", "accepts_routex_cards", "accepts_toll_payments", "reminder_service", "open_saturday", "open_sunday"], "products": ["ad_blue_cannister", "ad_blue_pump", "diesel_on", "lpg", "ultimate", "ultimate_diesel", "ultimate_unleaded", "unleaded_95", "ad_blue"], "website": null, "watchlist_id": null, "formatted_address": "Radingdorf 9\nUnterweitersdorf\n4213", "channel_of_trade": null}, {"id": "655", "name": "St. Valentin, Werkstr. 4", "lat": 48.171167, "lng": 14.5123446, "site_brand": "BP", "country_code": "AT", "address": "Werkstra\u00dfe 4", "city": "St. Valentin", "state": null, "postcode": "4300", "telephone": "+43 7435 52224", "facilities": ["tobacco", "car_wash", "toilet", "shop", "accepts_routex_cards", "accepts_toll_payments", "reminder_service", "open_saturday", "open_sunday"], "products": ["ad_blue_cannister", "diesel_on", "ultimate", "ultimate_diesel", "ultimate_unleaded", "unleaded_95"], "website": null, "watchlist_id": null, "formatted_address": "Werkstra\u00dfe 4\nSt. Valentin\n4300", "channel_of_trade": null}, {"id": "541", "name": "Linz-Urfahr, Wildbergstr. 16", "lat": 48.3147745, "lng": 14.2859886, "site_brand": "BP", "country_code": "AT", "address": "Wildbergstra\u00dfe 16", "city": "Linz-Urfahr", "state": null, "postcode": "4040", "telephone": "+43 732 732586", "facilities": ["open_24_hours", "tobacco", "car_wash", "high_speed_pump", "truck_suitable_site", "toilet", "shop", "bakery_bistro", "wild_bean_cafe", "accepts_routex_cards", "accepts_toll_payments", "reminder_service", "open_saturday", "open_sunday"], "products": ["ad_blue_cannister", "diesel_on", "ultimate", "ultimate_diesel", "ultimate_unleaded", "unleaded_95"], "website": null, "watchlist_id": null, "formatted_address": "Wildbergstra\u00dfe 16\nLinz-Urfahr\n4040", "channel_of_trade": null}, {"id": "184423823", "name": "Linz, Franckstr. 17", "lat": 48.296395, "lng": 14.308057, "site_brand": "BP", "country_code": "AT", "address": "Franckstra\u00dfe 17", "city": "Linz", "state": null, "postcode": "4020", "telephone": "+43 732 654562", "facilities": ["shop", "accepts_routex_cards", "accepts_toll_payments", "reminder_service", "open_saturday", "open_sunday"], "products": ["ad_blue_cannister", "diesel_on", "ultimate", "ultimate_diesel", "ultimate_unleaded", "unleaded_95"], "website": null, "watchlist_id": null, "formatted_address": "Franckstra\u00dfe 17\nLinz\n4020", "channel_of_trade": null}, {"id": "359", "name": "Ansfelden, Traunuferstr. 4/Frein", "lat": 48.2308289, "lng": 14.3050653, "site_brand": "BP", "country_code": "AT", "address": "Traunuferstra\u00dfe 4", "city": "Ansfelden-Freindorf", "state": null, "postcode": "4052", "telephone": "+43 664 9132069", "facilities": ["car_wash", "high_speed_pump", "truck_suitable_site", "toilet", "shop", "bakery_bistro", "accepts_routex_cards", "accepts_toll_payments", "reminder_service", "open_saturday", "open_sunday"], "products": ["ad_blue_cannister", "diesel_on", "red_diesel", "ultimate", "ultimate_diesel", "ultimate_unleaded", "unleaded_95"], "website": null, "watchlist_id": null, "formatted_address": "Traunuferstra\u00dfe 4\nAnsfelden-Freindorf\n4052", "channel_of_trade": null}, {"id": "7070", "name": "Traun, Kremstal Bundesstr. 76", "lat": 48.2271886, "lng": 14.2343832, "site_brand": "BP", "country_code": "AT", "address": "Kremstal Bundestra\u00dfe 76", "city": "Traun", "state": null, "postcode": "4050", "telephone": "+43 7229 61291", "facilities": ["open_24_hours", "tobacco", "car_wash", "high_speed_pump", "truck_suitable_site", "toilet", "shop", "wild_bean_cafe", "accepts_routex_cards", "accepts_toll_payments", "reminder_service", "open_saturday", "open_sunday"], "products": ["ad_blue_cannister", "diesel_on", "ultimate", "ultimate_diesel", "ultimate_unleaded", "unleaded_95"], "website": null, "watchlist_id": null, "formatted_address": "Kremstal Bundestra\u00dfe 76\nTraun\n4050", "channel_of_trade": null}, {"id": "9901", "name": "Linz, Salzburgerstr. 383", "lat": 48.247276, "lng": 14.264803, "site_brand": "BP", "country_code": "AT", "address": "Salzburgerstra\u00dfe 383", "city": "Linz", "state": null, "postcode": "4030", "telephone": "+43 732 372021", "facilities": ["open_24_hours", "tobacco", "car_wash", "high_speed_pump", "truck_suitable_site", "toilet", "merkur", "shop", "bakery_bistro", "restaurant", "wild_bean_cafe", "accepts_routex_cards", "accepts_toll_payments", "reminder_service", "open_saturday", "open_sunday"], "products": ["ad_blue_cannister", "diesel_on", "ultimate", "ultimate_diesel", "ultimate_unleaded", "unleaded_95"], "website": null, "watchlist_id": null, "formatted_address": "Salzburgerstra\u00dfe 383\nLinz\n4030", "channel_of_trade": null}, {"id": "1059253911", "name": "Neuhofen an der Krems, Linzer Str. 41", "lat": 48.143874, "lng": 14.2282084, "site_brand": "BP", "country_code": "AT", "address": "Linzer Stra\u00dfe 41", "city": "Neuhofen an der Krems", "state": null, "postcode": "4501", "telephone": "+43 7227 5055", "facilities": ["shop", "accepts_routex_cards", "reminder_service"], "products": ["ad_blue_cannister", "diesel_on", "ultimate", "ultimate_diesel", "ultimate_unleaded", "unleaded_95"], "website": null, "watchlist_id": null, "formatted_address": "Linzer Stra\u00dfe 41\nNeuhofen an der Krems\n4501", "channel_of_trade": null}, {"id": "1854718375", "name": "Traun, Wiener Bundesstr. 153", "lat": 48.2343935, "lng": 14.2330226, "site_brand": "BP", "country_code": "AT", "address": "Wiener Bundesstra\u00dfe 153", "city": "Traun", "state": null, "postcode": "4050", "telephone": "+43 7229 73209", "facilities": ["open_24_hours", "toilet", "accepts_routex_cards", "accepts_toll_payments", "reminder_service", "open_saturday", "open_sunday"], "products": ["ad_blue_cannister", "ad_blue_pump", "diesel_on", "natural_gas", "ultimate", "ultimate_diesel", "ultimate_unleaded", "unleaded_95", "ad_blue"], "website": null, "watchlist_id": null, "formatted_address": "Wiener Bundesstra\u00dfe 153\nTraun\n4050", "channel_of_trade": null}, {"id": "52828377", "name": "Linz, Leonfeldner Str. 268", "lat": 48.3425901, "lng": 14.2937563, "site_brand": "BP", "country_code": "AT", "address": "Leonfeldner Stra\u00dfe 268", "city": "Linz", "state": null, "postcode": "4040", "telephone": "+43 732 250346", "facilities": ["accepts_routex_cards", "accepts_toll_payments", "reminder_service", "open_saturday", "open_sunday"], "products": ["ad_blue_cannister", "ad_blue_pump", "diesel_on", "ultimate", "ultimate_diesel", "ultimate_unleaded", "unleaded_95", "ad_blue"], "website": null, "watchlist_id": "52828377", "formatted_address": "Leonfeldner Stra\u00dfe 268\nLinz\n4040", "channel_of_trade": null}, {"id": "537428986", "name": "Braunau, Neue Innbrueckenstrasse 2", "lat": 48.248524, "lng": 13.015532, "site_brand": "BP", "country_code": "AT", "address": "Neue Innbr\u00fcckenstra\u00dfe 2", "city": "Braunau am Inn", "state": null, "postcode": "5280", "telephone": "+43 50 8300 7000", "facilities": ["tobacco", "accepts_routex_cards", "accepts_toll_payments", "reminder_service"], "products": ["ad_blue_cannister", "ad_blue_pump", "diesel_on", "ultimate", "ultimate_diesel", "ultimate_unleaded", "unleaded_95", "ad_blue"], "website": null, "watchlist_id": null, "formatted_address": "Neue Innbr\u00fcckenstra\u00dfe 2\nBraunau am Inn\n5280", "channel_of_trade": null}, {"id": "1284640477", "name": "Obernberg am Inn, Brueckenstr. 4", "lat": 48.3193555, "lng": 13.3277399, "site_brand": "BP", "country_code": "AT", "address": "Br\u00fcckenstra\u00dfe 4", "city": "Obernberg am Inn", "state": null, "postcode": "4982", "telephone": "+43 7758 40868", "facilities": ["tobacco", "toilet", "accepts_routex_cards", "accepts_toll_payments", "reminder_service"], "products": ["diesel_on", "ultimate", "ultimate_diesel", "ultimate_unleaded", "unleaded_95"], "website": null, "watchlist_id": null, "formatted_address": "Br\u00fcckenstra\u00dfe 4\nObernberg am Inn\n4982", "channel_of_trade": null}, {"id": "154621728", "name": "Weng, Pirath 18", "lat": 48.2494394, "lng": 13.2090305, "site_brand": "BP", "country_code": "AT", "address": "Pirath 18", "city": "Weng", "state": null, "postcode": "4952", "telephone": "+43 7723 44424", "facilities": ["toilet", "shop", "restaurant", "accepts_routex_cards", "accepts_toll_payments", "reminder_service"], "products": ["ad_blue_cannister", "ad_blue_pump", "diesel_on", "ultimate", "ultimate_diesel", "ultimate_unleaded", "unleaded_95", "ad_blue"], "website": null, "watchlist_id": null, "formatted_address": "Pirath 18\nWeng\n4952", "channel_of_trade": null}, {"id": "556180922", "name": "Wals, Bundesstrasse 49", "lat": 47.7857414, "lng": 12.97552, "site_brand": "BP", "country_code": "AT", "address": "Bundesstra\u00dfe 49", "city": "Wals", "state": null, "postcode": "5071", "telephone": "+43 50 8300 1800", "facilities": ["alcohol", "tobacco", "high_speed_pump", "truck_suitable_site", "toilet", "bakery_bistro", "accepts_routex_cards", "accepts_toll_payments", "reminder_service", "open_saturday", "open_sunday"], "products": ["ad_blue_cannister", "ad_blue_pump", "diesel_on", "ultimate", "ultimate_diesel", "ultimate_unleaded", "unleaded_95", "ad_blue"], "website": null, "watchlist_id": null, "formatted_address": "Bundesstra\u00dfe 49\nWals\n5071", "channel_of_trade": null}, {"id": "1564464312", "name": "Grossgmain, Salzburger Str. 285", "lat": 47.7279005, "lng": 12.9153066, "site_brand": "BP", "country_code": "AT", "address": "Salzburger Stra\u00dfe 285", "city": "Grossgmain", "state": null, "postcode": "5084", "telephone": "+43 6247 8071", "facilities": ["toilet", "shop", "accepts_routex_cards", "accepts_toll_payments", "reminder_service"], "products": ["ad_blue_cannister", "diesel_on", "ultimate", "ultimate_diesel", "ultimate_unleaded", "unleaded_95"], "website": null, "watchlist_id": null, "formatted_address": "Salzburger Stra\u00dfe 285\nGrossgmain\n5084", "channel_of_trade": null}, {"id": "504421735", "name": "Oberndorf bei Salzburg, Salzburger Str. 4", "lat": 47.935288, "lng": 12.946558, "site_brand": "BP", "country_code": "AT", "address": "Salzburger Stra\u00dfe 4", "city": "Oberndorf bei Salzburg", "state": null, "postcode": "5110", "telephone": "+43 6272 73182", "facilities": ["toilet", "shop", "restaurant", "accepts_routex_cards", "accepts_toll_payments", "reminder_service"], "products": ["ad_blue_cannister", "ad_blue_pump", "diesel_on", "natural_gas", "ultimate", "ultimate_diesel", "ultimate_unleaded", "unleaded_95", "ad_blue"], "website": null, "watchlist_id": null, "formatted_address": "Salzburger Stra\u00dfe 4\nOberndorf bei Salzburg\n5110", "channel_of_trade": null}, {"id": "9886", "name": "Strasswalchen, Braunauer Str. 28", "lat": 47.9881, "lng": 13.2495, "site_brand": "BP", "country_code": "AT", "address": "Braunauer Stra\u00dfe 28", "city": "Strasswalchen", "state": null, "postcode": "5204", "telephone": "+43 50 8300 3150", "facilities": ["alcohol", "tobacco", "toilet", "shop", "bistro", "accepts_routex_cards", "accepts_toll_payments", "reminder_service", "open_saturday", "open_sunday"], "products": ["ad_blue_cannister", "ad_blue_pump", "diesel_on", "ultimate", "ultimate_diesel", "ultimate_unleaded", "unleaded_95", "ad_blue"], "website": null, "watchlist_id": null, "formatted_address": "Braunauer Stra\u00dfe 28\nStrasswalchen\n5204", "channel_of_trade": null}, {"id": "1626535248", "name": "Seekirchen, Obertrumer Landstrasse 11", "lat": 47.9036543, "lng": 13.1205386, "site_brand": "BP", "country_code": "AT", "address": "Obertrumer Landstra\u00dfe 11", "city": "Seekirchen", "state": null, "postcode": "5201", "telephone": "+43 50 8300", "facilities": ["alcohol", "tobacco", "high_speed_pump", "truck_suitable_site", "toilet", "accepts_routex_cards", "accepts_toll_payments", "reminder_service", "open_saturday", "open_sunday"], "products": ["ad_blue_cannister", "ad_blue_pump", "diesel_on", "ultimate", "ultimate_diesel", "ultimate_unleaded", "unleaded_95", "ad_blue"], "website": null, "watchlist_id": null, "formatted_address": "Obertrumer Landstra\u00dfe 11\nSeekirchen\n5201", "channel_of_trade": null}, {"id": "405006304", "name": "O-LOCHEN AM SEE, KERSCHHAM 104", "lat": 48.027455, "lng": 13.14086, "site_brand": "BP", "country_code": "AT", "address": "Kerschham 104", "city": "Lochen am See", "state": null, "postcode": "5221", "telephone": "+43 7747 20338", "facilities": ["shop", "restaurant", "accepts_routex_cards", "accepts_toll_payments"], "products": ["ad_blue_cannister", "diesel_on", "ultimate", "ultimate_diesel", "ultimate_unleaded", "unleaded_95"], "website": null, "watchlist_id": null, "formatted_address": "Kerschham 104\nLochen am See\n5221", "channel_of_trade": null}, {"id": "1395851903", "name": "Burgkirchen, Au 2", "lat": 48.19558, "lng": 13.10447, "site_brand": "BP", "country_code": "AT", "address": "Au 2", "city": "Burgkirchen", "state": null, "postcode": "5274", "telephone": "+43 676 6104999", "facilities": ["car_wash", "shop", "accepts_routex_cards", "reminder_service"], "products": ["ad_blue_cannister", "ad_blue_pump", "diesel_on", "ultimate", "ultimate_diesel", "ultimate_unleaded", "unleaded_95", "ad_blue"], "website": null, "watchlist_id": null, "formatted_address": "Au 2\nBurgkirchen\n5274", "channel_of_trade": null}, {"id": "783031554", "name": "Unken, Niederland 112", "lat": 47.665194, "lng": 12.752882, "site_brand": "BP", "country_code": "AT", "address": "Niederland 112", "city": "Unken", "state": null, "postcode": "5091", "telephone": "+43 50 8300 3400", "facilities": ["alcohol", "tobacco", "high_speed_pump", "truck_suitable_site", "disabled_facilities", "toilet", "accepts_routex_cards", "accepts_toll_payments", "reminder_service", "open_saturday", "open_sunday"], "products": ["ad_blue_cannister", "ad_blue_pump", "diesel_on", "ultimate", "ultimate_diesel", "ultimate_unleaded", "unleaded_95", "ad_blue"], "website": null, "watchlist_id": null, "formatted_address": "Niederland 112\nUnken\n5091", "channel_of_trade": null}, {"id": "4225", "name": "Salzburg, Nonntaler Hauptstr. 65", "lat": 47.7845, "lng": 13.0525, "site_brand": "BP", "country_code": "AT", "address": "Nonntaler Hauptstra\u00dfe 65", "city": "Salzburg", "state": null, "postcode": "5020", "telephone": "+43 662 825644", "facilities": ["tobacco", "car_wash", "high_speed_pump", "truck_suitable_site", "toilet", "shop", "bakery_bistro", "wild_bean_cafe", "accepts_routex_cards", "accepts_toll_payments", "reminder_service", "open_saturday", "open_sunday"], "products": ["ad_blue_cannister", "diesel_on", "ultimate", "ultimate_diesel", "ultimate_unleaded", "unleaded_95"], "website": null, "watchlist_id": null, "formatted_address": "Nonntaler Hauptstra\u00dfe 65\nSalzburg\n5020", "channel_of_trade": null}, {"id": "7074", "name": "Glasenbach-Elsbethen, Joh.Herbst-Str. 15", "lat": 47.7695606, "lng": 13.0854034, "site_brand": "BP", "country_code": "AT", "address": "Johann-Herbst-Stra\u00dfe 15", "city": "Glasenbach-Elsbethen", "state": null, "postcode": "5061", "telephone": "+43 50 8300 3100", "facilities": ["alcohol", "tobacco", "high_speed_pump", "truck_suitable_site", "toilet", "shop", "bakery_bistro", "accepts_routex_cards", "accepts_toll_payments", "reminder_service", "open_saturday", "open_sunday"], "products": ["ad_blue_cannister", "ad_blue_pump", "diesel_on", "ultimate", "ultimate_diesel", "ultimate_unleaded", "unleaded_95", "ad_blue"], "website": null, "watchlist_id": null, "formatted_address": "Johann-Herbst-Stra\u00dfe 15\nGlasenbach-Elsbethen\n5061", "channel_of_trade": null}, {"id": "1815100694", "name": "Anif, Alpenstrasse 111", "lat": 47.7362928, "lng": 13.0507707, "site_brand": "BP", "country_code": "AT", "address": "Alpenstra\u00dfe 111", "city": "Anif", "state": null, "postcode": "5081", "telephone": "+43 660 1349879", "facilities": ["alcohol", "tobacco", "high_speed_pump", "truck_suitable_site", "toilet", "bakery_bistro", "accepts_routex_cards", "accepts_toll_payments", "reminder_service", "open_saturday", "open_sunday"], "products": ["ad_blue_cannister", "ad_blue_pump", "diesel_on", "ultimate", "ultimate_diesel", "ultimate_unleaded", "unleaded_95", "ad_blue"], "website": null, "watchlist_id": null, "formatted_address": "Alpenstra\u00dfe 111\nAnif\n5081", "channel_of_trade": null}, {"id": "18746207", "name": "Hof b. Salzburg, Wolfgangseestr. 9", "lat": 47.8169976, "lng": 13.2281001, "site_brand": "BP", "country_code": "AT", "address": "Wolfgangseestra\u00dfe 9", "city": "Hof bei Salzburg", "state": null, "postcode": "5322", "telephone": "+43 50 8300", "facilities": ["alcohol", "tobacco", "toilet", "accepts_routex_cards", "accepts_toll_payments", "reminder_service", "open_saturday", "open_sunday"], "products": ["ad_blue_cannister", "ad_blue_pump", "diesel_on", "ultimate", "ultimate_diesel", "ultimate_unleaded", "unleaded_95", "ad_blue"], "website": null, "watchlist_id": "18746207", "formatted_address": "Wolfgangseestra\u00dfe 9\nHof bei Salzburg\n5322", "channel_of_trade": null}, {"id": "615", "name": "Hochburg-Ach, Braunauer Str. 1", "lat": 48.1570682, "lng": 12.8402924, "site_brand": "BP", "country_code": "AT", "address": "Braunauer Stra\u00dfe 1", "city": "Ach", "state": null, "postcode": "5122", "telephone": "+43 7727 4018", "facilities": ["high_speed_pump", "truck_suitable_site", "toilet", "accepts_routex_cards", "accepts_toll_payments", "reminder_service", "open_saturday", "open_sunday"], "products": ["ad_blue_cannister", "diesel_on", "ultimate", "ultimate_unleaded", "unleaded_95"], "website": null, "watchlist_id": null, "formatted_address": "Braunauer Stra\u00dfe 1\nAch\n5122", "channel_of_trade": null}, {"id": "8960", "name": "Bergheim/Lengfelden, B156", "lat": 47.8441697, "lng": 13.0505776, "site_brand": "BP", "country_code": "AT", "address": "Lamprechtshausener B156", "city": "Bergheim / Lengfelden", "state": null, "postcode": "5101", "telephone": "+43 662 453775", "facilities": ["open_24_hours", "tobacco", "car_wash", "high_speed_pump", "truck_suitable_site", "toilet", "merkur", "shop", "bakery_bistro", "wild_bean_cafe", "accepts_routex_cards", "accepts_toll_payments", "reminder_service", "open_saturday", "open_sunday"], "products": ["ad_blue_cannister", "ad_blue_pump", "diesel_on", "natural_gas", "ultimate", "ultimate_diesel", "ultimate_unleaded", "unleaded_95", "ad_blue"], "website": null, "watchlist_id": null, "formatted_address": "Lamprechtshausener B156\nBergheim / Lengfelden\n5101", "channel_of_trade": null}, {"id": "3567", "name": "Salzburg, Aiglhofstr. 20", "lat": 47.8034111, "lng": 13.0286574, "site_brand": "BP", "country_code": "AT", "address": "Aiglhofstra\u00dfe 20", "city": "Salzburg", "state": null, "postcode": "5020", "telephone": "+43 50 8300 3000", "facilities": ["tobacco", "high_speed_pump", "truck_suitable_site", "toilet", "bakery_bistro", "accepts_routex_cards", "accepts_toll_payments", "reminder_service", "open_saturday", "open_sunday"], "products": ["ad_blue_cannister", "ad_blue_pump", "diesel_on", "ultimate", "ultimate_diesel", "ultimate_unleaded", "unleaded_95", "ad_blue"], "website": null, "watchlist_id": null, "formatted_address": "Aiglhofstra\u00dfe 20\nSalzburg\n5020", "channel_of_trade": null}, {"id": "1424187416", "name": "Salzburg, Muenchner Bundesstr. 137", "lat": 47.8331674, "lng": 12.9980373, "site_brand": "BP", "country_code": "AT", "address": "M\u00fcnchner Bundesstra\u00dfe 137", "city": "Salzburg", "state": null, "postcode": "5020", "telephone": "+43 662 424285", "facilities": ["open_24_hours", "toilet", "shop", "restaurant", "accepts_routex_cards", "accepts_toll_payments", "reminder_service", "open_saturday", "open_sunday"], "products": ["ad_blue_cannister", "diesel_on", "natural_gas", "ultimate", "ultimate_diesel", "ultimate_unleaded", "unleaded_95"], "website": null, "watchlist_id": null, "formatted_address": "M\u00fcnchner Bundesstra\u00dfe 137\nSalzburg\n5020", "channel_of_trade": null}, {"id": "9905", "name": "Eugendorf-Strass, Gewerbestr. 1", "lat": 47.8616356, "lng": 13.1284904, "site_brand": "BP", "country_code": "AT", "address": "Gewerbestra\u00dfe 1", "city": "Eugendorf-Strass", "state": null, "postcode": "5301", "telephone": "+43 6225 2405", "facilities": ["open_24_hours", "tobacco", "car_wash", "high_speed_pump", "truck_suitable_site", "toilet", "merkur", "shop", "bakery_bistro", "wild_bean_cafe", "accepts_routex_cards", "accepts_toll_payments", "reminder_service", "open_saturday", "open_sunday"], "products": ["ad_blue_cannister", "ad_blue_pump", "diesel_on", "natural_gas", "ultimate", "ultimate_diesel", "ultimate_unleaded", "unleaded_95", "ad_blue"], "website": null, "watchlist_id": null, "formatted_address": "Gewerbestra\u00dfe 1\nEugendorf-Strass\n5301", "channel_of_trade": null}, {"id": "612", "name": "Schaerding, Linzerstr", "lat": 48.4512, "lng": 13.436, "site_brand": "BP", "country_code": "AT", "address": "Linzerstra\u00dfe 52", "city": "Sch\u00e4rding", "state": null, "postcode": "4780", "telephone": "+43 7712 2194", "facilities": ["tobacco", "car_wash", "toilet", "shop", "bakery_bistro", "accepts_routex_cards", "accepts_toll_payments", "reminder_service", "open_saturday", "open_sunday"], "products": ["ad_blue_cannister", "ad_blue_pump", "diesel_on", "ultimate", "ultimate_diesel", "ultimate_unleaded", "unleaded_95", "ad_blue"], "website": null, "watchlist_id": null, "formatted_address": "Linzerstra\u00dfe 52\nSch\u00e4rding\n4780", "channel_of_trade": null}, {"id": "8947", "name": "Schaerding, Passauer Str. 29", "lat": 48.4642133, "lng": 13.4356022, "site_brand": "BP", "country_code": "AT", "address": "Passauer Stra\u00dfe 29", "city": "Sch\u00e4rding", "state": null, "postcode": "4780", "telephone": "+43 7712 50021", "facilities": ["tobacco", "car_wash", "high_speed_pump", "truck_suitable_site", "toilet", "merkur", "shop", "bakery_bistro", "wild_bean_cafe", "accepts_routex_cards", "accepts_toll_payments", "reminder_service", "open_saturday", "open_sunday"], "products": ["ad_blue_cannister", "diesel_on", "ultimate", "ultimate_diesel", "ultimate_unleaded", "unleaded_95"], "website": null, "watchlist_id": null, "formatted_address": "Passauer Stra\u00dfe 29\nSch\u00e4rding\n4780", "channel_of_trade": null}, {"id": "525656333", "name": "Kundl, Schieferrollstrasse 17", "lat": 47.4671099, "lng": 11.9900426, "site_brand": "BP", "country_code": "AT", "address": "Schieferrollstra\u00dfe 17", "city": "Kundl", "state": null, "postcode": "6250", "telephone": "+43 5338 861136", "facilities": ["alcohol", "tobacco", "high_speed_pump", "truck_suitable_site", "toilet", "accepts_routex_cards", "accepts_toll_payments", "reminder_service", "open_saturday", "open_sunday"], "products": ["ad_blue_cannister", "diesel_on", "ultimate", "ultimate_diesel", "ultimate_unleaded", "unleaded_95"], "website": null, "watchlist_id": null, "formatted_address": "Schieferrollstra\u00dfe 17\nKundl\n6250", "channel_of_trade": null}, {"id": "509", "name": "Kufstein, Schubertstr. 25", "lat": 47.5853, "lng": 12.1617, "site_brand": "BP", "country_code": "AT", "address": "Schubertstra\u00dfe 25", "city": "Kufstein", "state": null, "postcode": "6330", "telephone": "+43 5372 62977", "facilities": ["tobacco", "car_wash", "high_speed_pump", "truck_suitable_site", "toilet", "bakery_bistro", "accepts_routex_cards", "accepts_toll_payments", "reminder_service", "open_saturday", "open_sunday"], "products": ["ad_blue_cannister", "diesel_on", "ultimate", "ultimate_diesel", "ultimate_unleaded", "unleaded_95"], "website": null, "watchlist_id": null, "formatted_address": "Schubertstra\u00dfe 25\nKufstein\n6330", "channel_of_trade": null}, {"id": "355", "name": "Angath", "lat": 47.517998, "lng": 12.067181, "site_brand": "BP", "country_code": "AT", "address": "Wirtschaftsweg 4", "city": "Angath", "state": null, "postcode": "6321", "telephone": "+43 5332 74371", "facilities": ["open_24_hours", "tobacco", "high_speed_pump", "truck_parking", "truck_suitable_site", "disabled_facilities", "toilet", "wifi", "motorway_site", "shop", "bakery_bistro", "wild_bean_cafe", "accepts_routex_cards", "accepts_toll_payments", "reminder_service", "open_saturday", "open_sunday"], "products": ["ad_blue_cannister", "ad_blue_pump", "diesel_on", "ultimate", "ultimate_diesel", "ultimate_unleaded", "unleaded_95", "ad_blue"], "website": null, "watchlist_id": null, "formatted_address": "Wirtschaftsweg 4\nAngath\n6321", "channel_of_trade": null}, {"id": "9893", "name": "Kufstein, Rosenheimer Str. 6", "lat": 47.5938, "lng": 12.1773, "site_brand": "BP", "country_code": "AT", "address": "Rosenheimer Stra\u00dfe 6", "city": "Kufstein", "state": null, "postcode": "6330", "telephone": "+43 5372 71021", "facilities": ["open_24_hours", "tobacco", "car_wash", "high_speed_pump", "truck_suitable_site", "toilet", "merkur", "shop", "bakery_bistro", "wild_bean_cafe", "accepts_routex_cards", "accepts_toll_payments", "reminder_service", "open_saturday", "open_sunday"], "products": ["ad_blue_cannister", "ad_blue_pump", "diesel_on", "lpg", "ultimate", "ultimate_diesel", "ultimate_unleaded", "unleaded_95", "ad_blue"], "website": null, "watchlist_id": null, "formatted_address": "Rosenheimer Stra\u00dfe 6\nKufstein\n6330", "channel_of_trade": null}, {"id": "9899", "name": "Brixen im Thale, Brixentalerstr. 13", "lat": 47.4449, "lng": 12.2335, "site_brand": "BP", "country_code": "AT", "address": "Brixentalerstra\u00dfe 13", "city": "Brixen im Thale", "state": null, "postcode": "6364", "telephone": "+43 5334 2880", "facilities": ["tobacco", "car_wash", "high_speed_pump", "truck_suitable_site", "toilet", "shop", "wild_bean_cafe", "accepts_routex_cards", "accepts_toll_payments", "reminder_service", "open_saturday", "open_sunday"], "products": ["ad_blue_cannister", "diesel_on", "ultimate", "ultimate_diesel", "ultimate_unleaded", "unleaded_95"], "website": null, "watchlist_id": null, "formatted_address": "Brixentalerstra\u00dfe 13\nBrixen im Thale\n6364", "channel_of_trade": null}, {"id": "623", "name": "Sillian, Arnbach 74", "lat": 46.7404073, "lng": 12.3738622, "site_brand": "BP", "country_code": "AT", "address": "Arnbach 74", "city": "Sillian", "state": null, "postcode": "9920", "telephone": "+43 4842 6311", "facilities": ["tobacco", "high_speed_pump", "truck_suitable_site", "toilet", "shop", "accepts_routex_cards", "accepts_toll_payments", "reminder_service", "open_saturday", "open_sunday"], "products": ["ad_blue_cannister", "diesel_on", "ultimate", "ultimate_diesel", "ultimate_unleaded", "unleaded_95"], "website": null, "watchlist_id": null, "formatted_address": "Arnbach 74\nSillian\n9920", "channel_of_trade": null}, {"id": "9869", "name": "Moellbruecke, Moelltalstr. 33", "lat": 46.8367, "lng": 13.3737, "site_brand": "BP", "country_code": "AT", "address": "M\u00f6lltalstra\u00dfe 33", "city": "M\u00f6llbr\u00fccke", "state": null, "postcode": "9813", "telephone": "+43 4769 2458", "facilities": ["tobacco", "car_wash", "high_speed_pump", "truck_suitable_site", "toilet", "shop", "bakery_bistro", "bistro", "accepts_routex_cards", "accepts_toll_payments", "reminder_service", "open_saturday", "open_sunday"], "products": ["ad_blue_cannister", "diesel_on", "ultimate", "ultimate_diesel", "ultimate_unleaded", "unleaded_95"], "website": null, "watchlist_id": null, "formatted_address": "M\u00f6lltalstra\u00dfe 33\nM\u00f6llbr\u00fccke\n9813", "channel_of_trade": null}, {"id": "813823608", "name": "K-TROEPOLACH, NR. 83", "lat": 46.615, "lng": 13.2806, "site_brand": "BP", "country_code": "AT", "address": "Nr. 83", "city": "Tr\u00f6polach", "state": null, "postcode": "9631", "telephone": "+43 4285 234", "facilities": ["open_24_hours", "accepts_routex_cards", "open_saturday", "open_sunday"], "products": ["ad_blue_cannister", "ad_blue_pump", "diesel_on", "ultimate", "ultimate_diesel", "ultimate_unleaded", "unleaded_95", "ad_blue"], "website": null, "watchlist_id": null, "formatted_address": "Nr. 83\nTr\u00f6polach\n9631", "channel_of_trade": null}, {"id": "9906", "name": "Lienz, Iseltalerstr. 25", "lat": 46.8298, "lng": 12.7547, "site_brand": "BP", "country_code": "AT", "address": "Iseltalerstra\u00dfe 25", "city": "Lienz", "state": null, "postcode": "9900", "telephone": "+43 4852 62659", "facilities": ["tobacco", "car_wash", "high_speed_pump", "truck_suitable_site", "toilet", "merkur", "shop", "bakery_bistro", "restaurant", "wild_bean_cafe", "accepts_routex_cards", "accepts_toll_payments", "reminder_service", "open_saturday", "open_sunday"], "products": ["ad_blue_cannister", "diesel_on", "ultimate", "ultimate_diesel", "ultimate_unleaded", "unleaded_95"], "website": null, "watchlist_id": null, "formatted_address": "Iseltalerstra\u00dfe 25\nLienz\n9900", "channel_of_trade": null}, {"id": "9883", "name": "Flachau/Tauernalm", "lat": 47.2488361, "lng": 13.4247908, "site_brand": "BP", "country_code": "AT", "address": "Flachauwinklstra\u00dfe 182", "city": "Flachau/Tauernalm", "state": null, "postcode": "5542", "telephone": "+43 6457 33737", "facilities": ["open_24_hours", "tobacco", "high_speed_pump", "truck_parking", "truck_suitable_site", "toilet", "wifi", "motorway_site", "shop", "bakery_bistro", "restaurant", "wild_bean_cafe", "accepts_routex_cards", "accepts_toll_payments", "reminder_service", "open_saturday", "open_sunday"], "products": ["ad_blue_cannister", "ad_blue_pump", "diesel_on", "ultimate", "ultimate_diesel", "ultimate_unleaded", "unleaded_95", "ad_blue"], "website": null, "watchlist_id": null, "formatted_address": "Flachauwinklstra\u00dfe 182\nFlachau/Tauernalm\n5542", "channel_of_trade": null}, {"id": "28489", "name": "Koessen, Huette 15", "lat": 47.6618416, "lng": 12.4131225, "site_brand": "BP", "country_code": "AT", "address": "H\u00fctte 15", "city": "K\u00f6ssen", "state": null, "postcode": "6345", "telephone": "+43 5375 6394", "facilities": ["tobacco", "high_speed_pump", "truck_suitable_site", "toilet", "accepts_routex_cards", "accepts_toll_payments", "reminder_service", "open_saturday", "open_sunday"], "products": ["ad_blue_cannister", "diesel_on", "ultimate", "ultimate_diesel", "ultimate_unleaded", "unleaded_95"], "website": null, "watchlist_id": null, "formatted_address": "H\u00fctte 15\nK\u00f6ssen\n6345", "channel_of_trade": null}, {"id": "350", "name": "Altenmarkt im Pongau, Hauptstr. 21", "lat": 47.381305, "lng": 13.4170064, "site_brand": "BP", "country_code": "AT", "address": "Obere Marktstra\u00dfe 45", "city": "Altenmarkt im Pongau", "state": null, "postcode": "5541", "telephone": "+43 6452 5660", "facilities": ["tobacco", "car_wash", "toilet", "shop", "accepts_routex_cards", "accepts_toll_payments", "reminder_service", "open_saturday", "open_sunday"], "products": ["ad_blue_cannister", "diesel_on", "ultimate", "ultimate_diesel", "ultimate_unleaded", "unleaded_95"], "website": null, "watchlist_id": null, "formatted_address": "Obere Marktstra\u00dfe 45\nAltenmarkt im Pongau\n5541", "channel_of_trade": null}, {"id": "373", "name": "Bischofshofen, Salzburgerstr. 70", "lat": 47.4229426, "lng": 13.2163699, "site_brand": "BP", "country_code": "AT", "address": "Salzburgerstra\u00dfe 70", "city": "Bischofshofen", "state": null, "postcode": "5500", "telephone": "+43 6462 2501", "facilities": ["tobacco", "car_wash", "high_speed_pump", "truck_suitable_site", "toilet", "shop", "accepts_routex_cards", "accepts_toll_payments", "reminder_service", "open_saturday"], "products": ["ad_blue_cannister", "ad_blue_pump", "diesel_on", "red_diesel", "ultimate", "ultimate_diesel", "ultimate_unleaded", "unleaded_95", "ad_blue"], "website": null, "watchlist_id": null, "formatted_address": "Salzburgerstra\u00dfe 70\nBischofshofen\n5500", "channel_of_trade": null}, {"id": "9911", "name": "Imlau 65", "lat": 47.4603427, "lng": 13.1987387, "site_brand": "BP", "country_code": "AT", "address": "Imlau  65", "city": "Imlau", "state": null, "postcode": "5452", "telephone": "+43 6468 5327", "facilities": ["tobacco", "car_wash", "high_speed_pump", "truck_suitable_site", "toilet", "shop", "bakery_bistro", "wild_bean_cafe", "accepts_routex_cards", "accepts_toll_payments", "reminder_service", "open_saturday", "open_sunday"], "products": ["ad_blue_cannister", "diesel_on", "ultimate", "ultimate_diesel", "ultimate_unleaded", "unleaded_95"], "website": null, "watchlist_id": null, "formatted_address": "Imlau  65\nImlau\n5452", "channel_of_trade": null}, {"id": "819646853", "name": "Wagrain, Markt 130", "lat": 47.3365068, "lng": 13.3028488, "site_brand": "BP", "country_code": "AT", "address": "Markt 130", "city": "Wagrain", "state": null, "postcode": "5602", "telephone": "+43 6413 8289", "facilities": ["toilet", "shop", "accepts_routex_cards", "accepts_toll_payments", "reminder_service"], "products": ["ad_blue_cannister", "ad_blue_pump", "diesel_on", "ultimate", "ultimate_diesel", "ultimate_unleaded", "unleaded_95", "ad_blue"], "website": null, "watchlist_id": null, "formatted_address": "Markt 130\nWagrain\n5602", "channel_of_trade": null}, {"id": "489", "name": "Kitzbuehel, St. Johannerstr. 30", "lat": 47.465024, "lng": 12.386474, "site_brand": "BP", "country_code": "AT", "address": "St Johannerstra\u00dfe 30", "city": "Kitzb\u00fchel", "state": null, "postcode": "6370", "telephone": "+43 5356 64377", "facilities": ["tobacco", "car_wash", "high_speed_pump", "truck_suitable_site", "toilet", "accepts_routex_cards", "accepts_toll_payments", "reminder_service", "open_saturday", "open_sunday"], "products": ["ad_blue_cannister", "diesel_on", "ultimate", "ultimate_diesel", "ultimate_unleaded", "unleaded_95"], "website": null, "watchlist_id": null, "formatted_address": "St Johannerstra\u00dfe 30\nKitzb\u00fchel\n6370", "channel_of_trade": null}, {"id": "637", "name": "St. Johann in Tirol, Salzburgerstr. 13", "lat": 47.5253219, "lng": 12.4231262, "site_brand": "BP", "country_code": "AT", "address": "Salzburgerstra\u00dfe", "city": "St. Johann in Tirol", "state": null, "postcode": "6380", "telephone": "+43 5352 62439", "facilities": ["tobacco", "car_wash", "high_speed_pump", "truck_suitable_site", "toilet", "shop", "accepts_routex_cards", "accepts_toll_payments", "reminder_service", "open_saturday", "open_sunday"], "products": ["ad_blue_cannister", "diesel_on", "ultimate", "ultimate_diesel", "ultimate_unleaded", "unleaded_95"], "website": null, "watchlist_id": null, "formatted_address": "Salzburgerstra\u00dfe\nSt. Johann in Tirol\n6380", "channel_of_trade": null}, {"id": "3674", "name": "Jochberg, Nr. 440, Dorf 48", "lat": 47.3758, "lng": 12.419, "site_brand": "BP", "country_code": "AT", "address": "Dorf 48", "city": "Jochberg", "state": null, "postcode": "6373", "telephone": "+43 5355 5297", "facilities": ["tobacco", "high_speed_pump", "truck_suitable_site", "toilet", "accepts_routex_cards", "reminder_service", "open_saturday", "open_sunday"], "products": ["ad_blue_cannister", "diesel_on", "ultimate", "ultimate_diesel", "unleaded_95"], "website": null, "watchlist_id": null, "formatted_address": "Dorf 48\nJochberg\n6373", "channel_of_trade": null}, {"id": "7060", "name": "Aurach, Pass Thurn Str. 17", "lat": 47.4185, "lng": 12.4216, "site_brand": "BP", "country_code": "AT", "address": "Pass Thurn Stra\u00dfe 17", "city": "Aurach", "state": null, "postcode": "6371", "telephone": "+43 5356 6402016", "facilities": ["tobacco", "high_speed_pump", "truck_suitable_site", "toilet", "accepts_routex_cards", "accepts_toll_payments", "reminder_service"], "products": ["ad_blue_cannister", "diesel_on", "ultimate", "ultimate_diesel", "ultimate_unleaded", "unleaded_95"], "website": null, "watchlist_id": null, "formatted_address": "Pass Thurn Stra\u00dfe 17\nAurach\n6371", "channel_of_trade": null}, {"id": "28100", "name": "Walchsee,Dorfstrasse 29", "lat": 47.6497977, "lng": 12.3132161, "site_brand": "BP", "country_code": "AT", "address": "Dorfstra\u00dfe 29", "city": "Walchsee", "state": null, "postcode": "6344", "telephone": "+43 5374 562031", "facilities": ["tobacco", "toilet", "bakery_bistro", "accepts_routex_cards", "accepts_toll_payments", "reminder_service", "open_saturday", "open_sunday"], "products": ["ad_blue_cannister", "diesel_on", "ultimate", "ultimate_diesel", "ultimate_unleaded", "unleaded_95"], "website": null, "watchlist_id": null, "formatted_address": "Dorfstra\u00dfe 29\nWalchsee\n6344", "channel_of_trade": null}, {"id": "1943201263", "name": "GOING", "lat": 47.5158713, "lng": 12.3186388, "site_brand": "BP", "country_code": "AT", "address": "Innsbrucker Stra\u00dfe 5", "city": "Going", "state": null, "postcode": "6353", "telephone": "+43 676 5206901", "facilities": ["accepts_routex_cards", "reminder_service", "open_saturday", "open_sunday"], "products": ["ad_blue_cannister", "diesel_on", "ultimate", "ultimate_diesel", "ultimate_unleaded", "unleaded_95"], "website": null, "watchlist_id": null, "formatted_address": "Innsbrucker Stra\u00dfe 5\nGoing\n6353", "channel_of_trade": null}, {"id": "8952", "name": "Maishofen, Zellerstr. 29", "lat": 47.3507, "lng": 12.8005, "site_brand": "BP", "country_code": "AT", "address": "Zellerstra\u00dfe 29", "city": "Maishofen", "state": null, "postcode": "5751", "telephone": "+43 6542 68056", "facilities": ["tobacco", "car_wash", "high_speed_pump", "truck_suitable_site", "toilet", "merkur", "shop", "bakery_bistro", "wild_bean_cafe", "accepts_routex_cards", "accepts_toll_payments", "reminder_service", "open_saturday", "open_sunday"], "products": ["ad_blue_cannister", "diesel_on", "natural_gas", "ultimate", "ultimate_diesel", "ultimate_unleaded", "unleaded_95"], "website": null, "watchlist_id": null, "formatted_address": "Zellerstra\u00dfe 29\nMaishofen\n5751", "channel_of_trade": null}, {"id": "825158955", "name": "St. Johann, Bundesstrasse 2", "lat": 47.334402, "lng": 13.1893444, "site_brand": "BP", "country_code": "AT", "address": "Bundesstra\u00dfe 2", "city": "St. Johann im Pongau", "state": null, "postcode": "5600", "telephone": "+43 50 8300 3250", "facilities": ["alcohol", "tobacco", "high_speed_pump", "truck_suitable_site", "disabled_facilities", "toilet", "bakery_bistro", "accepts_routex_cards", "accepts_toll_payments", "reminder_service", "open_saturday", "open_sunday"], "products": ["ad_blue_cannister", "ad_blue_pump", "diesel_on", "natural_gas", "ultimate", "ultimate_diesel", "ultimate_unleaded", "unleaded_95", "ad_blue"], "website": null, "watchlist_id": null, "formatted_address": "Bundesstra\u00dfe 2\nSt. Johann im Pongau\n5600", "channel_of_trade": null}, {"id": "1172183815", "name": "Maria Alm, Hochk\u00f6nigstra\u00dfe 9", "lat": 47.4079407, "lng": 12.8942825, "site_brand": "BP", "country_code": "AT", "address": "Hochk\u00f6nigstra\u00dfe 9", "city": "Maria Alm", "state": null, "postcode": "5761", "telephone": "+43 6584 7759", "facilities": ["toilet", "shop", "accepts_routex_cards", "accepts_toll_payments", "reminder_service"], "products": ["ad_blue_cannister", "diesel_on", "ultimate", "ultimate_diesel", "unleaded_95"], "website": null, "watchlist_id": null, "formatted_address": "Hochk\u00f6nigstra\u00dfe 9\nMaria Alm\n5761", "channel_of_trade": null}, {"id": "1289846694", "name": "Taxenbach, Bundesstr. 6", "lat": 47.2932261, "lng": 12.9690655, "site_brand": "BP", "country_code": "AT", "address": "Bundesstra\u00dfe 6", "city": "Taxenbach", "state": null, "postcode": "5550", "telephone": "+43 6543 6121", "facilities": ["toilet", "shop", "accepts_routex_cards", "accepts_toll_payments", "reminder_service", "open_saturday", "open_sunday"], "products": ["ad_blue_cannister", "diesel_on", "ultimate", "ultimate_diesel", "ultimate_unleaded", "unleaded_95"], "website": null, "watchlist_id": null, "formatted_address": "Bundesstra\u00dfe 6\nTaxenbach\n5550", "channel_of_trade": null}, {"id": "234664623", "name": "Zell am See, Brucker Bundesstr. 57", "lat": 47.2968228, "lng": 12.7960715, "site_brand": "BP", "country_code": "AT", "address": "Brucker Bundesstra\u00dfe 57", "city": "Zell am See", "state": null, "postcode": "5700", "telephone": "+43 6542 53858", "facilities": ["toilet", "shop", "accepts_routex_cards", "accepts_toll_payments", "reminder_service", "open_saturday", "open_sunday"], "products": ["ad_blue_cannister", "diesel_on", "ultimate", "ultimate_diesel", "ultimate_unleaded", "unleaded_95"], "website": null, "watchlist_id": null, "formatted_address": "Brucker Bundesstra\u00dfe 57\nZell am See\n5700", "channel_of_trade": null}, {"id": "17881", "name": "Virgen,Virgentalstr. 39", "lat": 47.0017508, "lng": 12.4644121, "site_brand": "BP", "country_code": "AT", "address": "Virgentalstra\u00dfe 39", "city": "Virgen", "state": null, "postcode": "9972", "telephone": "+43 4874 5267", "facilities": ["toilet", "accepts_routex_cards", "reminder_service", "open_saturday", "open_sunday"], "products": ["ad_blue_cannister", "diesel_on", "ultimate", "ultimate_diesel", "ultimate_unleaded", "unleaded_95"], "website": null, "watchlist_id": null, "formatted_address": "Virgentalstra\u00dfe 39\nVirgen\n9972", "channel_of_trade": null}, {"id": "713", "name": "Saalbach, Glemmtaler Landesstr. 386", "lat": 47.3890774, "lng": 12.6423411, "site_brand": "BP", "country_code": "AT", "address": "Glemmtaler Landesstra\u00dfe 386", "city": "Saalbach", "state": null, "postcode": "5753", "telephone": "+43 50 8300 3350", "facilities": ["tobacco", "high_speed_pump", "truck_suitable_site", "toilet", "accepts_routex_cards", "reminder_service", "open_saturday", "open_sunday"], "products": ["ad_blue_cannister", "ad_blue_pump", "diesel_on", "ultimate", "ultimate_diesel", "ultimate_unleaded", "unleaded_95", "ad_blue"], "website": null, "watchlist_id": null, "formatted_address": "Glemmtaler Landesstra\u00dfe 386\nSaalbach\n5753", "channel_of_trade": null}, {"id": "1322282308", "name": "Bad Goisern, Sankt Agatha 86", "lat": 47.6238331, "lng": 13.6454513, "site_brand": "BP", "country_code": "AT", "address": "Sankt Agatha 86", "city": "Bad Goisern", "state": null, "postcode": "4822", "telephone": "+43 6135 8313", "facilities": ["toilet", "restaurant", "accepts_routex_cards", "accepts_toll_payments", "reminder_service", "open_saturday", "open_sunday"], "products": ["ad_blue_cannister", "diesel_on", "ultimate", "ultimate_diesel", "ultimate_unleaded", "unleaded_95"], "website": null, "watchlist_id": null, "formatted_address": "Sankt Agatha 86\nBad Goisern\n4822", "channel_of_trade": null}, {"id": "1666260023", "name": "St. Michael, Murtalerstrasse 579", "lat": 47.0954278, "lng": 13.6385084, "site_brand": "BP", "country_code": "AT", "address": "Murtal Stra\u00dfe 579", "city": "Sankt Michael im Lungau", "state": null, "postcode": "5582", "telephone": "+43 50 8300 3300", "facilities": ["alcohol", "tobacco", "high_speed_pump", "truck_suitable_site", "disabled_facilities", "toilet", "bakery_bistro", "accepts_routex_cards", "accepts_toll_payments", "reminder_service", "open_saturday", "open_sunday"], "products": ["ad_blue_cannister", "ad_blue_pump", "diesel_on", "lpg", "ultimate", "ultimate_diesel", "ultimate_unleaded", "unleaded_95", "ad_blue"], "website": null, "watchlist_id": null, "formatted_address": "Murtal Stra\u00dfe 579\nSankt Michael im Lungau\n5582", "channel_of_trade": null}, {"id": "593", "name": "Radstadt, Tauernstr. 27", "lat": 47.3791, "lng": 13.4738, "site_brand": "BP", "country_code": "AT", "address": "Tauernstra\u00dfe 27", "city": "Radstadt", "state": null, "postcode": "5550", "telephone": "+43 6452 30921", "facilities": ["tobacco", "car_wash", "toilet", "shop", "accepts_routex_cards", "accepts_toll_payments", "reminder_service", "open_saturday", "open_sunday"], "products": ["ad_blue_cannister", "diesel_on", "ultimate", "ultimate_diesel", "ultimate_unleaded", "unleaded_95"], "website": null, "watchlist_id": null, "formatted_address": "Tauernstra\u00dfe 27\nRadstadt\n5550", "channel_of_trade": null}, {"id": "1268418690", "name": "Radstadt, Salzburger Str. 43", "lat": 47.386639, "lng": 13.450906, "site_brand": "BP", "country_code": "AT", "address": "Salzburger Stra\u00dfe 43", "city": "Radstadt", "state": null, "postcode": "5550", "telephone": "+43 6452 4384", "facilities": ["toilet", "accepts_routex_cards", "accepts_toll_payments", "reminder_service", "open_saturday", "open_sunday"], "products": ["ad_blue_cannister", "ad_blue_pump", "diesel_on", "ultimate", "ultimate_diesel", "ultimate_unleaded", "unleaded_95", "ad_blue"], "website": null, "watchlist_id": null, "formatted_address": "Salzburger Stra\u00dfe 43\nRadstadt\n5550", "channel_of_trade": null}, {"id": "629", "name": "Stainach, Ennstal Bundesstr., Salzburgerstr. 401", "lat": 47.5324, "lng": 14.106, "site_brand": "BP", "country_code": "AT", "address": "Salzburgerstra\u00dfe 401", "city": "Stainach", "state": null, "postcode": "8950", "telephone": "+43 3682 22650", "facilities": ["tobacco", "high_speed_pump", "truck_suitable_site", "toilet", "shop", "accepts_routex_cards", "reminder_service", "open_saturday", "open_sunday"], "products": ["ad_blue_cannister", "diesel_on", "ultimate", "ultimate_diesel", "ultimate_unleaded", "unleaded_95"], "website": null, "watchlist_id": null, "formatted_address": "Salzburgerstra\u00dfe 401\nStainach\n8950", "channel_of_trade": null}, {"id": "668", "name": "Trieben, Industriepark 2 an der A9/E57", "lat": 47.4938, "lng": 14.4829, "site_brand": "BP", "country_code": "AT", "address": "Industriepark 2", "city": "Trieben", "state": null, "postcode": "8784", "telephone": "+43 3615 5161", "facilities": ["open_24_hours", "tobacco", "high_speed_pump", "truck_parking", "truck_suitable_site", "disabled_facilities", "toilet", "motorway_site", "shop", "bakery_bistro", "wild_bean_cafe", "accepts_routex_cards", "accepts_toll_payments", "reminder_service", "open_saturday", "open_sunday"], "products": ["ad_blue_cannister", "ad_blue_pump", "diesel_on", "ultimate", "ultimate_diesel", "ultimate_unleaded", "unleaded_95", "ad_blue"], "website": null, "watchlist_id": null, "formatted_address": "Industriepark 2\nTrieben\n8784", "channel_of_trade": null}, {"id": "600511576", "name": "Liezen, Salzburger Str. 35", "lat": 47.568336, "lng": 14.228307, "site_brand": "BP", "country_code": "AT", "address": "Salzburgerstra\u00dfe 35", "city": "Liezen", "state": null, "postcode": "8940", "telephone": "+43 3612 237240", "facilities": ["toilet", "restaurant", "accepts_routex_cards", "reminder_service", "open_saturday", "open_sunday"], "products": ["ad_blue_cannister", "diesel_on", "ultimate", "ultimate_diesel", "ultimate_unleaded", "unleaded_95"], "website": null, "watchlist_id": null, "formatted_address": "Salzburgerstra\u00dfe 35\nLiezen\n8940", "channel_of_trade": null}, {"id": "9866", "name": "Friesach, Neumarkter Str. 32", "lat": 46.9600032, "lng": 14.4010809, "site_brand": "BP", "country_code": "AT", "address": "Neumarkter Stra\u00dfe 32", "city": "Friesach", "state": null, "postcode": "9360", "telephone": "+43 4268 2504", "facilities": ["tobacco", "car_wash", "high_speed_pump", "truck_suitable_site", "toilet", "accepts_routex_cards", "accepts_toll_payments", "reminder_service"], "products": ["ad_blue_cannister", "ad_blue_pump", "diesel_on", "ultimate", "ultimate_diesel", "ultimate_unleaded", "unleaded_95", "ad_blue"], "website": null, "watchlist_id": null, "formatted_address": "Neumarkter Stra\u00dfe 32\nFriesach\n9360", "channel_of_trade": null}, {"id": "465", "name": "Himmelberg, Schulstr. 8", "lat": 46.7514455, "lng": 14.0353928, "site_brand": "BP", "country_code": "AT", "address": "Schulstra\u00dfe 7", "city": "Himmelberg", "state": null, "postcode": "9562", "telephone": "+43 4276 2254", "facilities": ["tobacco", "car_wash", "high_speed_pump", "truck_suitable_site", "toilet", "shop", "accepts_routex_cards", "accepts_toll_payments", "reminder_service", "open_saturday", "open_sunday"], "products": ["ad_blue_cannister", "diesel_on", "red_diesel", "ultimate", "ultimate_diesel", "ultimate_unleaded", "unleaded_95"], "website": null, "watchlist_id": null, "formatted_address": "Schulstra\u00dfe 7\nHimmelberg\n9562", "channel_of_trade": null}, {"id": "383", "name": "Brueckl, Klagenfurterstr. 10", "lat": 46.7462676, "lng": 14.5309163, "site_brand": "BP", "country_code": "AT", "address": "Klagenfurterstra\u00dfe 10", "city": "Br\u00fcckl", "state": null, "postcode": "9371", "telephone": "+43 4214 2508", "facilities": ["tobacco", "toilet", "shop", "accepts_routex_cards", "accepts_toll_payments", "reminder_service", "open_saturday"], "products": ["ad_blue_cannister", "diesel_on", "ultimate", "ultimate_diesel", "ultimate_unleaded", "unleaded_95"], "website": null, "watchlist_id": null, "formatted_address": "Klagenfurterstra\u00dfe 10\nBr\u00fcckl\n9371", "channel_of_trade": null}, {"id": "745377994", "name": "SEEBODEN,HAUPTSTRASSE 30", "lat": 46.8166, "lng": 13.5101, "site_brand": "BP", "country_code": "AT", "address": "Hauptstra\u00dfe 30", "city": "Seeboden", "state": null, "postcode": "9871", "telephone": "+43 50 8300 7500", "facilities": ["open_24_hours", "accepts_routex_cards", "accepts_toll_payments", "reminder_service", "open_saturday", "open_sunday"], "products": ["ad_blue_pump", "diesel_on", "ultimate", "ultimate_diesel", "ultimate_unleaded", "unleaded_95", "ad_blue"], "website": null, "watchlist_id": null, "formatted_address": "Hauptstra\u00dfe 30\nSeeboden\n9871", "channel_of_trade": null}, {"id": "1677479754", "name": "Thoerl-Maglern, Thoerl-Maglern 35", "lat": 46.544373, "lng": 13.653962, "site_brand": "BP", "country_code": "AT", "address": "Th\u00f6rl-Maglern 35", "city": "Th\u00f6rl-Maglern", "state": null, "postcode": "9602", "telephone": "+43 4255 82656", "facilities": ["open_24_hours", "tobacco", "toilet", "shop", "accepts_routex_cards", "reminder_service", "open_saturday", "open_sunday"], "products": ["ad_blue_cannister", "ad_blue_pump", "diesel_on", "lpg", "ultimate", "ultimate_diesel", "ultimate_unleaded", "unleaded_95", "ad_blue"], "website": null, "watchlist_id": null, "formatted_address": "Th\u00f6rl-Maglern 35\nTh\u00f6rl-Maglern\n9602", "channel_of_trade": null}, {"id": "1845146348", "name": "Spittal an der Drau, Zgurner Str. 2", "lat": 46.782923, "lng": 13.534306, "site_brand": "BP", "country_code": "AT", "address": "Zgurner Strasse 2", "city": "Spittal an der Drau", "state": null, "postcode": "9800", "telephone": "+43 4762 37470", "facilities": ["toilet", "shop", "accepts_routex_cards", "accepts_toll_payments", "reminder_service", "open_saturday", "open_sunday"], "products": ["ad_blue_cannister", "ad_blue_pump", "diesel_on", "natural_gas", "ultimate", "ultimate_diesel", "ultimate_unleaded", "unleaded_95", "ad_blue"], "website": null, "watchlist_id": null, "formatted_address": "Zgurner Strasse 2\nSpittal an der Drau\n9800", "channel_of_trade": null}, {"id": "18959", "name": "Grafenstein, Poggersdorf 50", "lat": 46.6414, "lng": 14.4495, "site_brand": "BP", "country_code": "AT", "address": "Landesstra\u00dfe 1-3", "city": "Poggersdorf", "state": null, "postcode": "9130", "telephone": "+43 4224 81302", "facilities": ["open_24_hours", "tobacco", "car_wash", "high_speed_pump", "truck_suitable_site", "truck_wash", "toilet", "shop", "accepts_routex_cards", "reminder_service", "open_saturday", "open_sunday"], "products": ["ad_blue_pump", "diesel_on", "ultimate", "ultimate_diesel", "ultimate_unleaded", "unleaded_95", "ad_blue"], "website": null, "watchlist_id": null, "formatted_address": "Landesstra\u00dfe 1-3\nPoggersdorf\n9130", "channel_of_trade": null}, {"id": "347", "name": "Afritz, Millstaetterstr. 85", "lat": 46.727661, "lng": 13.785455, "site_brand": "BP", "country_code": "AT", "address": "Millst\u00e4tterstra\u00dfe 85", "city": "Afritz am See", "state": null, "postcode": "9542", "telephone": "+43 4247 2747", "facilities": ["tobacco", "toilet", "shop", "accepts_routex_cards", "accepts_toll_payments", "reminder_service", "open_saturday", "open_sunday"], "products": ["ad_blue_cannister", "diesel_on", "red_diesel", "ultimate", "ultimate_diesel", "ultimate_unleaded", "unleaded_95"], "website": null, "watchlist_id": null, "formatted_address": "Millst\u00e4tterstra\u00dfe 85\nAfritz am See\n9542", "channel_of_trade": null}, {"id": "677", "name": "Villach, Maria Gailer Str. 29", "lat": 46.604738, "lng": 13.8648643, "site_brand": "BP", "country_code": "AT", "address": "Maria Gailer Stra\u00dfe 28B", "city": "Villach", "state": null, "postcode": "9500", "telephone": "+43 4242 312706", "facilities": ["open_24_hours", "tobacco", "car_wash", "high_speed_pump", "truck_suitable_site", "toilet", "shop", "bakery_bistro", "wild_bean_cafe", "accepts_routex_cards", "accepts_toll_payments", "reminder_service", "open_saturday", "open_sunday"], "products": ["ad_blue_cannister", "ad_blue_pump", "diesel_on", "ultimate", "ultimate_diesel", "ultimate_unleaded", "unleaded_95", "ad_blue"], "website": null, "watchlist_id": null, "formatted_address": "Maria Gailer Stra\u00dfe 28B\nVillach\n9500", "channel_of_trade": null}, {"id": "678", "name": "Ebene-Reichenau, Nr. 12 Turracher Bundesstr.", "lat": 46.857321, "lng": 13.8921, "site_brand": "BP", "country_code": "AT", "address": "Turracher Bundesstra\u00dfe 12", "city": "Ebene-Reichenau", "state": null, "postcode": "9565", "telephone": "", "facilities": ["car_wash", "high_speed_pump", "truck_suitable_site", "toilet", "accepts_routex_cards", "reminder_service", "open_saturday", "open_sunday"], "products": ["ad_blue_cannister", "diesel_on", "red_diesel", "ultimate", "ultimate_diesel", "unleaded_95"], "website": null, "watchlist_id": null, "formatted_address": "Turracher Bundesstra\u00dfe 12\nEbene-Reichenau\n9565", "channel_of_trade": null}, {"id": "679", "name": "Villach, Ossiacherzeile 50A", "lat": 46.611777, "lng": 13.8560069, "site_brand": "BP", "country_code": "AT", "address": "Ossiacherzeile 50 A", "city": "Villach", "state": null, "postcode": "9500", "telephone": "+43 4242 24589", "facilities": ["open_24_hours", "tobacco", "car_wash", "high_speed_pump", "truck_suitable_site", "toilet", "shop", "bakery_bistro", "wild_bean_cafe", "accepts_routex_cards", "accepts_toll_payments", "reminder_service", "open_saturday", "open_sunday"], "products": ["ad_blue_cannister", "diesel_on", "ultimate", "ultimate_diesel", "ultimate_unleaded", "unleaded_95"], "website": null, "watchlist_id": null, "formatted_address": "Ossiacherzeile 50 A\nVillach\n9500", "channel_of_trade": null}, {"id": "404", "name": "Ferlach, Klagenfurterstr. 25", "lat": 46.528, "lng": 14.2916, "site_brand": "BP", "country_code": "AT", "address": "Klagenfurterstra\u00dfe 23", "city": "Ferlach", "state": null, "postcode": "9170", "telephone": "+43 4227 30849", "facilities": ["tobacco", "car_wash", "high_speed_pump", "truck_suitable_site", "toilet", "shop", "accepts_routex_cards", "accepts_toll_payments", "reminder_service", "open_saturday", "open_sunday"], "products": ["ad_blue_cannister", "diesel_on", "red_diesel", "ultimate", "ultimate_diesel", "ultimate_unleaded", "unleaded_95"], "website": null, "watchlist_id": null, "formatted_address": "Klagenfurterstra\u00dfe 23\nFerlach\n9170", "channel_of_trade": null}, {"id": "656", "name": "St. Veit/Glan, Friesacherstr. 68", "lat": 46.7724658, "lng": 14.3672964, "site_brand": "BP", "country_code": "AT", "address": "Friesacherstra\u00dfe 68", "city": "St. Veit an der Glan", "state": null, "postcode": "9300", "telephone": "+43 4212 2398", "facilities": ["tobacco", "car_wash", "high_speed_pump", "truck_suitable_site", "toilet", "accepts_routex_cards", "accepts_toll_payments", "reminder_service", "open_saturday", "open_sunday"], "products": ["ad_blue_cannister", "ad_blue_pump", "diesel_on", "ultimate", "ultimate_diesel", "ultimate_unleaded", "unleaded_95", "ad_blue"], "website": null, "watchlist_id": null, "formatted_address": "Friesacherstra\u00dfe 68\nSt. Veit an der Glan\n9300", "channel_of_trade": null}, {"id": "9875", "name": "Egg im Bregenzerwald, Bundesstr.", "lat": 47.432516, "lng": 9.895364, "site_brand": "BP", "country_code": "AT", "address": "Bundesstra\u00dfe", "city": "Egg im Bregenzerwald", "state": null, "postcode": "6863", "telephone": "+43 5512 2530", "facilities": ["tobacco", "car_wash", "high_speed_pump", "truck_suitable_site", "toilet", "shop", "bakery_bistro", "wild_bean_cafe", "accepts_routex_cards", "accepts_toll_payments", "reminder_service", "open_saturday", "open_sunday"], "products": ["ad_blue_cannister", "diesel_on", "ultimate", "ultimate_diesel", "ultimate_unleaded", "unleaded_95"], "website": null, "watchlist_id": null, "formatted_address": "Bundesstra\u00dfe\nEgg im Bregenzerwald\n6863", "channel_of_trade": null}, {"id": "9839", "name": "Lustenau, Reichshofstr.", "lat": 47.4243142, "lng": 9.6517039, "site_brand": "BP", "country_code": "AT", "address": "Reichshofstra\u00dfe", "city": "Lustenau", "state": null, "postcode": "6890", "telephone": "+43 5577 88184", "facilities": ["tobacco", "car_wash", "high_speed_pump", "truck_suitable_site", "toilet", "accepts_routex_cards", "accepts_toll_payments", "reminder_service", "open_saturday", "open_sunday"], "products": ["ad_blue_cannister", "diesel_on", "ultimate", "ultimate_diesel", "ultimate_unleaded", "unleaded_95"], "website": null, "watchlist_id": null, "formatted_address": "Reichshofstra\u00dfe\nLustenau\n6890", "channel_of_trade": null}, {"id": "9865", "name": "Fussach, Harderstr. 84", "lat": 47.4674, "lng": 9.65825, "site_brand": "BP", "country_code": "AT", "address": "Harderstra\u00dfe 84", "city": "Fussach", "state": null, "postcode": "6972", "telephone": "+43 5578 75718", "facilities": ["tobacco", "car_wash", "high_speed_pump", "truck_suitable_site", "toilet", "merkur", "shop", "bakery_bistro", "wild_bean_cafe", "accepts_routex_cards", "accepts_toll_payments", "reminder_service", "open_saturday", "open_sunday"], "products": ["ad_blue_cannister", "diesel_on", "ultimate", "ultimate_diesel", "ultimate_unleaded", "unleaded_95"], "website": null, "watchlist_id": null, "formatted_address": "Harderstra\u00dfe 84\nFussach\n6972", "channel_of_trade": null}, {"id": "9834", "name": "Rankweil, Stiegstr. 63", "lat": 47.2798, "lng": 9.64971, "site_brand": "BP", "country_code": "AT", "address": "Stiegstra\u00dfe 63", "city": "Rankweil", "state": null, "postcode": "6830", "telephone": "+43 5522 44581", "facilities": ["tobacco", "car_wash", "high_speed_pump", "truck_suitable_site", "shop", "bakery_bistro", "wild_bean_cafe", "accepts_routex_cards", "accepts_toll_payments", "reminder_service", "open_saturday", "open_sunday"], "products": ["ad_blue_cannister", "diesel_on", "ultimate", "ultimate_diesel", "ultimate_unleaded", "unleaded_95"], "website": null, "watchlist_id": null, "formatted_address": "Stiegstra\u00dfe 63\nRankweil\n6830", "channel_of_trade": null}, {"id": "9849", "name": "Feldkirch-Gisingen, Haemmerlestr. 99", "lat": 47.2411, "lng": 9.59102, "site_brand": "BP", "country_code": "AT", "address": "H\u00e4mmerlestra\u00dfe 99", "city": "Feldkirch-Gisingen", "state": null, "postcode": "6805", "telephone": "+43 5522 73455", "facilities": ["tobacco", "car_wash", "high_speed_pump", "truck_suitable_site", "toilet", "merkur", "shop", "bakery_bistro", "wild_bean_cafe", "accepts_routex_cards", "accepts_toll_payments", "reminder_service", "open_saturday", "open_sunday"], "products": ["ad_blue_cannister", "diesel_on", "ultimate", "ultimate_diesel", "ultimate_unleaded", "unleaded_95"], "website": null, "watchlist_id": null, "formatted_address": "H\u00e4mmerlestra\u00dfe 99\nFeldkirch-Gisingen\n6805", "channel_of_trade": null}, {"id": "9871", "name": "Goetzis, Im Buch 43", "lat": 47.3397706, "lng": 9.6521602, "site_brand": "BP", "country_code": "AT", "address": "Im Buch 43", "city": "G\u00f6tzis", "state": null, "postcode": "6840", "telephone": "+43 5523 62719", "facilities": ["tobacco", "car_wash", "truck_suitable_site", "toilet", "shop", "bakery_bistro", "wild_bean_cafe", "accepts_routex_cards", "accepts_toll_payments", "reminder_service", "open_saturday", "open_sunday"], "products": ["ad_blue_cannister", "diesel_on", "ultimate", "ultimate_diesel", "ultimate_unleaded", "unleaded_95"], "website": null, "watchlist_id": null, "formatted_address": "Im Buch 43\nG\u00f6tzis\n6840", "channel_of_trade": null}, {"id": "9896", "name": "Hohenems, Lustenauer Str. 112A", "lat": 47.3736, "lng": 9.67759, "site_brand": "BP", "country_code": "AT", "address": "Lustenauer Stra\u00dfe 112a", "city": "Hohenems", "state": null, "postcode": "6845", "telephone": "+43 5576 74262", "facilities": ["open_24_hours", "tobacco", "car_wash", "high_speed_pump", "truck_suitable_site", "toilet", "merkur", "shop", "bakery_bistro", "wild_bean_cafe", "accepts_routex_cards", "accepts_toll_payments", "reminder_service", "open_saturday", "open_sunday"], "products": ["ad_blue_cannister", "ad_blue_pump", "diesel_on", "ultimate", "ultimate_diesel", "ultimate_unleaded", "unleaded_95", "ad_blue"], "website": null, "watchlist_id": null, "formatted_address": "Lustenauer Stra\u00dfe 112a\nHohenems\n6845", "channel_of_trade": null}, {"id": "392", "name": "Dornbirn, Lustenauerstr. 92", "lat": 47.412667, "lng": 9.71457, "site_brand": "BP", "country_code": "AT", "address": "Lustenauerstra\u00dfe 92", "city": "Dornbirn", "state": null, "postcode": "6850", "telephone": "+43 5572 394782", "facilities": ["tobacco", "car_wash", "toilet", "shop", "wild_bean_cafe", "accepts_routex_cards", "accepts_toll_payments", "reminder_service"], "products": ["ad_blue_cannister", "ad_blue_pump", "diesel_on", "ultimate", "ultimate_diesel", "ultimate_unleaded", "unleaded_95", "ad_blue"], "website": null, "watchlist_id": null, "formatted_address": "Lustenauerstra\u00dfe 92\nDornbirn\n6850", "channel_of_trade": null}, {"id": "379", "name": "Bregenz, Bregenzerstr. 63", "lat": 47.5109, "lng": 9.75296, "site_brand": "BP", "country_code": "AT", "address": "Bregenzerstra\u00dfe 63", "city": "Bregenz/Lochau", "state": null, "postcode": "6900", "telephone": "+43 5574 43445", "facilities": ["open_24_hours", "car_wash", "high_speed_pump", "truck_suitable_site", "toilet", "shop", "wild_bean_cafe", "accepts_routex_cards", "accepts_toll_payments", "reminder_service", "open_saturday", "open_sunday"], "products": ["ad_blue_cannister", "diesel_on", "ultimate", "ultimate_diesel", "ultimate_unleaded", "unleaded_95"], "website": null, "watchlist_id": null, "formatted_address": "Bregenzerstra\u00dfe 63\nBregenz/Lochau\n6900", "channel_of_trade": null}, {"id": "7062", "name": "Lermoos, Gries 16", "lat": 47.4068591, "lng": 10.8691182, "site_brand": "BP", "country_code": "AT", "address": "Gries 16", "city": "Lermoos", "state": null, "postcode": "6631", "telephone": "+43 5673 2197", "facilities": ["tobacco", "high_speed_pump", "truck_suitable_site", "toilet", "shop", "accepts_routex_cards", "accepts_toll_payments", "reminder_service", "open_saturday", "open_sunday"], "products": ["ad_blue_cannister", "diesel_on", "ultimate", "ultimate_diesel", "ultimate_unleaded", "unleaded_95"], "website": null, "watchlist_id": null, "formatted_address": "Gries 16\nLermoos\n6631", "channel_of_trade": null}, {"id": "459", "name": "Hall in Tirol, Pfannhausstr. 14", "lat": 47.2793, "lng": 11.5014, "site_brand": "BP", "country_code": "AT", "address": "Pfannhausstra\u00dfe 14", "city": "Hall In Tirol", "state": null, "postcode": "6060", "telephone": "+43 5223 45005", "facilities": ["tobacco", "car_wash", "high_speed_pump", "truck_suitable_site", "toilet", "accepts_routex_cards", "accepts_toll_payments", "reminder_service", "open_saturday", "open_sunday"], "products": ["ad_blue_cannister", "diesel_on", "ultimate", "ultimate_diesel", "ultimate_unleaded", "unleaded_95"], "website": null, "watchlist_id": null, "formatted_address": "Pfannhausstra\u00dfe 14\nHall In Tirol\n6060", "channel_of_trade": null}, {"id": "474", "name": "Innsbruck/Ampass", "lat": 47.263278, "lng": 11.453458, "site_brand": "BP", "country_code": "AT", "address": "A12", "city": "Ampass", "state": null, "postcode": "6070", "telephone": "+43 512 346411", "facilities": ["open_24_hours", "tobacco", "high_speed_pump", "truck_parking", "truck_suitable_site", "disabled_facilities", "toilet", "wifi", "motorway_site", "shop", "bakery_bistro", "restaurant", "wild_bean_cafe", "accepts_routex_cards", "accepts_toll_payments", "reminder_service", "open_saturday", "open_sunday"], "products": ["ad_blue_cannister", "ad_blue_pump", "diesel_on", "ultimate", "ultimate_diesel", "ultimate_unleaded", "unleaded_95", "ad_blue"], "website": null, "watchlist_id": null, "formatted_address": "A12\nAmpass\n6070", "channel_of_trade": null}, {"id": "478", "name": "Innsbruck, Kranebitterallee 30", "lat": 47.2645, "lng": 11.3658, "site_brand": "BP", "country_code": "AT", "address": "Kranebitter Allee 30", "city": "Innsbruck", "state": null, "postcode": "6020", "telephone": "+43 512 274514", "facilities": ["open_24_hours", "tobacco", "car_wash", "high_speed_pump", "truck_suitable_site", "toilet", "shop", "bakery_bistro", "wild_bean_cafe", "accepts_routex_cards", "accepts_toll_payments", "reminder_service", "open_saturday", "open_sunday"], "products": ["ad_blue_cannister", "diesel_on", "ultimate", "ultimate_diesel", "ultimate_unleaded", "unleaded_95"], "website": null, "watchlist_id": null, "formatted_address": "Kranebitter Allee 30\nInnsbruck\n6020", "channel_of_trade": null}, {"id": "9868", "name": "Mutters, Innsbrucker Str. 24", "lat": 47.2302, "lng": 11.3809, "site_brand": "BP", "country_code": "AT", "address": "Innsbrucker Stra\u00dfe 24", "city": "Mutters", "state": null, "postcode": "6162", "telephone": "+43 5224 9090062", "facilities": ["tobacco", "high_speed_pump", "truck_suitable_site", "toilet", "accepts_routex_cards", "accepts_toll_payments", "reminder_service", "open_saturday", "open_sunday"], "products": ["ad_blue_cannister", "ad_blue_pump", "diesel_on", "lpg", "ultimate", "ultimate_diesel", "ultimate_unleaded", "unleaded_95", "ad_blue"], "website": null, "watchlist_id": null, "formatted_address": "Innsbrucker Stra\u00dfe 24\nMutters\n6162", "channel_of_trade": null}, {"id": "9877", "name": "Innsbruck, Amraser Seestr. 10", "lat": 47.2609, "lng": 11.4213, "site_brand": "BP", "country_code": "AT", "address": "Amraser Seestra\u00dfe 10", "city": "Innsbruck", "state": null, "postcode": "6020", "telephone": "+43 50 8300 4000", "facilities": ["alcohol", "tobacco", "high_speed_pump", "truck_suitable_site", "toilet", "shop", "accepts_routex_cards", "accepts_toll_payments", "reminder_service", "open_saturday", "open_sunday"], "products": ["ad_blue_cannister", "ad_blue_pump", "diesel_on", "ultimate", "ultimate_diesel", "ultimate_unleaded", "unleaded_95", "ad_blue"], "website": null, "watchlist_id": null, "formatted_address": "Amraser Seestra\u00dfe 10\nInnsbruck\n6020", "channel_of_trade": null}, {"id": "30818273", "name": "Buch bei Jenbach, St. Margarethen 151b", "lat": 47.383316, "lng": 11.771831, "site_brand": "BP", "country_code": "AT", "address": "St. Margarethen 151B", "city": "Buch in Tirol", "state": null, "postcode": "6220", "telephone": "+43 1 522490900", "facilities": ["open_24_hours", "accepts_routex_cards", "reminder_service", "open_saturday", "open_sunday"], "products": ["diesel_on", "lpg", "ultimate", "ultimate_diesel", "ultimate_unleaded", "unleaded_95"], "website": null, "watchlist_id": "30818273", "formatted_address": "St. Margarethen 151B\nBuch in Tirol\n6220", "channel_of_trade": null}, {"id": "9855", "name": "Fuegen im Zillertal, Bundesstr. 271", "lat": 47.3454, "lng": 11.8528, "site_brand": "BP", "country_code": "AT", "address": "Zillertalstra\u00dfe 35", "city": "F\u00fcgen", "state": null, "postcode": "6263", "telephone": "+43 5288 62413", "facilities": ["tobacco", "high_speed_pump", "truck_suitable_site", "toilet", "accepts_routex_cards", "accepts_toll_payments", "reminder_service", "open_saturday", "open_sunday"], "products": ["ad_blue_cannister", "diesel_on", "ultimate", "ultimate_diesel", "ultimate_unleaded", "unleaded_95"], "website": null, "watchlist_id": null, "formatted_address": "Zillertalstra\u00dfe 35\nF\u00fcgen\n6263", "channel_of_trade": null}, {"id": "9880", "name": "Innsbruck, Reichenauer Str. 149", "lat": 47.2738, "lng": 11.4282, "site_brand": "BP", "country_code": "AT", "address": "Reichenauer Stra\u00dfe 149", "city": "Innsbruck", "state": null, "postcode": "6020", "telephone": "+43 50 8300", "facilities": ["alcohol", "tobacco", "high_speed_pump", "truck_parking", "truck_suitable_site", "toilet", "shop", "bakery_bistro", "accepts_routex_cards", "accepts_toll_payments", "reminder_service", "open_saturday", "open_sunday"], "products": ["ad_blue_cannister", "diesel_on", "lpg", "ultimate", "ultimate_diesel", "ultimate_unleaded", "unleaded_95"], "website": null, "watchlist_id": null, "formatted_address": "Reichenauer Stra\u00dfe 149\nInnsbruck\n6020", "channel_of_trade": null}, {"id": "690", "name": "Weer, Inntalautobahn Nord", "lat": 47.3190793, "lng": 11.6556023, "site_brand": "BP", "country_code": "AT", "address": "Inntalautobahn", "city": "Weer", "state": null, "postcode": "6114", "telephone": "+43 5224 68388", "facilities": ["open_24_hours", "tobacco", "high_speed_pump", "truck_parking", "truck_suitable_site", "disabled_facilities", "toilet", "wifi", "motorway_site", "shop", "bakery_bistro", "restaurant", "wild_bean_cafe", "accepts_routex_cards", "accepts_toll_payments", "reminder_service", "open_saturday", "open_sunday"], "products": ["ad_blue_cannister", "ad_blue_pump", "diesel_on", "ultimate", "ultimate_diesel", "ultimate_unleaded", "unleaded_95", "ad_blue"], "website": null, "watchlist_id": null, "formatted_address": "Inntalautobahn\nWeer\n6114", "channel_of_trade": null}, {"id": "1881041682", "name": "T-HEITERWANG, FERNPASSSTRASSE", "lat": 47.4366856, "lng": 10.7662369, "site_brand": "BP", "country_code": "AT", "address": "Gewerbegebiet 1", "city": "Heiterwang", "state": null, "postcode": "6611", "telephone": "+43 676 4135228", "facilities": ["open_24_hours", "shop", "accepts_routex_cards", "accepts_toll_payments", "open_saturday", "open_sunday"], "products": ["ad_blue_cannister", "ad_blue_pump", "diesel_on", "lpg", "ultimate", "ultimate_diesel", "ultimate_unleaded", "unleaded_95", "ad_blue"], "website": null, "watchlist_id": null, "formatted_address": "Gewerbegebiet 1\nHeiterwang\n6611", "channel_of_trade": null}, {"id": "9854", "name": "Telfs, Bundesstr. 1", "lat": 47.307517, "lng": 11.079287, "site_brand": "BP", "country_code": "AT", "address": "Untermarktstra\u00dfe 61", "city": "Telfs", "state": null, "postcode": "6410", "telephone": "+43 5262 62162", "facilities": ["tobacco", "high_speed_pump", "truck_suitable_site", "toilet", "shop", "wild_bean_cafe", "accepts_routex_cards", "accepts_toll_payments", "reminder_service", "open_saturday", "open_sunday"], "products": ["ad_blue_cannister", "diesel_on", "ultimate", "ultimate_diesel", "ultimate_unleaded", "unleaded_95"], "website": null, "watchlist_id": null, "formatted_address": "Untermarktstra\u00dfe 61\nTelfs\n6410", "channel_of_trade": null}, {"id": "204660218", "name": "Seefeld, Foehrenwald 498", "lat": 47.3279656, "lng": 11.1986662, "site_brand": "BP", "country_code": "AT", "address": "F\u00f6hrenwand 498", "city": "Seefeld in Tirol", "state": null, "postcode": "6100", "telephone": "+43 5212 20567", "facilities": ["tobacco", "accepts_routex_cards", "accepts_toll_payments", "reminder_service"], "products": ["ad_blue_cannister", "ad_blue_pump", "diesel_on", "ultimate", "ultimate_diesel", "ultimate_unleaded", "unleaded_95", "ad_blue"], "website": null, "watchlist_id": null, "formatted_address": "F\u00f6hrenwand 498\nSeefeld in Tirol\n6100", "channel_of_trade": null}, {"id": "9832", "name": "Bludenz, Montafoner Str. 29", "lat": 47.141829, "lng": 9.833412, "site_brand": "BP", "country_code": "AT", "address": "Montafoner Strasse 29", "city": "Bludenz", "state": null, "postcode": "6700", "telephone": "+43 50 8300 4550", "facilities": ["alcohol", "tobacco", "high_speed_pump", "truck_suitable_site", "toilet", "shop", "bakery_bistro", "accepts_routex_cards", "accepts_toll_payments", "reminder_service"], "products": ["ad_blue_cannister", "ad_blue_pump", "diesel_on", "ultimate", "ultimate_diesel", "ultimate_unleaded", "unleaded_95", "ad_blue"], "website": null, "watchlist_id": null, "formatted_address": "Montafoner Strasse 29\nBludenz\n6700", "channel_of_trade": null}, {"id": "562", "name": "Nauders/Reschenpass, Bundesstr. 279", "lat": 46.8512474, "lng": 10.5042976, "site_brand": "BP", "country_code": "AT", "address": "Bundesstra\u00dfe 279", "city": "Nauders/Reschenpass", "state": null, "postcode": "6543", "telephone": "+43 5473 87268", "facilities": ["tobacco", "high_speed_pump", "truck_suitable_site", "toilet", "shop", "accepts_routex_cards", "accepts_toll_payments", "reminder_service", "open_saturday", "open_sunday"], "products": ["ad_blue_cannister", "diesel_on", "ultimate", "ultimate_diesel", "ultimate_unleaded", "unleaded_95"], "website": null, "watchlist_id": null, "formatted_address": "Bundesstra\u00dfe 279\nNauders/Reschenpass\n6543", "channel_of_trade": null}, {"id": "9859", "name": "Nauders, Bundesstr. 292", "lat": 46.894343, "lng": 10.498367, "site_brand": "BP", "country_code": "AT", "address": "Bundesstra\u00dfe 292", "city": "Nauders", "state": null, "postcode": "6543", "telephone": "+43 5473 87336", "facilities": ["tobacco", "high_speed_pump", "truck_suitable_site", "toilet", "accepts_routex_cards", "accepts_toll_payments", "reminder_service", "open_saturday", "open_sunday"], "products": ["ad_blue_cannister", "diesel_on", "ultimate", "ultimate_diesel", "ultimate_unleaded", "unleaded_95"], "website": null, "watchlist_id": null, "formatted_address": "Bundesstra\u00dfe 292\nNauders\n6543", "channel_of_trade": null}, {"id": "9888", "name": "Ischgl, Nr. 315", "lat": 47.0157, "lng": 10.2969, "site_brand": "BP", "country_code": "AT", "address": "Silvrettastra\u00dfe 17", "city": "Ischgl", "state": null, "postcode": "6561", "telephone": "+43 5444 5787", "facilities": ["tobacco", "car_wash", "high_speed_pump", "truck_suitable_site", "toilet", "shop", "bakery_bistro", "wild_bean_cafe", "accepts_routex_cards", "accepts_toll_payments", "reminder_service", "open_saturday", "open_sunday"], "products": ["ad_blue_cannister", "diesel_on", "ultimate", "ultimate_diesel", "ultimate_unleaded", "unleaded_95"], "website": null, "watchlist_id": null, "formatted_address": "Silvrettastra\u00dfe 17\nIschgl\n6561", "channel_of_trade": null}, {"id": "3021", "name": "St. Gallenkirch, Aussergant", "lat": 47.0202617, "lng": 9.9771738, "site_brand": "BP", "country_code": "AT", "address": "Au\u00dfergant", "city": "St. Gallenkirch", "state": null, "postcode": "6791", "telephone": "+43 50 8300 4500", "facilities": ["alcohol", "tobacco", "high_speed_pump", "truck_suitable_site", "toilet", "shop", "accepts_routex_cards", "accepts_toll_payments", "reminder_service"], "products": ["ad_blue_cannister", "ad_blue_pump", "diesel_on", "ultimate", "ultimate_diesel", "ultimate_unleaded", "unleaded_95", "ad_blue"], "website": null, "watchlist_id": null, "formatted_address": "Au\u00dfergant\nSt. Gallenkirch\n6791", "channel_of_trade": null}, {"id": "7069", "name": "Neustift, Stubaitalstr. 81", "lat": 47.1115, "lng": 11.3096, "site_brand": "BP", "country_code": "AT", "address": "Stubaitalstra\u00dfe 81", "city": "Neustift", "state": null, "postcode": "6167", "telephone": "+43 5226 3525", "facilities": ["tobacco", "high_speed_pump", "truck_suitable_site", "toilet", "accepts_routex_cards", "reminder_service", "open_saturday", "open_sunday"], "products": ["ad_blue_cannister", "diesel_on", "ultimate", "ultimate_diesel", "ultimate_unleaded", "unleaded_95"], "website": null, "watchlist_id": null, "formatted_address": "Stubaitalstra\u00dfe 81\nNeustift\n6167", "channel_of_trade": null}, {"id": "9867", "name": "Soelden, Dorfstr. 148", "lat": 46.9631, "lng": 11.0077, "site_brand": "BP", "country_code": "AT", "address": "Dorfstra\u00dfe 148", "city": "S\u00f6lden", "state": null, "postcode": "6450", "telephone": "+43 5254 2466", "facilities": ["tobacco", "car_wash", "high_speed_pump", "truck_suitable_site", "toilet", "shop", "bakery_bistro", "wild_bean_cafe", "accepts_routex_cards", "accepts_toll_payments", "reminder_service", "open_saturday", "open_sunday"], "products": ["ad_blue_cannister", "diesel_on", "ultimate", "ultimate_diesel", "ultimate_unleaded", "unleaded_95"], "website": null, "watchlist_id": null, "formatted_address": "Dorfstra\u00dfe 148\nS\u00f6lden\n6450", "channel_of_trade": null}, {"id": "9890", "name": "Steinach am Brenner, Erlach 138", "lat": 47.0953, "lng": 11.4655, "site_brand": "BP", "country_code": "AT", "address": "Erlach 138", "city": "Steinach am Brenner", "state": null, "postcode": "6150", "telephone": "+43 5272 2260", "facilities": ["tobacco", "car_wash", "high_speed_pump", "truck_suitable_site", "toilet", "shop", "bakery_bistro", "wild_bean_cafe", "accepts_routex_cards", "accepts_toll_payments", "reminder_service", "open_saturday", "open_sunday"], "products": ["ad_blue_cannister", "diesel_on", "ultimate", "ultimate_diesel", "ultimate_unleaded", "unleaded_95"], "website": null, "watchlist_id": null, "formatted_address": "Erlach 138\nSteinach am Brenner\n6150", "channel_of_trade": null}, {"id": "232628006", "name": "GRIES/BRENNER,WESTUFER", "lat": 47.0378548, "lng": 11.4732324, "site_brand": "BP", "country_code": "AT", "address": "Westufer", "city": "Gries am Brenner", "state": null, "postcode": "6156", "telephone": "+43 5274 87288", "facilities": ["open_24_hours", "wifi", "motorway_site", "shop", "wild_bean_cafe", "accepts_routex_cards", "open_saturday", "open_sunday"], "products": ["ad_blue_cannister", "ad_blue_pump", "diesel_on", "ultimate", "ultimate_diesel", "ultimate_unleaded", "unleaded_95", "ad_blue"], "website": null, "watchlist_id": null, "formatted_address": "Westufer\nGries am Brenner\n6156", "channel_of_trade": null}, {"id": "441", "name": "Gries am Brenner, Ost", "lat": 47.0392729, "lng": 11.474931, "site_brand": "BP", "country_code": "AT", "address": "Ostufer", "city": "Gries am Brenner", "state": null, "postcode": "6156", "telephone": "+43 5274 87310", "facilities": ["open_24_hours", "tobacco", "high_speed_pump", "truck_parking", "truck_suitable_site", "toilet", "wifi", "motorway_site", "shop", "bakery_bistro", "wild_bean_cafe", "accepts_routex_cards", "accepts_toll_payments", "reminder_service", "open_saturday", "open_sunday"], "products": ["ad_blue_cannister", "ad_blue_pump", "diesel_on", "ultimate", "ultimate_diesel", "ultimate_unleaded", "unleaded_95", "ad_blue"], "website": null, "watchlist_id": null, "formatted_address": "Ostufer\nGries am Brenner\n6156", "channel_of_trade": null}]