[{"id": "1942344231", "name": "STATION BP AIRE DE LA LOZERE", "lat": 44.872135, "lng": 3.248559, "site_brand": "BP", "country_code": "FR", "address": "AIRE DE LA LOZERE", "city": "ALBARET SAINTE MARIE", "state": "", "postcode": "48200", "telephone": "+33 4 66 31 93 00", "facilities": ["open_saturday", "open_sunday", "open_24_hours", "toilet", "motorway_site", "shop", "truck_suitable_site"], "products": [], "website": null, "watchlist_id": null, "formatted_address": "AIRE DE LA LOZERE\nALBARET SAINTE MARIE\n48200", "channel_of_trade": null}, {"id": "486612826", "name": "BP AIRE DE MEILLAC", "lat": 44.97493, "lng": -0.431965, "site_brand": "BP", "country_code": "FR", "address": "AUTOROUTE A10 CUBZAC LES PONTS", "city": "SAINT ANDRE DE CUBZAC", "state": "", "postcode": "33240", "telephone": "+33 5 57 43 09 17", "facilities": ["open_saturday", "open_sunday", "open_24_hours", "toilet", "motorway_site", "shop", "truck_suitable_site", "high_speed_pump"], "products": [], "website": null, "watchlist_id": null, "formatted_address": "AUTOROUTE A10 CUBZAC LES PONTS\nSAINT ANDRE DE CUBZAC\n33240", "channel_of_trade": null}, {"id": "1628352753", "name": "BP AIRE DE ST LEGER EST", "lat": 45.608873, "lng": -0.597108, "site_brand": "BP", "country_code": "FR", "address": "A10 AIRE CHARENTES EST", "city": "ST LEGER", "state": "", "postcode": "17800", "telephone": "+33 5 46 91 95 99", "facilities": ["open_saturday", "open_sunday", "open_24_hours", "toilet", "motorway_site", "shop", "truck_suitable_site", "high_speed_pump"], "products": [], "website": null, "watchlist_id": null, "formatted_address": "A10 AIRE CHARENTES EST\nST LEGER\n17800", "channel_of_trade": null}, {"id": "523268260", "name": "BP LA GARDE 708", "lat": 44.87105, "lng": 3.24927, "site_brand": "BP", "country_code": "FR", "address": "LIEUDIT LA GARDE D809", "city": "ALBARET SAINTE MARIE", "state": "", "postcode": "48200", "telephone": "+33 4 66 45 60 23", "facilities": ["open_saturday", "open_sunday", "open_24_hours", "toilet", "motorway_site", "shop", "truck_suitable_site"], "products": [], "website": null, "watchlist_id": null, "formatted_address": "LIEUDIT LA GARDE D809\nALBARET SAINTE MARIE\n48200", "channel_of_trade": null}, {"id": "670936901", "name": "BP AIRE DE FRONTENNAIS NORD", "lat": 43.810683, "lng": 1.362918, "site_brand": "BP", "country_code": "FR", "address": "A 62 AIRE DE FRONTONNAIS", "city": "CASTELNAU D'ESTRETEFONDS", "state": "", "postcode": "31620", "telephone": "", "facilities": ["open_saturday", "open_sunday", "open_24_hours", "toilet", "bakery_bistro", "motorway_site", "shop", "truck_suitable_site", "high_speed_pump"], "products": [], "website": null, "watchlist_id": null, "formatted_address": "A 62 AIRE DE FRONTONNAIS\nCASTELNAU D'ESTRETEFONDS\n31620", "channel_of_trade": null}, {"id": "757939402", "name": "BP ST LEGER OUEST", "lat": 45.6131218, "lng": -0.6060076, "site_brand": "BP", "country_code": "FR", "address": "AIRE DE SAINT LEGER OUEST AUTOROUTE", "city": "ST LEGER", "state": "", "postcode": "17800", "telephone": "+33 5 46 91 91 66", "facilities": ["open_saturday", "open_sunday", "open_24_hours", "toilet", "motorway_site", "shop", "truck_suitable_site", "high_speed_pump"], "products": [], "website": null, "watchlist_id": null, "formatted_address": "AIRE DE SAINT LEGER OUEST AUTOROUTE\nST LEGER\n17800", "channel_of_trade": null}, {"id": "248590973", "name": "STATION BP AIRE DE ST RAMBERT", "lat": 45.275683, "lng": 4.829205, "site_brand": "BP", "country_code": "FR", "address": "AUTOROUTE A7 AIRE DE SAINT RAMBERT", "city": "SAINT RAMBERT D'ALBON", "state": "", "postcode": "26140", "telephone": "+33 4 75 31 02 20", "facilities": ["open_saturday", "open_sunday", "open_24_hours", "toilet", "bakery_bistro", "motorway_site", "shop", "truck_suitable_site", "high_speed_pump"], "products": [], "website": null, "watchlist_id": null, "formatted_address": "AUTOROUTE A7 AIRE DE SAINT RAMBERT\nSAINT RAMBERT D'ALBON\n26140", "channel_of_trade": null}, {"id": "233952837", "name": "BP AIRE DES PLAINES BARONNES", "lat": 43.193574, "lng": 5.671468, "site_brand": "BP", "country_code": "FR", "address": "AUTOROUTE A 50", "city": "LA CIOTAT", "state": "", "postcode": "13600", "telephone": "+33 4 42 08 05 43", "facilities": ["open_saturday", "open_sunday", "open_24_hours", "car_wash", "toilet", "motorway_site", "shop", "truck_suitable_site", "high_speed_pump"], "products": [], "website": null, "watchlist_id": null, "formatted_address": "AUTOROUTE A 50\nLA CIOTAT\n13600", "channel_of_trade": null}, {"id": "473251208", "name": "BP ST FONS P. HERRIOT", "lat": 45.70979, "lng": 4.844, "site_brand": "BP", "country_code": "FR", "address": "RN 383 BRD PIERRE SEMARD", "city": "SAINT FONS", "state": "", "postcode": "69190", "telephone": "+33 4 78 69 38 20", "facilities": ["open_saturday", "open_sunday", "open_24_hours", "toilet", "shop", "truck_suitable_site", "high_speed_pump"], "products": [], "website": null, "watchlist_id": null, "formatted_address": "RN 383 BRD PIERRE SEMARD\nSAINT FONS\n69190", "channel_of_trade": null}, {"id": "166798253", "name": "BP CANNES VALLOMBROSA", "lat": 43.5529608, "lng": 7.0067244, "site_brand": "BP", "country_code": "FR", "address": "19 21BD VALLOMBROSA", "city": "CANNES", "state": "", "postcode": "06400", "telephone": "+33 4 93 39 52 53", "facilities": ["open_saturday", "open_sunday", "car_wash", "toilet", "shop"], "products": [], "website": null, "watchlist_id": null, "formatted_address": "19 21BD VALLOMBROSA\nCANNES\n06400", "channel_of_trade": null}, {"id": "1716445039", "name": "BP VILLEURBANNE TONKIN", "lat": 45.7724205, "lng": 4.8586423, "site_brand": "BP", "country_code": "FR", "address": "87 89  BD STALINGRAD", "city": "VILLEURBANNE", "state": "", "postcode": "69100", "telephone": "+33 4 78 94 32 50", "facilities": ["open_saturday", "open_sunday", "car_wash", "toilet", "supermarket", "shop"], "products": [], "website": null, "watchlist_id": null, "formatted_address": "87 89  BD STALINGRAD\nVILLEURBANNE\n69100", "channel_of_trade": null}, {"id": "281812063", "name": "BP MARSEILLE S8", "lat": 43.31633, "lng": 5.40965, "site_brand": "BP", "country_code": "FR", "address": "12 AV JEAN PAUL SARTRE", "city": "MARSEILLE", "state": "", "postcode": "13013", "telephone": "+33 4 91 06 47 89", "facilities": ["open_saturday", "open_sunday", "open_24_hours", "car_wash", "toilet", "shop", "truck_suitable_site", "high_speed_pump"], "products": [], "website": null, "watchlist_id": null, "formatted_address": "12 AV JEAN PAUL SARTRE\nMARSEILLE\n13013", "channel_of_trade": null}, {"id": "1761533980", "name": "BP RILLIEUX SEMAILLES", "lat": 45.75071, "lng": 4.80199, "site_brand": "BP", "country_code": "FR", "address": "RUE AMPERE", "city": "RILLIEUX", "state": "", "postcode": "69140", "telephone": "+33 4 78 88 93 29", "facilities": ["open_saturday", "open_sunday", "jet_wash", "wifi", "supermarket"], "products": ["ad_blue_pump", "red_diesel", "ad_blue"], "website": null, "watchlist_id": null, "formatted_address": "RUE AMPERE\nRILLIEUX\n69140", "channel_of_trade": null}, {"id": "415080406", "name": "BP ST MARTIN D HERES MURIER", "lat": 45.16866, "lng": 5.75566, "site_brand": "BP", "country_code": "FR", "address": "46 RUE DU PRE RUFFIER", "city": "SAINT MARTIN D'HERES", "state": "", "postcode": "38400", "telephone": "+33 4 76 25 23 44", "facilities": ["open_saturday", "open_sunday", "open_24_hours", "car_wash", "toilet", "supermarket", "shop"], "products": [], "website": null, "watchlist_id": null, "formatted_address": "46 RUE DU PRE RUFFIER\nSAINT MARTIN D'HERES\n38400", "channel_of_trade": null}, {"id": "263901440", "name": "BP SAINT MARTIN", "lat": 43.59972, "lng": 6.99623, "site_brand": "BP", "country_code": "FR", "address": "1126 - 1064 AVENUE SAINT MARTIN", "city": "MOUGINS", "state": "", "postcode": "06250", "telephone": "+33 4 93 75 51 01", "facilities": ["open_saturday", "open_sunday", "car_wash", "toilet", "shop", "truck_suitable_site", "high_speed_pump"], "products": [], "website": null, "watchlist_id": null, "formatted_address": "1126 - 1064 AVENUE SAINT MARTIN\nMOUGINS\n06250", "channel_of_trade": null}, {"id": "1724018134", "name": "BP NICE MAGNAN", "lat": 43.6933622, "lng": 7.2435881, "site_brand": "BP", "country_code": "FR", "address": "31 AVENUE DU BELLET", "city": "NICE", "state": "", "postcode": "06000", "telephone": "+33 4 93 44 28 16", "facilities": ["open_saturday", "open_sunday", "car_wash", "toilet", "shop"], "products": [], "website": null, "watchlist_id": null, "formatted_address": "31 AVENUE DU BELLET\nNICE\n06000", "channel_of_trade": null}, {"id": "1063217759", "name": "BP LA LONDE LES MAURES", "lat": 43.07072, "lng": 6.13184, "site_brand": "BP", "country_code": "FR", "address": "ROUTE NATIONALE 98", "city": "LA-LONDE-LES-MAURES", "state": "", "postcode": "83250", "telephone": "+33 4 94 66 50 00", "facilities": ["open_saturday", "open_sunday", "car_wash", "toilet", "shop", "truck_suitable_site"], "products": [], "website": null, "watchlist_id": null, "formatted_address": "ROUTE NATIONALE 98\nLA-LONDE-LES-MAURES\n83250", "channel_of_trade": null}, {"id": "872334167", "name": "BP NIMES LANGUEDOC", "lat": 43.8260181, "lng": 4.3529214, "site_brand": "BP", "country_code": "FR", "address": "40 AV MARECHAL JUIN", "city": "NIMES", "state": "", "postcode": "30900", "telephone": "+33 4 66 64 37 55", "facilities": ["open_saturday", "open_sunday", "car_wash", "toilet", "shop"], "products": [], "website": null, "watchlist_id": null, "formatted_address": "40 AV MARECHAL JUIN\nNIMES\n30900", "channel_of_trade": null}, {"id": "486740315", "name": "BP ST GENIS LAVAL", "lat": 45.70194, "lng": 4.79552, "site_brand": "BP", "country_code": "FR", "address": "66  RUE GEORGES CLEMENCEAU", "city": "SAINT GENIS LAVAL", "state": "", "postcode": "69230", "telephone": "+33 4 72 39 33 97", "facilities": ["open_saturday", "open_sunday", "car_wash", "toilet", "supermarket", "shop"], "products": [], "website": null, "watchlist_id": null, "formatted_address": "66  RUE GEORGES CLEMENCEAU\nSAINT GENIS LAVAL\n69230", "channel_of_trade": null}, {"id": "206904138", "name": "BP LYON CROIX ROUSSE", "lat": 45.7795239, "lng": 4.8273762, "site_brand": "BP", "country_code": "FR", "address": "71 BOULEVARD DES CANUTS", "city": "LYON", "state": "", "postcode": "69004", "telephone": "+33 4 78 27 98 00", "facilities": ["open_saturday", "open_sunday", "car_wash", "toilet", "supermarket", "shop"], "products": [], "website": null, "watchlist_id": null, "formatted_address": "71 BOULEVARD DES CANUTS\nLYON\n69004", "channel_of_trade": null}, {"id": "1881019186", "name": "BP AIRE DE MANISSIEUX", "lat": 45.697839, "lng": 4.978039, "site_brand": "BP", "country_code": "FR", "address": "AUTOROUTE A43 AIRE DE MANISSIEUX", "city": "SAINT PRIEST", "state": "", "postcode": "69800", "telephone": "", "facilities": ["open_saturday", "open_sunday", "open_24_hours", "toilet", "motorway_site", "shop", "truck_suitable_site", "high_speed_pump"], "products": [], "website": null, "watchlist_id": null, "formatted_address": "AUTOROUTE A43 AIRE DE MANISSIEUX\nSAINT PRIEST\n69800", "channel_of_trade": null}, {"id": "1388567739", "name": "BP FREJUS TASSIGNY", "lat": 43.4301779, "lng": 6.7576402, "site_brand": "BP", "country_code": "FR", "address": "1239 AV  DE LATTRE DE TASSIGNY", "city": "FREJUS", "state": "", "postcode": "83600", "telephone": "+33 4 94 53 00 88", "facilities": ["open_saturday", "open_sunday", "car_wash", "toilet", "shop", "truck_suitable_site", "high_speed_pump"], "products": [], "website": null, "watchlist_id": null, "formatted_address": "1239 AV  DE LATTRE DE TASSIGNY\nFREJUS\n83600", "channel_of_trade": null}, {"id": "1445780501", "name": "BP  CAGNES PENETRANTE", "lat": 43.6700883, "lng": 7.1251278, "site_brand": "BP", "country_code": "FR", "address": "5 AVENUE CHEIRON", "city": "CAGNES SUR MER", "state": "", "postcode": "06800", "telephone": "+33 4 93 22 07 33", "facilities": ["open_saturday", "open_sunday", "car_wash", "toilet", "shop"], "products": [], "website": null, "watchlist_id": null, "formatted_address": "5 AVENUE CHEIRON\nCAGNES SUR MER\n06800", "channel_of_trade": null}, {"id": "39000879", "name": "BP GRASSE CAMPANETTES", "lat": 43.6450727, "lng": 6.9010537, "site_brand": "BP", "country_code": "FR", "address": "ROUTE DE DRAGUIGNAN", "city": "GRASSE", "state": "", "postcode": "06130", "telephone": "+33 4 93 70 18 17", "facilities": ["open_saturday", "open_sunday", "toilet", "shop"], "products": [], "website": null, "watchlist_id": "39000879", "formatted_address": "ROUTE DE DRAGUIGNAN\nGRASSE\n06130", "channel_of_trade": null}, {"id": "13271229", "name": "BP  GRENOBLE BELLEDONNE", "lat": 45.17098, "lng": 5.72479, "site_brand": "BP", "country_code": "FR", "address": "117 RUE DE STALINGRAD", "city": "GRENOBLE", "state": "", "postcode": "38100", "telephone": "+33 4 76 09 15 12", "facilities": ["open_saturday", "open_sunday", "shop"], "products": [], "website": null, "watchlist_id": "13271229", "formatted_address": "117 RUE DE STALINGRAD\nGRENOBLE\n38100", "channel_of_trade": null}, {"id": "279630057", "name": "BP NICE ARENAS", "lat": 43.67001, "lng": 7.22052, "site_brand": "BP", "country_code": "FR", "address": "ZAC ARENAS 123 BD RENE CASSIN", "city": "NICE", "state": "", "postcode": "06200", "telephone": "+33 4 92 29 02 02", "facilities": ["open_saturday", "open_sunday", "car_wash", "toilet", "shop", "truck_suitable_site"], "products": [], "website": null, "watchlist_id": null, "formatted_address": "ZAC ARENAS 123 BD RENE CASSIN\nNICE\n06200", "channel_of_trade": null}, {"id": "1009965596", "name": "BP AIX JUIN", "lat": 43.521518, "lng": 5.4350428, "site_brand": "BP", "country_code": "FR", "address": "1 BL MARECHAL JUIN", "city": "AIX EN PROVENCE", "state": "", "postcode": "13100", "telephone": "+33 4 42 59 38 51", "facilities": ["open_saturday", "open_sunday", "car_wash", "toilet", "supermarket", "shop"], "products": [], "website": null, "watchlist_id": null, "formatted_address": "1 BL MARECHAL JUIN\nAIX EN PROVENCE\n13100", "channel_of_trade": null}, {"id": "1014052586", "name": "BP  AIRE DU GRANIER", "lat": 45.52667, "lng": 5.973202, "site_brand": "BP", "country_code": "FR", "address": "AUTOROUTE A41 AIRE DU GRANIER", "city": "MYANS", "state": "", "postcode": "73800", "telephone": "+33 4 79 28 31 85", "facilities": ["open_saturday", "open_sunday", "open_24_hours", "toilet", "motorway_site", "shop", "truck_suitable_site", "high_speed_pump"], "products": [], "website": null, "watchlist_id": null, "formatted_address": "AUTOROUTE A41 AIRE DU GRANIER\nMYANS\n73800", "channel_of_trade": null}, {"id": "322850126", "name": "STATION BP AIRE DE ST ROMAIN E", "lat": 45.570717, "lng": 4.711072, "site_brand": "BP", "country_code": "FR", "address": "AUTOROUTE A47 AIRE DE SAINT ROMAIN", "city": "GIVORS", "state": "", "postcode": "69700", "telephone": "+33 4 72 24 59 89", "facilities": ["open_saturday", "open_sunday", "open_24_hours", "toilet", "bakery_bistro", "motorway_site", "shop", "truck_suitable_site", "high_speed_pump"], "products": [], "website": null, "watchlist_id": null, "formatted_address": "AUTOROUTE A47 AIRE DE SAINT ROMAIN\nGIVORS\n69700", "channel_of_trade": null}, {"id": "768989000", "name": "BP AIRE DE LA CHABURE", "lat": 45.445199, "lng": 4.466574, "site_brand": "BP", "country_code": "FR", "address": "RN 88 LIEUDIT LA MAISON ROUGE", "city": "ST JEAN BONNEFONDS", "state": "", "postcode": "42650", "telephone": "+33 4 77 22 20 60", "facilities": ["open_saturday", "open_sunday", "open_24_hours", "toilet", "bakery_bistro", "motorway_site", "shop", "truck_suitable_site", "high_speed_pump"], "products": [], "website": null, "watchlist_id": null, "formatted_address": "RN 88 LIEUDIT LA MAISON ROUGE\nST JEAN BONNEFONDS\n42650", "channel_of_trade": null}, {"id": "954276185", "name": "BP AIRE DE ST AUGUSTIN LA CRAU", "lat": 43.135429, "lng": 6.047425, "site_brand": "BP", "country_code": "FR", "address": "A 570 AIRE DE ST AUGUSTIN", "city": "LA CRAU", "state": "", "postcode": "83260", "telephone": "+33 4 94 35 12 18", "facilities": ["open_saturday", "open_sunday", "open_24_hours", "car_wash", "toilet", "bakery_bistro", "motorway_site", "shop", "truck_suitable_site", "high_speed_pump"], "products": [], "website": null, "watchlist_id": null, "formatted_address": "A 570 AIRE DE ST AUGUSTIN\nLA CRAU\n83260", "channel_of_trade": null}, {"id": "1388376489", "name": "BP AIRE DE L ABIS", "lat": 45.525257, "lng": 5.976804, "site_brand": "BP", "country_code": "FR", "address": "AIRE DE L ABIS AUTOROUTE A 43", "city": "ST JEOIRE EN PRIEURE", "state": "", "postcode": "73190", "telephone": "", "facilities": ["open_saturday", "open_sunday", "open_24_hours", "toilet", "motorway_site", "shop", "truck_suitable_site", "high_speed_pump"], "products": [], "website": null, "watchlist_id": null, "formatted_address": "AIRE DE L ABIS AUTOROUTE A 43\nST JEOIRE EN PRIEURE\n73190", "channel_of_trade": null}, {"id": "2098241335", "name": "BP DE LA PAOUTE", "lat": 43.63281, "lng": 6.957609, "site_brand": "BP", "country_code": "FR", "address": "111 ROUTE DE LA PAOUTE", "city": "LE PLAN DE GRASSE", "state": "", "postcode": "06130", "telephone": "+33 4 93 77 97 66", "facilities": ["open_saturday", "open_sunday", "toilet", "motorway_site", "shop", "truck_suitable_site"], "products": [], "website": null, "watchlist_id": null, "formatted_address": "111 ROUTE DE LA PAOUTE\nLE PLAN DE GRASSE\n06130", "channel_of_trade": null}, {"id": "823513301", "name": "BP GRENOBLE VERCORS", "lat": 45.1800485, "lng": 5.7123975, "site_brand": "BP", "country_code": "FR", "address": "23   27 BRD JOSEPH VALLIER", "city": "GRENOBLE", "state": "", "postcode": "38000", "telephone": "+33 4 76 96 38 58", "facilities": ["open_saturday", "open_sunday", "open_24_hours", "car_wash", "toilet", "shop"], "products": [], "website": null, "watchlist_id": null, "formatted_address": "23   27 BRD JOSEPH VALLIER\nGRENOBLE\n38000", "channel_of_trade": null}, {"id": "824193992", "name": "BP VENISSIEUX", "lat": 45.70563, "lng": 4.87836, "site_brand": "BP", "country_code": "FR", "address": "61  AV DE LA REPUBLIQUE", "city": "VENISSIEUX", "state": "", "postcode": "69200", "telephone": "+33 4 72 50 43 32", "facilities": ["open_saturday", "open_sunday", "car_wash", "shop", "truck_suitable_site", "high_speed_pump"], "products": [], "website": null, "watchlist_id": null, "formatted_address": "61  AV DE LA REPUBLIQUE\nVENISSIEUX\n69200", "channel_of_trade": null}, {"id": "576026768", "name": "BP MENTON UNION", "lat": 43.7659602, "lng": 7.487676, "site_brand": "BP", "country_code": "FR", "address": "1 AVENUE GENERAL DE GAULLE", "city": "MENTON", "state": "", "postcode": "06500", "telephone": "+33 4 93 35 98 48", "facilities": ["open_saturday", "open_sunday", "car_wash", "toilet", "shop"], "products": [], "website": null, "watchlist_id": null, "formatted_address": "1 AVENUE GENERAL DE GAULLE\nMENTON\n06500", "channel_of_trade": null}, {"id": "520209239", "name": "BP  VILLEURBANNE THILLEUL", "lat": 45.7631041, "lng": 4.8764994, "site_brand": "BP", "country_code": "FR", "address": "72 COURS TOLSTOI", "city": "VILLEURBANNE", "state": "", "postcode": "69100", "telephone": "+33 4 78 68 20 24", "facilities": ["open_saturday", "open_sunday", "car_wash", "toilet", "supermarket", "shop"], "products": [], "website": null, "watchlist_id": null, "formatted_address": "72 COURS TOLSTOI\nVILLEURBANNE\n69100", "channel_of_trade": null}, {"id": "1407502877", "name": "BP ST PRIEST", "lat": 45.68356, "lng": 4.95339, "site_brand": "BP", "country_code": "FR", "address": "119 RTE DHEYRIEUX", "city": "ST PRIEST", "state": "", "postcode": "69800", "telephone": "+33 4 78 21 96 22", "facilities": ["open_saturday", "open_sunday", "open_24_hours", "car_wash", "shop", "truck_suitable_site", "high_speed_pump"], "products": [], "website": null, "watchlist_id": null, "formatted_address": "119 RTE DHEYRIEUX\nST PRIEST\n69800", "channel_of_trade": null}, {"id": "11743268", "name": "BP MARTIGUES STE ANNE", "lat": 43.39985, "lng": 5.06111, "site_brand": "BP", "country_code": "FR", "address": "ROND POINT SAINTE ANNE", "city": "MARTIGUES", "state": "", "postcode": "13500", "telephone": "+33 4 42 07 06 06", "facilities": ["open_saturday", "open_sunday", "car_wash", "toilet", "shop", "truck_suitable_site"], "products": [], "website": null, "watchlist_id": "11743268", "formatted_address": "ROND POINT SAINTE ANNE\nMARTIGUES\n13500", "channel_of_trade": null}, {"id": "1573094563", "name": "BP STE FOY LES LYON", "lat": 45.75071, "lng": 4.80199, "site_brand": "BP", "country_code": "FR", "address": "37 RUE COMMANDANT CHARCOT", "city": "STE FOY LES LYON", "state": "", "postcode": "69110", "telephone": "+33 4 78 25 51 50", "facilities": ["open_saturday", "open_sunday", "toilet", "shop"], "products": [], "website": null, "watchlist_id": null, "formatted_address": "37 RUE COMMANDANT CHARCOT\nSTE FOY LES LYON\n69110", "channel_of_trade": null}, {"id": "265347855", "name": "BP VINON RAMU ET FILS", "lat": 43.7268, "lng": 5.81162, "site_brand": "BP", "country_code": "FR", "address": "VINOM SUR VERDON", "city": "VINON SUR VERDON", "state": "", "postcode": "83560", "telephone": "+33 4 92 78 80 35", "facilities": ["open_saturday", "open_sunday", "toilet", "truck_suitable_site"], "products": [], "website": null, "watchlist_id": null, "formatted_address": "VINOM SUR VERDON\nVINON SUR VERDON\n83560", "channel_of_trade": null}, {"id": "1496417714", "name": "BP NIMES PROVENCE", "lat": 43.8406333, "lng": 4.3723159, "site_brand": "BP", "country_code": "FR", "address": "89 RUE PIERRE SEMARD", "city": "NIMES", "state": "", "postcode": "30000", "telephone": "+33 4 66 67 24 46", "facilities": ["open_saturday", "open_sunday", "car_wash", "toilet", "supermarket", "shop"], "products": [], "website": null, "watchlist_id": null, "formatted_address": "89 RUE PIERRE SEMARD\nNIMES\n30000", "channel_of_trade": null}, {"id": "1741614293", "name": "BP LYON PONT PASTEUR", "lat": 45.73455, "lng": 4.81873, "site_brand": "BP", "country_code": "FR", "address": "84 QUAI PERRACHE", "city": "LYON", "state": "", "postcode": "69002", "telephone": "+33 4 78 42 27 27", "facilities": ["open_saturday", "open_sunday", "open_24_hours", "toilet", "shop", "truck_suitable_site", "high_speed_pump"], "products": [], "website": null, "watchlist_id": null, "formatted_address": "84 QUAI PERRACHE\nLYON\n69002", "channel_of_trade": null}, {"id": "470716143", "name": "BP FREJUS ST PONS", "lat": 43.43329929, "lng": 6.728938446, "site_brand": "BP", "country_code": "FR", "address": "RD 37 QUARTIER ST PONS", "city": "FREJUS", "state": "", "postcode": "83600", "telephone": "+33 4 94 53 14 75", "facilities": ["open_saturday", "open_sunday", "jet_wash", "wifi", "supermarket", "truck_suitable_site"], "products": ["ad_blue_pump", "ad_blue"], "website": null, "watchlist_id": null, "formatted_address": "RD 37 QUARTIER ST PONS\nFREJUS\n83600", "channel_of_trade": null}, {"id": "767939039", "name": "BP TERNAY GARAGE DES PIERRES", "lat": 45.60608, "lng": 4.81138, "site_brand": "BP", "country_code": "FR", "address": "12 RN E CENTRE COMMERCIAL", "city": "TERNAY", "state": "", "postcode": "69360", "telephone": "+33 4 72 24 77 02", "facilities": ["open_saturday", "open_sunday", "toilet", "shop"], "products": [], "website": null, "watchlist_id": null, "formatted_address": "12 RN E CENTRE COMMERCIAL\nTERNAY\n69360", "channel_of_trade": null}, {"id": "251520449", "name": "BP ANTIBES PALMIERS", "lat": 43.5869273, "lng": 7.1209243, "site_brand": "BP", "country_code": "FR", "address": "AV DU 11 NOVEMBRE", "city": "ANTIBES", "state": "", "postcode": "06600", "telephone": "+33 4 93 74 13 74", "facilities": ["open_saturday", "open_sunday", "toilet", "shop"], "products": [], "website": null, "watchlist_id": null, "formatted_address": "AV DU 11 NOVEMBRE\nANTIBES\n06600", "channel_of_trade": null}, {"id": "1011048702", "name": "BP TOULON PORT MARCHAND", "lat": 43.07072, "lng": 5.56151, "site_brand": "BP", "country_code": "FR", "address": "ROND POINT BONAPARTE", "city": "TOULON", "state": "", "postcode": "83100", "telephone": "+33 4 94 41 01 51", "facilities": ["open_saturday", "open_sunday", "open_24_hours", "car_wash", "toilet", "supermarket", "shop"], "products": [], "website": null, "watchlist_id": null, "formatted_address": "ROND POINT BONAPARTE\nTOULON\n83100", "channel_of_trade": null}, {"id": "856399524", "name": "BP CAGNES MALVAN", "lat": 43.6600786, "lng": 7.1379323, "site_brand": "BP", "country_code": "FR", "address": "36 AVENUE DES ALPES", "city": "CAGNES SUR MER", "state": "", "postcode": "06800", "telephone": "+33 4 93 73 49 19", "facilities": ["open_saturday", "open_sunday", "car_wash", "toilet", "shop"], "products": [], "website": null, "watchlist_id": null, "formatted_address": "36 AVENUE DES ALPES\nCAGNES SUR MER\n06800", "channel_of_trade": null}, {"id": "34352994", "name": "BP NICE GRAND SOLEIL", "lat": 43.6742991, "lng": 7.2210271, "site_brand": "BP", "country_code": "FR", "address": "BOULEVARD NAPOLEON III", "city": "NICE", "state": "", "postcode": "06200", "telephone": "+33 4 93 83 68 00", "facilities": ["open_saturday", "open_sunday", "open_24_hours", "toilet", "shop"], "products": [], "website": null, "watchlist_id": "34352994", "formatted_address": "BOULEVARD NAPOLEON III\nNICE\n06200", "channel_of_trade": null}, {"id": "2011394877", "name": "BP NICE GAMBETTA", "lat": 43.7075246, "lng": 7.2560882, "site_brand": "BP", "country_code": "FR", "address": "123  BD GAMBETTA", "city": "NICE", "state": "", "postcode": "06000", "telephone": "+33 4 93 96 66 02", "facilities": ["open_saturday", "open_sunday", "car_wash", "toilet", "shop"], "products": [], "website": null, "watchlist_id": null, "formatted_address": "123  BD GAMBETTA\nNICE\n06000", "channel_of_trade": null}, {"id": "103865511", "name": "BP NICE FRANKLIN", "lat": 43.7097068, "lng": 7.2655958, "site_brand": "BP", "country_code": "FR", "address": "5 7 PLACE FRANKLIN", "city": "NICE", "state": "", "postcode": "06000", "telephone": "+33 4 93 87 22 85", "facilities": ["open_saturday", "open_sunday", "lorry_and_truck_terminal", "special_car_wash"], "products": ["red_diesel", "auto_gas"], "website": null, "watchlist_id": null, "formatted_address": "5 7 PLACE FRANKLIN\nNICE\n06000", "channel_of_trade": null}, {"id": "1946088280", "name": "BP NICE FALICON", "lat": 43.7014, "lng": 7.25789, "site_brand": "BP", "country_code": "FR", "address": "BD COMTE DE FALICON", "city": "NICE", "state": "", "postcode": "06100", "telephone": "+33 4 93 51 15 70", "facilities": ["open_saturday", "open_sunday", "car_wash", "shop", "truck_suitable_site"], "products": [], "website": null, "watchlist_id": null, "formatted_address": "BD COMTE DE FALICON\nNICE\n06100", "channel_of_trade": null}, {"id": "818880649", "name": "BP VILLEURBANNE FACULTES", "lat": 45.7788136, "lng": 4.8693639, "site_brand": "BP", "country_code": "FR", "address": "110 BD DU 11 NOVEMBRE 1918", "city": "VILLEURBANNE", "state": "", "postcode": "69100", "telephone": "+33 4 78 94 16 67", "facilities": ["open_saturday", "open_sunday", "car_wash", "toilet", "supermarket", "shop"], "products": [], "website": null, "watchlist_id": null, "formatted_address": "110 BD DU 11 NOVEMBRE 1918\nVILLEURBANNE\n69100", "channel_of_trade": null}, {"id": "537123754", "name": "BP MARSEILLE ETOILE", "lat": 43.35221, "lng": 5.43693, "site_brand": "BP", "country_code": "FR", "address": "37 AVENUE DE CHATEAU GOMBERT", "city": "MARSEILLE", "state": "", "postcode": "13013", "telephone": "+33 4 91 68 14 30", "facilities": ["open_saturday", "open_sunday", "car_wash", "toilet", "shop"], "products": [], "website": null, "watchlist_id": null, "formatted_address": "37 AVENUE DE CHATEAU GOMBERT\nMARSEILLE\n13013", "channel_of_trade": null}, {"id": "432772455", "name": "BP MANDELIEU RELAIS LESTEREL", "lat": 43.53705, "lng": 6.93456, "site_brand": "BP", "country_code": "FR", "address": "ROUTE NATIONALE 7", "city": "MANDELIEU", "state": "", "postcode": "06210", "telephone": "+33 4 93 49 50 47", "facilities": ["open_saturday", "open_sunday", "car_wash", "toilet", "shop"], "products": [], "website": null, "watchlist_id": null, "formatted_address": "ROUTE NATIONALE 7\nMANDELIEU\n06210", "channel_of_trade": null}, {"id": "1597060569", "name": "BP VILLEURBANNE CHARMETTES", "lat": 45.7709, "lng": 4.86829, "site_brand": "BP", "country_code": "FR", "address": "47 COURS EMILE ZOLA", "city": "VILLEURBANNE", "state": "", "postcode": "69100", "telephone": "+33 4 78 89 66 34", "facilities": ["open_saturday", "open_sunday", "car_wash", "supermarket", "shop"], "products": [], "website": null, "watchlist_id": null, "formatted_address": "47 COURS EMILE ZOLA\nVILLEURBANNE\n69100", "channel_of_trade": null}, {"id": "1763345768", "name": "BP GRENOBLE CHARTREUSE", "lat": 45.1992686, "lng": 5.7393123, "site_brand": "BP", "country_code": "FR", "address": "3 AV DU MARECHAL RANDON", "city": "GRENOBLE", "state": "", "postcode": "38000", "telephone": "+33 4 76 42 06 85", "facilities": ["open_saturday", "open_sunday", "car_wash", "toilet", "supermarket", "shop"], "products": [], "website": null, "watchlist_id": null, "formatted_address": "3 AV DU MARECHAL RANDON\nGRENOBLE\n38000", "channel_of_trade": null}, {"id": "1544625259", "name": "BP VENELLES LES CABASSOLS", "lat": 43.59414, "lng": 5.48245, "site_brand": "BP", "country_code": "FR", "address": "2 AVENUE MAURICE PLANTIER", "city": "VENELLES", "state": "", "postcode": "13770", "telephone": "+33 4 42 54 17 31", "facilities": ["open_saturday", "open_sunday", "car_wash", "toilet", "shop", "truck_suitable_site"], "products": [], "website": null, "watchlist_id": null, "formatted_address": "2 AVENUE MAURICE PLANTIER\nVENELLES\n13770", "channel_of_trade": null}, {"id": "279133951", "name": "BP ST ETIENNE BEAULIEU", "lat": 45.424337, "lng": 4.4111991, "site_brand": "BP", "country_code": "FR", "address": "12 BD KARL MARX", "city": "SAINT ETIENNE", "state": "", "postcode": "42100", "telephone": "+33 4 77 25 19 50", "facilities": ["open_saturday", "open_sunday", "car_wash", "toilet", "supermarket", "shop"], "products": [], "website": null, "watchlist_id": null, "formatted_address": "12 BD KARL MARX\nSAINT ETIENNE\n42100", "channel_of_trade": null}, {"id": "958329227", "name": "BP MARSEILLE ST BARNABE", "lat": 43.3041233, "lng": 5.4116993, "site_brand": "BP", "country_code": "FR", "address": "53 AV DE ST BARNABE", "city": "MARSEILLE", "state": "", "postcode": "13012", "telephone": "+33 4 91 49 29 02", "facilities": ["open_saturday", "open_sunday", "car_wash", "toilet", "supermarket", "shop"], "products": [], "website": null, "watchlist_id": null, "formatted_address": "53 AV DE ST BARNABE\nMARSEILLE\n13012", "channel_of_trade": null}, {"id": "1242349994", "name": "BP MORNAS VILLAGE", "lat": 44.195455, "lng": 4.732147, "site_brand": "BP", "country_code": "FR", "address": "AIRE DE MORNAS VILLAGE A7", "city": "MORNAS", "state": "", "postcode": "84550", "telephone": "+33 4 90 37 03 93", "facilities": ["open_saturday", "open_sunday", "open_24_hours"], "products": [], "website": null, "watchlist_id": null, "formatted_address": "AIRE DE MORNAS VILLAGE A7\nMORNAS\n84550", "channel_of_trade": null}, {"id": "1006701065", "name": "BP AIRE DE SAINT PRIEST", "lat": 45.697928, "lng": 4.975772, "site_brand": "BP", "country_code": "FR", "address": "AUTOROUTE A43 AIRE DE SAINT PRIEST", "city": "SAINT PRIEST", "state": "", "postcode": "69800", "telephone": "+33 4 78 90 52 01", "facilities": ["open_saturday", "open_sunday", "open_24_hours", "car_wash", "toilet", "shop", "truck_suitable_site", "high_speed_pump"], "products": [], "website": null, "watchlist_id": null, "formatted_address": "AUTOROUTE A43 AIRE DE SAINT PRIEST\nSAINT PRIEST\n69800", "channel_of_trade": null}, {"id": "36765461", "name": "BP AIRE AMBRUSSUM NORD", "lat": 43.714772, "lng": 4.133786, "site_brand": "BP", "country_code": "FR", "address": "AUTOROUTE A9 AIRE AMBRUSSUM NORD", "city": "LUNEL", "state": "", "postcode": "34440", "telephone": "+33 4 67 86 84 84", "facilities": ["open_saturday", "open_sunday", "open_24_hours", "toilet", "motorway_site", "shop", "truck_suitable_site", "high_speed_pump"], "products": [], "website": null, "watchlist_id": "36765461", "formatted_address": "AUTOROUTE A9 AIRE AMBRUSSUM NORD\nLUNEL\n34440", "channel_of_trade": null}, {"id": "695111746", "name": "STATION AVIA", "lat": 43.94972, "lng": 6.81003, "site_brand": "AV", "country_code": "FR", "address": "RN 202", "city": "ENTREVAUX", "state": null, "postcode": "4320", "telephone": "+33 4 93 05 40 31", "facilities": ["truck_suitable_site", "toilet", "accepts_routex_cards", "open_saturday", "open_sunday"], "products": [], "website": null, "watchlist_id": null, "formatted_address": "RN 202\nENTREVAUX\n4320", "channel_of_trade": null}, {"id": "273924412", "name": "BP COURS LA VILLE  DOLLIDIER", "lat": 46.10339, "lng": 4.31804, "site_brand": "BP", "country_code": "FR", "address": "56 B RUE DE CHARLIEU", "city": "COURS LA VILLE", "state": "", "postcode": "69470", "telephone": "+33 4 74 89 75 45", "facilities": ["open_saturday", "open_sunday", "toilet", "shop", "truck_suitable_site"], "products": [], "website": null, "watchlist_id": null, "formatted_address": "56 B RUE DE CHARLIEU\nCOURS LA VILLE\n69470", "channel_of_trade": null}, {"id": "1379221285", "name": "BP CLUSES MALADIERE", "lat": 46.04994, "lng": 6.59631, "site_brand": "BP", "country_code": "FR", "address": "705 ROUTE DE CHAMONIX", "city": "CLUSES", "state": "", "postcode": "74300", "telephone": "+33 4 50 98 03 44", "facilities": ["open_saturday", "open_sunday", "open_24_hours", "toilet", "shop", "truck_suitable_site", "high_speed_pump"], "products": [], "website": null, "watchlist_id": null, "formatted_address": "705 ROUTE DE CHAMONIX\nCLUSES\n74300", "channel_of_trade": null}, {"id": "317710079", "name": "BP CALUIRE  MONTEE DES SOLDATS", "lat": 45.79746, "lng": 4.85299, "site_brand": "BP", "country_code": "FR", "address": "MONTEE DES SOLDATS", "city": "CALUIRE ET CUIRE", "state": "", "postcode": "69300", "telephone": "+33 4 78 23 35 01", "facilities": ["open_saturday", "open_sunday", "toilet", "supermarket", "shop"], "products": [], "website": null, "watchlist_id": null, "formatted_address": "MONTEE DES SOLDATS\nCALUIRE ET CUIRE\n69300", "channel_of_trade": null}, {"id": "406711628", "name": "BP AIRE DE BOURG TEYSONGUE", "lat": 46.20639, "lng": 5.294101, "site_brand": "BP", "country_code": "FR", "address": "AIRE DE BOURG TEYSONGUE A 40", "city": "CEYZERIAT", "state": "", "postcode": "01250", "telephone": "+33 4 74 22 80 70", "facilities": ["open_saturday", "open_sunday", "open_24_hours", "toilet", "motorway_site", "shop", "truck_suitable_site", "high_speed_pump"], "products": [], "website": null, "watchlist_id": null, "formatted_address": "AIRE DE BOURG TEYSONGUE A 40\nCEYZERIAT\n01250", "channel_of_trade": null}, {"id": "415911204", "name": "BP TRUCKSTOPS MACON", "lat": 46.36492, "lng": 4.84317, "site_brand": "BP", "country_code": "FR", "address": "136 ZONE DACTIVITES", "city": "SENNECE LES MACON", "state": "", "postcode": "71000", "telephone": "+33 3 85 37 59 40", "facilities": ["open_saturday", "open_sunday", "toilet", "bakery_bistro", "shop", "truck_suitable_site", "high_speed_pump"], "products": [], "website": null, "watchlist_id": null, "formatted_address": "136 ZONE DACTIVITES\nSENNECE LES MACON\n71000", "channel_of_trade": null}, {"id": "322028025", "name": "BP AIRE DE LA FERTE", "lat": 46.694367, "lng": 4.843163, "site_brand": "BP", "country_code": "FR", "address": "AIRE DE LA FERTE AUT A6", "city": "LA FERTE SAINT AMBREUIL", "state": "", "postcode": "71240", "telephone": "+33 3 85 94 84 17", "facilities": ["open_saturday", "open_sunday", "open_24_hours"], "products": [], "website": null, "watchlist_id": null, "formatted_address": "AIRE DE LA FERTE AUT A6\nLA FERTE SAINT AMBREUIL\n71240", "channel_of_trade": null}, {"id": "120659691", "name": "BP MACON VAL DE SAONE", "lat": 46.33034, "lng": 4.84375, "site_brand": "BP", "country_code": "FR", "address": "ROUTE NATIONALE 6", "city": "MACON", "state": "", "postcode": "71000", "telephone": "+33 3 85 38 38 16", "facilities": ["open_saturday", "open_sunday", "car_wash", "toilet", "bakery_bistro", "shop", "truck_suitable_site", "high_speed_pump"], "products": [], "website": null, "watchlist_id": null, "formatted_address": "ROUTE NATIONALE 6\nMACON\n71000", "channel_of_trade": null}, {"id": "1051361749", "name": "BP BEAUNE SAINT JACQUES", "lat": 47.01166, "lng": 4.85038, "site_brand": "BP", "country_code": "FR", "address": "AV DU GENERAL DE GAULLE", "city": "BEAUNE", "state": "", "postcode": "21200", "telephone": "+33 3 80 22 36 08", "facilities": ["open_saturday", "open_sunday", "car_wash", "toilet", "supermarket", "shop", "truck_suitable_site", "high_speed_pump"], "products": [], "website": null, "watchlist_id": null, "formatted_address": "AV DU GENERAL DE GAULLE\nBEAUNE\n21200", "channel_of_trade": null}, {"id": "1602805577", "name": "BP BRUMATH", "lat": 48.720572, "lng": 7.695998, "site_brand": "BP", "country_code": "FR", "address": "AIRE DE BRUMATH EST A4", "city": "BRUMATH", "state": "", "postcode": "67170", "telephone": "", "facilities": ["open_saturday", "open_sunday", "open_24_hours", "car_wash", "toilet", "shop", "truck_suitable_site"], "products": [], "website": null, "watchlist_id": null, "formatted_address": "AIRE DE BRUMATH EST A4\nBRUMATH\n67170", "channel_of_trade": null}, {"id": "221251156", "name": "BP AIRE DE TOUL DOMMARTIN", "lat": 48.65875, "lng": 5.9066, "site_brand": "BP", "country_code": "FR", "address": "AUTOROUTE A 31", "city": "DOMMARTIN LES TOUL", "state": "", "postcode": "54200", "telephone": "+33 3 83 43 19 23", "facilities": ["open_saturday", "open_sunday", "open_24_hours", "toilet", "motorway_site", "shop", "truck_suitable_site", "high_speed_pump"], "products": [], "website": null, "watchlist_id": null, "formatted_address": "AUTOROUTE A 31\nDOMMARTIN LES TOUL\n54200", "channel_of_trade": null}, {"id": "1842359560", "name": "BP AIRE DE VAL DE SAONE", "lat": 47.183337, "lng": 5.334162, "site_brand": "BP", "country_code": "FR", "address": "AUTOROUTE A39 AIRE VAL DE SAONE", "city": "PONT", "state": "", "postcode": "21130", "telephone": "+33 3 80 31 41 09", "facilities": ["open_saturday", "open_sunday", "open_24_hours", "toilet", "bakery_bistro", "restaurant", "motorway_site", "supermarket", "shop", "truck_suitable_site"], "products": [], "website": null, "watchlist_id": null, "formatted_address": "AUTOROUTE A39 AIRE VAL DE SAONE\nPONT\n21130", "channel_of_trade": null}, {"id": "788413809", "name": "BP AIRE DE PONT SUD", "lat": 47.18061, "lng": 5.333414, "site_brand": "BP", "country_code": "FR", "address": "AIRE DE PONT SUD AUT A39", "city": "PONT", "state": "", "postcode": "21130", "telephone": "+33 3 80 37 40 17", "facilities": ["open_saturday", "open_sunday", "open_24_hours", "toilet", "bakery_bistro", "restaurant", "motorway_site", "supermarket", "shop", "truck_suitable_site"], "products": [], "website": null, "watchlist_id": null, "formatted_address": "AIRE DE PONT SUD AUT A39\nPONT\n21130", "channel_of_trade": null}, {"id": "34325272", "name": "BP AIRE DE DOLE ROMANGE", "lat": 47.14893, "lng": 5.582589, "site_brand": "BP", "country_code": "FR", "address": "AUTOROUTE A36 AIRE DE DOLE ROMANGE", "city": "ORCHAMPS", "state": "", "postcode": "39700", "telephone": "+33 3 84 70 69 30", "facilities": ["open_saturday", "open_sunday", "open_24_hours", "toilet", "bakery_bistro", "motorway_site", "supermarket", "shop", "truck_suitable_site"], "products": [], "website": null, "watchlist_id": "34325272", "formatted_address": "AUTOROUTE A36 AIRE DE DOLE ROMANGE\nORCHAMPS\n39700", "channel_of_trade": null}, {"id": "518072634", "name": "BP AIRE DE DOLE AUDELANGE", "lat": 47.147094, "lng": 5.579737, "site_brand": "BP", "country_code": "FR", "address": "AUT A36 AIRE DE DOLE AUDELANGE", "city": "AUDELANGE", "state": "", "postcode": "39700", "telephone": "+33 3 84 70 63 55", "facilities": ["open_saturday", "open_sunday", "open_24_hours", "toilet", "bakery_bistro", "motorway_site", "supermarket", "shop", "truck_suitable_site"], "products": [], "website": null, "watchlist_id": null, "formatted_address": "AUT A36 AIRE DE DOLE AUDELANGE\nAUDELANGE\n39700", "channel_of_trade": null}, {"id": "668324322", "name": "BP AIRE DE CHATEAUVILLAIN SUR", "lat": 48.055958, "lng": 4.960702, "site_brand": "BP", "country_code": "FR", "address": "A 5 AIRE DE CHATEAUVILLAIN SUR ORGE", "city": "CHATEAUVILLAIN", "state": "", "postcode": "52120", "telephone": "+33 3 25 31 29 20", "facilities": ["open_saturday", "open_sunday", "open_24_hours", "toilet", "motorway_site", "shop", "truck_suitable_site", "high_speed_pump"], "products": [], "website": null, "watchlist_id": null, "formatted_address": "A 5 AIRE DE CHATEAUVILLAIN SUR ORGE\nCHATEAUVILLAIN\n52120", "channel_of_trade": null}, {"id": "317672962", "name": "BP A6 AIRE DE LA CHAPONNE", "lat": 47.503003, "lng": 4.035027, "site_brand": "BP", "country_code": "FR", "address": "CIDEX 81 A MAISON DIEU", "city": "MAISON-DIEU", "state": "", "postcode": "89420", "telephone": "+33 3 86 32 13 45", "facilities": ["open_saturday", "open_sunday", "open_24_hours", "toilet", "motorway_site", "shop", "truck_suitable_site", "high_speed_pump"], "products": [], "website": null, "watchlist_id": null, "formatted_address": "CIDEX 81 A MAISON DIEU\nMAISON-DIEU\n89420", "channel_of_trade": null}, {"id": "1918815011", "name": "BP HYERES", "lat": 47.47467, "lng": 4.01851, "site_brand": "BP", "country_code": "FR", "address": "2 AVENUE DU 15EME CORPS", "city": "HYERES", "state": "", "postcode": "83400", "telephone": "+33 4 94 65 06 24", "facilities": ["open_saturday", "open_sunday", "supermarket"], "products": ["ad_blue_pump", "red_diesel", "ad_blue"], "website": null, "watchlist_id": null, "formatted_address": "2 AVENUE DU 15EME CORPS\nHYERES\n83400", "channel_of_trade": null}, {"id": "1310469382", "name": "BP AIRE REIMS CHAMPAGNE SUD", "lat": 49.120353, "lng": 4.242891, "site_brand": "BP", "country_code": "FR", "address": "AUTOROUTE A4 AIRE DE REIMS CHAMPAGN", "city": "LES PETITES LOGES", "state": "", "postcode": "51400", "telephone": "+33 3 26 03 92 17", "facilities": ["open_saturday", "open_sunday", "open_24_hours", "toilet", "motorway_site", "shop", "truck_suitable_site"], "products": [], "website": null, "watchlist_id": null, "formatted_address": "AUTOROUTE A4 AIRE DE REIMS CHAMPAGN\nLES PETITES LOGES\n51400", "channel_of_trade": null}, {"id": "1899864729", "name": "BP AIRE REIMS CHAMPAGNE NORD", "lat": 49.120807, "lng": 4.243938, "site_brand": "BP", "country_code": "FR", "address": "AIRE DE REIMS AUTOROUTE A4", "city": "LES PETITES LOGES", "state": "", "postcode": "51400", "telephone": "+33 3 26 03 98 31", "facilities": ["open_saturday", "open_sunday", "open_24_hours", "toilet", "motorway_site", "shop", "truck_suitable_site"], "products": [], "website": null, "watchlist_id": null, "formatted_address": "AIRE DE REIMS AUTOROUTE A4\nLES PETITES LOGES\n51400", "channel_of_trade": null}, {"id": "1759502831", "name": "BP REIMS RN 44", "lat": 49.13618, "lng": 4.06513, "site_brand": "BP", "country_code": "FR", "address": "ZAC DE SAINT LEONARD   RN44", "city": "REIMS", "state": "", "postcode": "51100", "telephone": "+33 3 26 05 78 07", "facilities": ["open_saturday", "open_sunday", "open_24_hours", "toilet", "shop", "truck_suitable_site", "high_speed_pump"], "products": [], "website": null, "watchlist_id": null, "formatted_address": "ZAC DE SAINT LEONARD   RN44\nREIMS\n51100", "channel_of_trade": null}, {"id": "1673633466", "name": "BP REIMS VAL DE MURIGNY", "lat": 49.2249514, "lng": 4.0254851, "site_brand": "BP", "country_code": "FR", "address": "2 RUE ARMAND BOUXIN", "city": "REIMS", "state": "", "postcode": "51100", "telephone": "+33 3 26 36 14 36", "facilities": ["open_saturday", "open_sunday", "car_wash", "toilet", "shop", "truck_suitable_site", "high_speed_pump"], "products": [], "website": null, "watchlist_id": null, "formatted_address": "2 RUE ARMAND BOUXIN\nREIMS\n51100", "channel_of_trade": null}, {"id": "1859908266", "name": "BP REIMS CERES", "lat": 49.2569781, "lng": 4.0380441, "site_brand": "BP", "country_code": "FR", "address": "50 RUE CERES", "city": "REIMS", "state": "", "postcode": "51100", "telephone": "+33 3 26 88 68 95", "facilities": ["open_saturday", "open_sunday", "car_wash", "toilet", "shop"], "products": [], "website": null, "watchlist_id": null, "formatted_address": "50 RUE CERES\nREIMS\n51100", "channel_of_trade": null}, {"id": "281791812", "name": "STATION BP VERDUN SUD", "lat": 49.118526, "lng": 5.508914, "site_brand": "BP", "country_code": "FR", "address": "AUTOROUTE A4 ", "city": "HAUDIOMONT", "state": "", "postcode": "55160", "telephone": "+33 3 29 86 51 10", "facilities": ["open_saturday", "open_sunday", "open_24_hours", "toilet", "wifi", "outdoor_payment_terminal", "uta", "dkv", "motorway_site", "shop", "truck_suitable_site", "shop_open_24_hours"], "products": ["ultimate_diesel", "truck_diesel", "ultimate_98", "ad_blue", "e10"], "website": null, "watchlist_id": null, "formatted_address": "AUTOROUTE A4 \nHAUDIOMONT\n55160", "channel_of_trade": null}, {"id": "1557998846", "name": "STATION BP VERDUN NORD", "lat": 49.120245, "lng": 5.508983, "site_brand": "BP", "country_code": "FR", "address": "AUTOROUTE A4 AIRE DE VERDUN SAINT N", "city": "HAUDIOMONT", "state": "", "postcode": "55160", "telephone": "+33 3 29 86 89 00", "facilities": ["open_saturday", "open_sunday", "open_24_hours", "toilet", "motorway_site", "shop", "truck_suitable_site"], "products": [], "website": null, "watchlist_id": null, "formatted_address": "AUTOROUTE A4 AIRE DE VERDUN SAINT N\nHAUDIOMONT\n55160", "channel_of_trade": null}, {"id": "1588114721", "name": "BP LONGEVILLE", "lat": 49.1326, "lng": 6.6603, "site_brand": "BP", "country_code": "FR", "address": "AIRE DE LONGEVILLE SUD A4", "city": "LONGEVILLE LES SAINT AVOLD", "state": "", "postcode": "57740", "telephone": "", "facilities": ["open_saturday", "open_sunday", "open_24_hours", "toilet", "motorway_site", "shop", "truck_suitable_site", "high_speed_pump"], "products": [], "website": null, "watchlist_id": null, "formatted_address": "AIRE DE LONGEVILLE SUD A4\nLONGEVILLE LES SAINT AVOLD\n57740", "channel_of_trade": null}, {"id": "334867882", "name": "Station BP AIRE DE VIRONVAY SUD", "lat": 49.211189, "lng": 1.218152, "site_brand": "BP", "country_code": "FR", "address": "AUTOROUTE A13  AIRE DE VIRONVAY", "city": "VIRONVAY", "state": "", "postcode": "27400", "telephone": "+33 2 32 50 99 02", "facilities": ["open_saturday", "open_sunday", "open_24_hours", "toilet", "motorway_site", "shop", "truck_suitable_site", "high_speed_pump"], "products": [], "website": null, "watchlist_id": null, "formatted_address": "AUTOROUTE A13  AIRE DE VIRONVAY\nVIRONVAY\n27400", "channel_of_trade": null}, {"id": "482527703", "name": "BP ATTAINVILLE", "lat": 49.059963, "lng": 2.348328, "site_brand": "BP", "country_code": "FR", "address": "9 ROUTE DEPARTEMENTALE  104", "city": "ATTAINVILLE", "state": "", "postcode": "95570", "telephone": "+33 1 39 91 80 74", "facilities": ["open_saturday", "open_sunday", "open_24_hours", "toilet", "bakery_bistro", "motorway_site", "shop", "truck_suitable_site", "high_speed_pump"], "products": [], "website": null, "watchlist_id": null, "formatted_address": "9 ROUTE DEPARTEMENTALE  104\nATTAINVILLE\n95570", "channel_of_trade": null}, {"id": "863221449", "name": "BP AIRE DE GRANDE SYNTHE", "lat": 51.003855, "lng": 2.303979, "site_brand": "BP", "country_code": "FR", "address": "VOIE DU COURGAIN ROC SUD", "city": "GRANDE SYNTHE", "state": "", "postcode": "59760", "telephone": "+33 3 28 21 74 29", "facilities": ["open_saturday", "open_sunday", "open_24_hours", "toilet", "restaurant", "motorway_site", "shop", "truck_suitable_site", "high_speed_pump"], "products": [], "website": null, "watchlist_id": null, "formatted_address": "VOIE DU COURGAIN ROC SUD\nGRANDE SYNTHE\n59760", "channel_of_trade": null}, {"id": "788351275", "name": "BP RUNGIS SUD", "lat": 48.75294, "lng": 2.36118, "site_brand": "BP", "country_code": "FR", "address": "ROUTE NATIONALE 186", "city": "RUNGIS", "state": "", "postcode": "94579", "telephone": "+33 1 46 87 34 72", "facilities": ["open_saturday", "open_sunday", "open_24_hours", "car_wash", "toilet", "shop", "truck_suitable_site", "high_speed_pump"], "products": [], "website": null, "watchlist_id": null, "formatted_address": "ROUTE NATIONALE 186\nRUNGIS\n94579", "channel_of_trade": null}, {"id": "420167531", "name": "BP AIRE DES PORTES D ANGERS SU", "lat": 47.500314, "lng": -0.491146, "site_brand": "BP", "country_code": "FR", "address": "A 11 LES PORTES D ANGERS SUD", "city": "SAINT SYLVAIN D'ANJOU", "state": "", "postcode": "49480", "telephone": "+33 2 41 18 10 51", "facilities": ["open_saturday", "open_sunday", "open_24_hours", "toilet", "motorway_site", "shop", "truck_suitable_site", "high_speed_pump"], "products": [], "website": null, "watchlist_id": null, "formatted_address": "A 11 LES PORTES D ANGERS SUD\nSAINT SYLVAIN D'ANJOU\n49480", "channel_of_trade": null}, {"id": "2031040697", "name": "BP AIRE DE TOURS LA LONGUE VUE", "lat": 47.475396, "lng": 0.776451, "site_brand": "BP", "country_code": "FR", "address": "AUTOROUTE A10 AIRE DE LA BRUNELLERI", "city": "MONNAIE", "state": "", "postcode": "37380", "telephone": "+33 2 47 56 14 51", "facilities": ["open_saturday", "open_sunday", "open_24_hours", "toilet", "motorway_site", "shop", "truck_suitable_site", "high_speed_pump"], "products": [], "website": null, "watchlist_id": null, "formatted_address": "AUTOROUTE A10 AIRE DE LA BRUNELLERI\nMONNAIE\n37380", "channel_of_trade": null}, {"id": "433147255", "name": "BP AIRE DE CROIXRAULT A 29", "lat": 49.807012, "lng": 1.968738, "site_brand": "BP", "country_code": "FR", "address": "AIRE DE CROIXRAULT   A29", "city": "CROIXRAULT", "state": "", "postcode": "80290", "telephone": "+33 3 22 47 72 30", "facilities": ["open_saturday", "open_sunday", "open_24_hours", "motorway_site"], "products": [], "website": null, "watchlist_id": null, "formatted_address": "AIRE DE CROIXRAULT   A29\nCROIXRAULT\n80290", "channel_of_trade": null}, {"id": "107135120", "name": "BP AIRE DE ST GERMAIN LES CHEV", "lat": 48.63051, "lng": 2.487143, "site_brand": "BP", "country_code": "FR", "address": "RN 104", "city": "SAINT GERMAIN LES CORBEIL", "state": "", "postcode": "91250", "telephone": "+33 1 69 89 66 01", "facilities": ["open_saturday", "open_sunday", "open_24_hours", "car_wash", "toilet", "bakery_bistro", "motorway_site", "shop", "truck_suitable_site", "high_speed_pump"], "products": [], "website": null, "watchlist_id": null, "formatted_address": "RN 104\nSAINT GERMAIN LES CORBEIL\n91250", "channel_of_trade": null}, {"id": "160378954", "name": "BP AIRE DE BIEVRES CHAT BLANC", "lat": 48.76589, "lng": 2.21246, "site_brand": "BP", "country_code": "FR", "address": "ROUTE NATIONALE 118", "city": "BIEVRES", "state": "", "postcode": "91570", "telephone": "+33 1 69 35 17 91", "facilities": ["open_saturday", "open_sunday", "open_24_hours", "car_wash", "toilet", "bakery_bistro", "motorway_site", "shop", "truck_suitable_site", "high_speed_pump"], "products": [], "website": null, "watchlist_id": null, "formatted_address": "ROUTE NATIONALE 118\nBIEVRES\n91570", "channel_of_trade": null}, {"id": "755057334", "name": "BP CALAIS LES DUNES", "lat": 50.96527, "lng": 1.88692, "site_brand": "BP", "country_code": "FR", "address": "RUE DES GOELANDS ZI DES DUNES", "city": "CALAIS", "state": "", "postcode": "62000", "telephone": "+33 3 21 97 11 94", "facilities": ["open_saturday", "open_sunday", "open_24_hours", "car_wash", "truck_suitable_site", "automatic_site"], "products": ["auto_gas"], "website": null, "watchlist_id": null, "formatted_address": "RUE DES GOELANDS ZI DES DUNES\nCALAIS\n62000", "channel_of_trade": null}, {"id": "1496070146", "name": "BP ERAGNY LES BELLEVUES", "lat": 49.02609, "lng": 2.10417, "site_brand": "BP", "country_code": "FR", "address": "RN 184 BP 80295", "city": "CERGY PONTOISE", "state": "", "postcode": "95618", "telephone": "+33 1 34 48 84 14", "facilities": ["open_saturday", "open_sunday", "car_wash", "toilet", "shop", "truck_suitable_site", "high_speed_pump"], "products": [], "website": null, "watchlist_id": null, "formatted_address": "RN 184 BP 80295\nCERGY PONTOISE\n95618", "channel_of_trade": null}, {"id": "277867546", "name": "BP AIRE DE MARCOUSSIS BEAUVERT", "lat": 48.648371, "lng": 2.188537, "site_brand": "BP", "country_code": "FR", "address": "VOIE EXP F6 LIEUDIT BEAUVERT", "city": "MARCOUSSIS", "state": "", "postcode": "91460", "telephone": "+33 1 64 49 30 10", "facilities": ["open_saturday", "open_sunday", "open_24_hours", "toilet", "motorway_site", "shop", "truck_suitable_site", "high_speed_pump"], "products": [], "website": null, "watchlist_id": null, "formatted_address": "VOIE EXP F6 LIEUDIT BEAUVERT\nMARCOUSSIS\n91460", "channel_of_trade": null}, {"id": "818794056", "name": "BP NOISY LE SEC A3", "lat": 48.880458, "lng": 2.452749, "site_brand": "BP", "country_code": "FR", "address": "5 RUE DE LA CHASSE A 3 BP 52", "city": "NOISY LE SEC", "state": "", "postcode": "93130", "telephone": "+33 1 48 59 49 57", "facilities": ["open_saturday", "open_sunday", "open_24_hours", "car_wash", "toilet", "motorway_site", "truck_suitable_site", "high_speed_pump"], "products": [], "website": null, "watchlist_id": null, "formatted_address": "5 RUE DE LA CHASSE A 3 BP 52\nNOISY LE SEC\n93130", "channel_of_trade": null}, {"id": "59652571", "name": "BP AIRE DES CHAMPS D AMOUR", "lat": 47.090624, "lng": 1.843463, "site_brand": "BP", "country_code": "FR", "address": "A20 AIRE DES CHAMPS D  AMOUR", "city": "MEUNET SUR VATAN", "state": "", "postcode": "36150", "telephone": "+33 2 54 49 88 07", "facilities": ["open_saturday", "open_sunday", "open_24_hours", "toilet", "motorway_site", "shop", "truck_suitable_site", "high_speed_pump"], "products": [], "website": null, "watchlist_id": "59652571", "formatted_address": "A20 AIRE DES CHAMPS D  AMOUR\nMEUNET SUR VATAN\n36150", "channel_of_trade": null}, {"id": "571395445", "name": "BP DES CLAYES LA VIGNERAIE", "lat": 48.8289063, "lng": 1.976279, "site_brand": "BP", "country_code": "FR", "address": "AVENUE HENRI BARBUSSE", "city": "LES CLAYES SOUS BOIS", "state": "", "postcode": "78340", "telephone": "+33 1 30 55 39 59", "facilities": ["open_saturday", "open_sunday", "car_wash", "toilet", "shop", "truck_suitable_site"], "products": [], "website": null, "watchlist_id": null, "formatted_address": "AVENUE HENRI BARBUSSE\nLES CLAYES SOUS BOIS\n78340", "channel_of_trade": null}, {"id": "1829803636", "name": "BP RUNGIS MIN", "lat": 48.45612, "lng": 2.20087, "site_brand": "BP", "country_code": "FR", "address": "RUE DU VIADUC    FRUILEG 754", "city": "RUNGIS", "state": "", "postcode": "94594", "telephone": "+33 1 46 86 91 89", "facilities": ["open_saturday", "open_sunday", "car_wash", "toilet", "shop", "truck_suitable_site", "high_speed_pump", "truck_wash"], "products": ["ad_blue_pump", "ad_blue"], "website": null, "watchlist_id": null, "formatted_address": "RUE DU VIADUC    FRUILEG 754\nRUNGIS\n94594", "channel_of_trade": null}, {"id": "222502773", "name": "BP COLOMBES VALMY", "lat": 48.9261818, "lng": 2.2530931, "site_brand": "BP", "country_code": "FR", "address": "44 50 BD DE VALMY", "city": "COLOMBES", "state": "", "postcode": "92700", "telephone": "+33 1 47 80 61 81", "facilities": ["open_saturday", "open_sunday", "open_24_hours", "car_wash", "toilet", "supermarket", "shop"], "products": [], "website": null, "watchlist_id": null, "formatted_address": "44 50 BD DE VALMY\nCOLOMBES\n92700", "channel_of_trade": null}, {"id": "234754983", "name": "BP VAL DE FONTENAY", "lat": 48.85422, "lng": 2.47357, "site_brand": "BP", "country_code": "FR", "address": "RUE PT GAL DE GAULLE", "city": "FONTENAY SOUS BOIS", "state": "", "postcode": "94120", "telephone": "+33 1 48 76 02 03", "facilities": ["open_saturday", "open_sunday", "car_wash", "toilet", "shop", "truck_suitable_site"], "products": [], "website": null, "watchlist_id": null, "formatted_address": "RUE PT GAL DE GAULLE\nFONTENAY SOUS BOIS\n94120", "channel_of_trade": null}, {"id": "1041995574", "name": "BP LES ULIS", "lat": 48.6764906, "lng": 2.1754808, "site_brand": "BP", "country_code": "FR", "address": "AV DES CEVENNES", "city": "LES ULIS", "state": "", "postcode": "91940", "telephone": "+33 1 69 07 68 80", "facilities": ["open_saturday", "open_sunday", "car_wash", "toilet", "shop", "truck_suitable_site"], "products": [], "website": null, "watchlist_id": null, "formatted_address": "AV DES CEVENNES\nLES ULIS\n91940", "channel_of_trade": null}, {"id": "301940565", "name": "BP DE SURESNES", "lat": 48.8671485, "lng": 2.2212947, "site_brand": "BP", "country_code": "FR", "address": "138 BOULEVARD HENRI SELLIER", "city": "SURESNES", "state": "", "postcode": "92150", "telephone": "+33 1 45 06 13 18", "facilities": ["open_saturday", "open_sunday", "car_wash", "toilet", "shop"], "products": [], "website": null, "watchlist_id": null, "formatted_address": "138 BOULEVARD HENRI SELLIER\nSURESNES\n92150", "channel_of_trade": null}, {"id": "217813951", "name": "BP COLOMBES 4 ROUTES", "lat": 48.9282343, "lng": 2.2702686, "site_brand": "BP", "country_code": "FR", "address": "16 22 AVENUE  DE STALINGRAD", "city": "COLOMBES", "state": "", "postcode": "92700", "telephone": "+33 1 47 86 29 97", "facilities": ["open_saturday", "open_sunday", "car_wash", "toilet", "shop", "truck_suitable_site", "high_speed_pump"], "products": [], "website": null, "watchlist_id": null, "formatted_address": "16 22 AVENUE  DE STALINGRAD\nCOLOMBES\n92700", "channel_of_trade": null}, {"id": "1981706499", "name": "BP  AUBERVILLIERS ROOSEVELT", "lat": 48.9181837, "lng": 2.3789182, "site_brand": "BP", "country_code": "FR", "address": "43 AV PRESIDENT ROOSEVELT", "city": "AUBERVILLIERS", "state": "", "postcode": "93300", "telephone": "+33 1 43 52 70 65", "facilities": ["open_saturday", "open_sunday", "car_wash", "toilet", "shop"], "products": [], "website": null, "watchlist_id": null, "formatted_address": "43 AV PRESIDENT ROOSEVELT\nAUBERVILLIERS\n93300", "channel_of_trade": null}, {"id": "756732411", "name": "BP  AULNAY RN370", "lat": 48.5721, "lng": 2.29012, "site_brand": "BP", "country_code": "FR", "address": "RUE MICHEL ANGE ROUTE N 370", "city": "AULNAY SOUS BOIS", "state": "", "postcode": "93600", "telephone": "+33 1 48 69 05 45", "facilities": ["open_saturday", "open_sunday", "car_wash", "toilet", "shop", "truck_suitable_site", "high_speed_pump"], "products": [], "website": null, "watchlist_id": null, "formatted_address": "RUE MICHEL ANGE ROUTE N 370\nAULNAY SOUS BOIS\n93600", "channel_of_trade": null}, {"id": "419529155", "name": "BP VERSAILLES REPUBLIQUE", "lat": 48.80473, "lng": 2.15298, "site_brand": "BP", "country_code": "FR", "address": "60 BOULEVARD DE LA REPUBLIQUE", "city": "VERSAILLES", "state": "", "postcode": "78000", "telephone": "+33 1 39 50 45 02", "facilities": ["open_saturday", "open_sunday", "car_wash", "toilet", "shop", "truck_suitable_site"], "products": [], "website": null, "watchlist_id": null, "formatted_address": "60 BOULEVARD DE LA REPUBLIQUE\nVERSAILLES\n78000", "channel_of_trade": null}, {"id": "806327334", "name": "BP  ST CLOUD REPUBLIQUE", "lat": 48.844503, "lng": 2.2103929, "site_brand": "BP", "country_code": "FR", "address": "35 BD DE LA REPUBLIQUE", "city": "SAINT CLOUD", "state": "", "postcode": "92210", "telephone": "+33 1 46 02 53 02", "facilities": ["open_saturday", "open_sunday", "car_wash", "toilet", "shop", "truck_suitable_site"], "products": [], "website": null, "watchlist_id": null, "formatted_address": "35 BD DE LA REPUBLIQUE\nSAINT CLOUD\n92210", "channel_of_trade": null}, {"id": "1194384220", "name": "BP ST DENIS PVC", "lat": 48.93504, "lng": 2.36712, "site_brand": "BP", "country_code": "FR", "address": "112 AV P  VAILLANT COUTURIER", "city": "ST DENIS", "state": "", "postcode": "93200", "telephone": "+33 1 48 27 19 13", "facilities": ["open_saturday", "open_sunday", "car_wash", "toilet", "shop"], "products": [], "website": null, "watchlist_id": null, "formatted_address": "112 AV P  VAILLANT COUTURIER\nST DENIS\n93200", "channel_of_trade": null}, {"id": "1486943280", "name": "BP GARCHES PORTE JAUNE", "lat": 48.84262, "lng": 2.18464, "site_brand": "BP", "country_code": "FR", "address": "173 179 RUE DE LA PORTE JAUNE", "city": "GARCHES", "state": "", "postcode": "92380", "telephone": "+33 1 47 01 10 15", "facilities": ["open_saturday", "open_sunday", "car_wash", "toilet", "shop", "truck_suitable_site", "high_speed_pump"], "products": [], "website": null, "watchlist_id": null, "formatted_address": "173 179 RUE DE LA PORTE JAUNE\nGARCHES\n92380", "channel_of_trade": null}, {"id": "858006319", "name": "BP AUBERVILLIERS PONT BLANC", "lat": 48.91877, "lng": 2.3936, "site_brand": "BP", "country_code": "FR", "address": "100 RUE CHARLES TILLON", "city": "AUBERVILLIERS", "state": "", "postcode": "93300", "telephone": "+33 1 48 33 81 91", "facilities": ["open_saturday", "open_sunday", "car_wash", "toilet", "shop"], "products": [], "website": null, "watchlist_id": null, "formatted_address": "100 RUE CHARLES TILLON\nAUBERVILLIERS\n93300", "channel_of_trade": null}, {"id": "1096035135", "name": "BP LA FERTE SUR JOUARRE", "lat": 48.9435715, "lng": 3.120523, "site_brand": "BP", "country_code": "FR", "address": "42 AVENUE FRANKLIN ROOSEVELT", "city": "LA FERTE SOUS JOUARRE", "state": "", "postcode": "77260", "telephone": "+33 1 60 22 02 06", "facilities": ["open_saturday", "open_sunday", "toilet", "shop", "truck_suitable_site", "high_speed_pump"], "products": [], "website": null, "watchlist_id": null, "formatted_address": "42 AVENUE FRANKLIN ROOSEVELT\nLA FERTE SOUS JOUARRE\n77260", "channel_of_trade": null}, {"id": "534825800", "name": "BP BEZONS GABRIEL PERI", "lat": 48.9368233, "lng": 2.2072407, "site_brand": "BP", "country_code": "FR", "address": "179 AV GABRIEL PERI", "city": "BEZONS", "state": "", "postcode": "95870", "telephone": "+33 1 39 98 73 62", "facilities": ["open_saturday", "open_sunday", "toilet", "shop", "truck_suitable_site", "high_speed_pump"], "products": [], "website": null, "watchlist_id": null, "formatted_address": "179 AV GABRIEL PERI\nBEZONS\n95870", "channel_of_trade": null}, {"id": "602238691", "name": "BP CHANTILLY PARC AUMONT", "lat": 49.1913298, "lng": 2.4640646, "site_brand": "BP", "country_code": "FR", "address": "38 AVENUE DU MARECHAL JOFFRE", "city": "CHANTILLY", "state": "", "postcode": "60500", "telephone": "+33 3 44 57 28 66", "facilities": ["open_saturday", "open_sunday", "car_wash", "toilet", "shop"], "products": [], "website": null, "watchlist_id": null, "formatted_address": "38 AVENUE DU MARECHAL JOFFRE\nCHANTILLY\n60500", "channel_of_trade": null}, {"id": "434778881", "name": "BP IGNY OUEST", "lat": 48.73325, "lng": 2.21306, "site_brand": "BP", "country_code": "FR", "address": "ROUTE NATIONALE 444", "city": "IGNY OUEST", "state": "", "postcode": "91430", "telephone": "+33 1 69 41 17 81", "facilities": ["open_saturday", "open_sunday", "car_wash", "toilet", "shop", "truck_suitable_site", "high_speed_pump"], "products": [], "website": null, "watchlist_id": null, "formatted_address": "ROUTE NATIONALE 444\nIGNY OUEST\n91430", "channel_of_trade": null}, {"id": "588132843", "name": "BP  OSNY", "lat": 49.06096, "lng": 2.08386, "site_brand": "BP", "country_code": "FR", "address": "LIEUDIT LE CHAMP POURRI CD 915", "city": "OSNY", "state": "", "postcode": "95520", "telephone": "+33 1 30 73 47 58", "facilities": ["open_saturday", "open_sunday", "car_wash", "toilet", "shop", "truck_suitable_site"], "products": [], "website": null, "watchlist_id": null, "formatted_address": "LIEUDIT LE CHAMP POURRI CD 915\nOSNY\n95520", "channel_of_trade": null}, {"id": "202237198", "name": "BP MONTREUIL NOUVELLE FRANCE", "lat": 48.86538, "lng": 2.45526, "site_brand": "BP", "country_code": "FR", "address": "151 RUE NOUVELLE FRANCE", "city": "MONTREUIL", "state": "", "postcode": "93100", "telephone": "+33 1 42 87 20 75", "facilities": ["open_saturday", "open_sunday", "car_wash", "toilet", "shop"], "products": [], "website": null, "watchlist_id": null, "formatted_address": "151 RUE NOUVELLE FRANCE\nMONTREUIL\n93100", "channel_of_trade": null}, {"id": "382000646", "name": "BP PARIS MURAT", "lat": 48.8467775, "lng": 2.2582768, "site_brand": "BP", "country_code": "FR", "address": "7 BOULEVARD MURAT", "city": "PARIS", "state": "", "postcode": "75016", "telephone": "+33 1 40 71 00 65", "facilities": ["open_saturday", "open_sunday", "toilet", "shop"], "products": [], "website": null, "watchlist_id": null, "formatted_address": "7 BOULEVARD MURAT\nPARIS\n75016", "channel_of_trade": null}, {"id": "1880484650", "name": "BP  MONTIGNY LES CORMEILLES", "lat": 48.9913828, "lng": 2.1817496, "site_brand": "BP", "country_code": "FR", "address": "211 BD PONTOISE", "city": "MONTIGNY LES CORMEILLES", "state": "", "postcode": "95370", "telephone": "+33 1 39 97 13 83", "facilities": ["open_saturday", "open_sunday", "car_wash", "toilet", "bakery_bistro", "shop", "truck_suitable_site", "high_speed_pump"], "products": [], "website": null, "watchlist_id": null, "formatted_address": "211 BD PONTOISE\nMONTIGNY LES CORMEILLES\n95370", "channel_of_trade": null}, {"id": "702775554", "name": "BP MEUDON TASSIGNY", "lat": 48.784773, "lng": 2.2269288, "site_brand": "BP", "country_code": "FR", "address": "38 AVENUE DU DELATTRE DE TASSIGNY", "city": "MEUDON LA FORET", "state": "", "postcode": "92360", "telephone": "+33 1 46 30 87 35", "facilities": ["open_saturday", "open_sunday", "car_wash", "bakery_bistro", "shop"], "products": [], "website": null, "watchlist_id": null, "formatted_address": "38 AVENUE DU DELATTRE DE TASSIGNY\nMEUDON LA FORET\n92360", "channel_of_trade": null}, {"id": "1765555889", "name": "BP DE MENNECY", "lat": 48.56712, "lng": 2.44606, "site_brand": "BP", "country_code": "FR", "address": "ROUTE NATIONALE 191", "city": "MENNECY", "state": "", "postcode": "91540", "telephone": "+33 1 64 57 06 90", "facilities": ["open_saturday", "open_sunday", "car_wash", "toilet", "bakery_bistro", "shop", "truck_suitable_site", "high_speed_pump"], "products": [], "website": null, "watchlist_id": null, "formatted_address": "ROUTE NATIONALE 191\nMENNECY\n91540", "channel_of_trade": null}, {"id": "2042545417", "name": "BP TRAPPES LUTHER KING", "lat": 48.77302, "lng": 1.99171, "site_brand": "BP", "country_code": "FR", "address": "1 AV MARTIN LUTHER KING", "city": "TRAPPES", "state": "", "postcode": "78190", "telephone": "+33 1 30 50 26 67", "facilities": ["open_saturday", "open_sunday", "open_24_hours", "car_wash", "toilet", "shop", "truck_suitable_site", "high_speed_pump"], "products": [], "website": null, "watchlist_id": null, "formatted_address": "1 AV MARTIN LUTHER KING\nTRAPPES\n78190", "channel_of_trade": null}, {"id": "319791030", "name": "BP MALAKOFF LAROUSSE", "lat": 48.82057, "lng": 2.3052121, "site_brand": "BP", "country_code": "FR", "address": "76 AV PIERRE LAROUSSE", "city": "MALAKOFF", "state": "", "postcode": "92240", "telephone": "+33 1 46 57 61 86", "facilities": ["open_saturday", "open_sunday", "car_wash", "toilet", "shop", "truck_suitable_site"], "products": [], "website": null, "watchlist_id": null, "formatted_address": "76 AV PIERRE LAROUSSE\nMALAKOFF\n92240", "channel_of_trade": null}, {"id": "536989202", "name": "BP LA CELLE ST CLOUD", "lat": 48.8588191, "lng": 2.1458403, "site_brand": "BP", "country_code": "FR", "address": "24 AV DE LA JONCHERE", "city": "LA CELLE SAINT CLOUD", "state": "", "postcode": "78170", "telephone": "+33 1 39 69 94 77", "facilities": ["open_saturday", "open_sunday", "car_wash", "toilet", "shop", "truck_suitable_site"], "products": [], "website": null, "watchlist_id": null, "formatted_address": "24 AV DE LA JONCHERE\nLA CELLE SAINT CLOUD\n78170", "channel_of_trade": null}, {"id": "1343036511", "name": "BP  AULNAY GONESSE", "lat": 48.9448214, "lng": 2.4952638, "site_brand": "BP", "country_code": "FR", "address": "32 RUE JACQUES DUCLOS", "city": "AULNAY SOUS BOIS", "state": "", "postcode": "93600", "telephone": "+33 1 48 66 22 53", "facilities": ["open_saturday", "open_sunday", "car_wash", "toilet", "shop", "truck_suitable_site", "high_speed_pump"], "products": [], "website": null, "watchlist_id": null, "formatted_address": "32 RUE JACQUES DUCLOS\nAULNAY SOUS BOIS\n93600", "channel_of_trade": null}, {"id": "20843399", "name": "Station BP PARIS GARIGLIANO", "lat": 48.8359618, "lng": 2.278864, "site_brand": "BP", "country_code": "FR", "address": "1 QUATER BOULEVARD VICTOR", "city": "PARIS", "state": "", "postcode": "75015", "telephone": "0800870472", "facilities": ["open_saturday", "open_sunday", "open_24_hours", "automatic_site"], "products": [], "website": null, "watchlist_id": "20843399", "formatted_address": "1 QUATER BOULEVARD VICTOR\nPARIS\n75015", "channel_of_trade": null}, {"id": "48295583", "name": "BP ST LEU LA FORET", "lat": 49.0015086, "lng": 2.2515475, "site_brand": "BP", "country_code": "FR", "address": "BD ANDRE BREMOND", "city": "ST LEU LA FORET", "state": "", "postcode": "95320", "telephone": "+33 1 39 60 65 38", "facilities": ["open_saturday", "open_sunday", "car_wash", "toilet", "shop", "truck_suitable_site", "high_speed_pump"], "products": [], "website": null, "watchlist_id": "48295583", "formatted_address": "BD ANDRE BREMOND\nST LEU LA FORET\n95320", "channel_of_trade": null}, {"id": "845036185", "name": "BP ERMONT", "lat": 48.9893645, "lng": 2.2578426, "site_brand": "BP", "country_code": "FR", "address": "16B RUE DU 18 JUINN", "city": "ERMONT", "state": "", "postcode": "95120", "telephone": "+33 1 34 15 08 98", "facilities": ["open_saturday", "open_sunday", "car_wash", "toilet", "shop"], "products": [], "website": null, "watchlist_id": null, "formatted_address": "16B RUE DU 18 JUINN\nERMONT\n95120", "channel_of_trade": null}, {"id": "521246098", "name": "BP PARIS PAUL DOUMER", "lat": 48.8609002, "lng": 2.2829848, "site_brand": "BP", "country_code": "FR", "address": "26 AV PAUL DOUMER", "city": "PARIS", "state": "", "postcode": "75016", "telephone": "+33 1 45 03 47 07", "facilities": ["open_saturday", "open_sunday", "car_wash", "toilet", "shop"], "products": [], "website": null, "watchlist_id": null, "formatted_address": "26 AV PAUL DOUMER\nPARIS\n75016", "channel_of_trade": null}, {"id": "768355206", "name": "BP DOMONT", "lat": 49.022749, "lng": 2.203479, "site_brand": "BP", "country_code": "FR", "address": "RN 1    BP4", "city": "DOMONT", "state": "", "postcode": "95331", "telephone": "+33 1 39 35 11 47", "facilities": ["open_saturday", "open_sunday", "car_wash", "truck_suitable_site", "high_speed_pump"], "products": [], "website": null, "watchlist_id": null, "formatted_address": "RN 1    BP4\nDOMONT\n95331", "channel_of_trade": null}, {"id": "521329746", "name": "BP EVRY COURCOURONNES", "lat": 48.63116, "lng": 2.41729, "site_brand": "BP", "country_code": "FR", "address": "AVENUE DE LORME A MARTIN", "city": "COURCOURONNES", "state": "", "postcode": "91080", "telephone": "+33 1 60 78 19 16", "facilities": ["open_saturday", "open_sunday", "car_wash", "toilet", "shop", "truck_suitable_site"], "products": [], "website": null, "watchlist_id": null, "formatted_address": "AVENUE DE LORME A MARTIN\nCOURCOURONNES\n91080", "channel_of_trade": null}, {"id": "1061538377", "name": "BP CONFLANS DIR ERAGNY", "lat": 48.99605, "lng": 2.08116, "site_brand": "BP", "country_code": "FR", "address": "184 RN HAUTES COUTURES", "city": "CONFLANS STE HONORINE", "state": "", "postcode": "78700", "telephone": "+33 1 39 19 57 53", "facilities": ["open_saturday", "open_sunday", "car_wash", "toilet", "shop", "truck_suitable_site", "high_speed_pump"], "products": [], "website": null, "watchlist_id": null, "formatted_address": "184 RN HAUTES COUTURES\nCONFLANS STE HONORINE\n78700", "channel_of_trade": null}, {"id": "282169783", "name": "BP CHILLY MAZARIN BROSSOLETTE", "lat": 48.69945, "lng": 2.30487, "site_brand": "BP", "country_code": "FR", "address": "10 RUE PIERRE BROSSOLETTE", "city": "CHILLY-MAZARIN", "state": "", "postcode": "91380", "telephone": "+33 1 60 10 01 66", "facilities": ["open_saturday", "open_sunday", "car_wash", "toilet", "shop", "truck_suitable_site", "high_speed_pump"], "products": [], "website": null, "watchlist_id": null, "formatted_address": "10 RUE PIERRE BROSSOLETTE\nCHILLY-MAZARIN\n91380", "channel_of_trade": null}, {"id": "166761830", "name": "BP LE CHESNAY", "lat": 48.8240158, "lng": 2.1278321, "site_brand": "BP", "country_code": "FR", "address": "100 RUE DE VERSAILLES", "city": "LE CHESNAY", "state": "", "postcode": "78150", "telephone": "+33 1 39 54 23 06", "facilities": ["open_saturday", "open_sunday", "car_wash", "toilet", "shop", "truck_suitable_site"], "products": [], "website": null, "watchlist_id": null, "formatted_address": "100 RUE DE VERSAILLES\nLE CHESNAY\n78150", "channel_of_trade": null}, {"id": "62910146", "name": "BP BAGNEUX CHATILLON", "lat": 48.7972996, "lng": 2.2980865, "site_brand": "BP", "country_code": "FR", "address": "12/14 AV DU GENERAL DE GAULLE", "city": "BAGNEUX", "state": "", "postcode": "92220", "telephone": "+33 1 46 54 14 03", "facilities": ["open_saturday", "open_sunday", "car_wash", "toilet", "shop"], "products": [], "website": null, "watchlist_id": "62910146", "formatted_address": "12/14 AV DU GENERAL DE GAULLE\nBAGNEUX\n92220", "channel_of_trade": null}, {"id": "1343435462", "name": "BP ECQUEVILLY", "lat": 48.97089, "lng": 1.91941, "site_brand": "BP", "country_code": "FR", "address": "CHEMIN DEPARTEMENTAL 43", "city": "ECQUEVILLY", "state": "", "postcode": "78920", "telephone": "+33 1 34 74 05 84", "facilities": ["open_saturday", "open_sunday", "car_wash", "toilet", "shop", "truck_suitable_site", "high_speed_pump"], "products": [], "website": null, "watchlist_id": null, "formatted_address": "CHEMIN DEPARTEMENTAL 43\nECQUEVILLY\n78920", "channel_of_trade": null}, {"id": "1044238474", "name": "BP CARRIERES SUR SEINE", "lat": 48.9039769, "lng": 2.1673326, "site_brand": "BP", "country_code": "FR", "address": "104 RTE DE CHATOU", "city": "CARRIERES SUR SEINE", "state": "", "postcode": "78420", "telephone": "+33 1 39 14 24 83", "facilities": ["open_saturday", "open_sunday", "car_wash", "toilet", "shop", "truck_suitable_site"], "products": [], "website": null, "watchlist_id": null, "formatted_address": "104 RTE DE CHATOU\nCARRIERES SUR SEINE\n78420", "channel_of_trade": null}, {"id": "1128532528", "name": "BP CARPENTIER DEVIGNE", "lat": 49.928594, "lng": 2.1971993, "site_brand": "BP", "country_code": "FR", "address": "95 RUE PIERRE BROSSOLETTE", "city": "AILLY SUR SOMME", "state": "", "postcode": "80470", "telephone": "+33 3 22 51 80 14", "facilities": ["open_saturday", "open_sunday", "toilet", "shop", "truck_suitable_site"], "products": [], "website": null, "watchlist_id": null, "formatted_address": "95 RUE PIERRE BROSSOLETTE\nAILLY SUR SOMME\n80470", "channel_of_trade": null}, {"id": "65986642", "name": "BP DE CAEN ROTS", "lat": 49.19747, "lng": 0.46094, "site_brand": "BP", "country_code": "FR", "address": "ROUTE NATIONALE 13", "city": "ROTS", "state": "", "postcode": "14980", "telephone": "+33 2 31 26 52 12", "facilities": ["open_saturday", "open_sunday", "toilet", "shop", "truck_suitable_site", "high_speed_pump"], "products": [], "website": null, "watchlist_id": "65986642", "formatted_address": "ROUTE NATIONALE 13\nROTS\n14980", "channel_of_trade": null}, {"id": "909470806", "name": "BP CHATENEY LA BRIAUDE", "lat": 48.7631281, "lng": 2.2778224, "site_brand": "BP", "country_code": "FR", "address": "157 AVENUE DIVISION LECLERC", "city": "CHATENAY MALABRY", "state": "", "postcode": "92290", "telephone": "+33 1 46 60 84 72", "facilities": ["open_saturday", "open_sunday", "car_wash", "toilet", "shop", "truck_suitable_site"], "products": [], "website": null, "watchlist_id": null, "formatted_address": "157 AVENUE DIVISION LECLERC\nCHATENAY MALABRY\n92290", "channel_of_trade": null}, {"id": "753230164", "name": "BP BAGNEUX BLAGIS", "lat": 48.79605, "lng": 2.30564, "site_brand": "BP", "country_code": "FR", "address": "98T AV DE BOURG LA REINE", "city": "BAGNEUX", "state": "", "postcode": "92220", "telephone": "+33 1 46 64 38 78", "facilities": ["open_saturday", "open_sunday", "car_wash", "toilet", "shop", "truck_suitable_site"], "products": [], "website": null, "watchlist_id": null, "formatted_address": "98T AV DE BOURG LA REINE\nBAGNEUX\n92220", "channel_of_trade": null}, {"id": "500178621", "name": "BP BALLAINVILLIERS", "lat": 48.68584, "lng": 2.2858, "site_brand": "BP", "country_code": "FR", "address": "ROUTE NATIONALE 20", "city": "BALLAINVILLIERS", "state": "", "postcode": "91160", "telephone": "+33 1 69 34 37 75", "facilities": ["open_saturday", "open_sunday", "car_wash", "toilet", "shop", "truck_suitable_site", "high_speed_pump"], "products": [], "website": null, "watchlist_id": null, "formatted_address": "ROUTE NATIONALE 20\nBALLAINVILLIERS\n91160", "channel_of_trade": null}, {"id": "489697956", "name": "BP ATHIS MONS", "lat": 48.705816, "lng": 2.3682511, "site_brand": "BP", "country_code": "FR", "address": "38 AV DE MORANGIS", "city": "ATHIS MONS", "state": "", "postcode": "91200", "telephone": "+33 1 69 38 17 41", "facilities": ["open_saturday", "open_sunday", "car_wash", "toilet", "shop"], "products": [], "website": null, "watchlist_id": null, "formatted_address": "38 AV DE MORANGIS\nATHIS MONS\n91200", "channel_of_trade": null}, {"id": "831738297", "name": "BP AIRE DE ST LAURENT", "lat": 50.259898, "lng": 2.857239, "site_brand": "BP", "country_code": "FR", "address": "AIRE DE ST LAURENT AUTOROUTE A25", "city": "STEENVOORDE", "state": "", "postcode": "59114", "telephone": "+33 3 28 44 65 33", "facilities": ["open_24_hours", "open_saturday", "open_sunday", "toilet", "wifi", "bakery_bistro", "alcohol", "tobacco", "motorway_site", "supermarket", "shop", "lorry_and_truck_terminal", "truck_suitable_site", "high_speed_pump", "truck_parking"], "products": ["ad_blue_cannister"], "website": null, "watchlist_id": null, "formatted_address": "AIRE DE ST LAURENT AUTOROUTE A25\nSTEENVOORDE\n59114", "channel_of_trade": null}, {"id": "1497100700", "name": "BP VILLIERS SUR MARNE", "lat": 48.8327141, "lng": 2.5456427, "site_brand": "BP", "country_code": "FR", "address": "75 RUE DE NOISY", "city": "VILLIERS SUR MARNE", "state": "", "postcode": "94350", "telephone": "+33 1 49 30 58 25", "facilities": ["open_saturday", "open_sunday", "car_wash", "toilet", "supermarket", "shop"], "products": [], "website": null, "watchlist_id": null, "formatted_address": "75 RUE DE NOISY\nVILLIERS SUR MARNE\n94350", "channel_of_trade": null}, {"id": "290381602", "name": "BP CONFLANS DIR ST GERMAIN", "lat": 48.99523, "lng": 2.0804, "site_brand": "BP", "country_code": "FR", "address": "ROUTE NATIONALE 184   DIR ST GERMAI", "city": "CONFLANS STE HONORINE", "state": "", "postcode": "78700", "telephone": "+33 1 39 72 85 83", "facilities": ["open_saturday", "open_sunday", "car_wash", "toilet", "shop", "truck_suitable_site", "high_speed_pump"], "products": [], "website": null, "watchlist_id": null, "formatted_address": "ROUTE NATIONALE 184   DIR ST GERMAI\nCONFLANS STE HONORINE\n78700", "channel_of_trade": null}, {"id": "1042085135", "name": "BP PLESSIS PATE SUD", "lat": 48.6117488, "lng": 2.3396357, "site_brand": "BP", "country_code": "FR", "address": "CHEMIN DEPARTEMENTAL 19", "city": "LE PLESSIS PATE", "state": "", "postcode": "91220", "telephone": "+33 1 60 84 47 77", "facilities": ["open_saturday", "open_sunday", "car_wash"], "products": [], "website": null, "watchlist_id": null, "formatted_address": "CHEMIN DEPARTEMENTAL 19\nLE PLESSIS PATE\n91220", "channel_of_trade": null}, {"id": "1056886712", "name": "BP PARIS PARKING DARC", "lat": 48.832475, "lng": 2.3647346, "site_brand": "BP", "country_code": "FR", "address": "85 RUE JEANNE DARC", "city": "PARIS", "state": "", "postcode": "75013", "telephone": "+33 1 45 85 30 66", "facilities": ["open_saturday", "open_sunday", "car_wash", "toilet", "shop"], "products": [], "website": null, "watchlist_id": null, "formatted_address": "85 RUE JEANNE DARC\nPARIS\n75013", "channel_of_trade": null}, {"id": "288611203", "name": "BP BOUGIVAL", "lat": 48.8570842, "lng": 2.1391533, "site_brand": "BP", "country_code": "FR", "address": "12 AV JEAN MOULIN", "city": "BOUGIVAL", "state": "", "postcode": "78380", "telephone": "+33 1 39 18 51 94", "facilities": ["open_saturday", "open_sunday", "car_wash", "toilet", "shop", "truck_suitable_site"], "products": [], "website": null, "watchlist_id": null, "formatted_address": "12 AV JEAN MOULIN\nBOUGIVAL\n78380", "channel_of_trade": null}, {"id": "1565556245", "name": "BP ARCUEIL", "lat": 48.805264, "lng": 2.338115, "site_brand": "BP", "country_code": "FR", "address": "23/27 AV P  DOUMER", "city": "ARCUEIL", "state": "", "postcode": "94110", "telephone": "+33 1 45 47 76 52", "facilities": ["open_saturday", "open_sunday", "car_wash", "toilet", "shop"], "products": [], "website": null, "watchlist_id": null, "formatted_address": "23/27 AV P  DOUMER\nARCUEIL\n94110", "channel_of_trade": null}, {"id": "1019276928", "name": "BP  SENS", "lat": 48.1985618, "lng": 3.2772127, "site_brand": "BP", "country_code": "FR", "address": "4 QUAI JEAN MOULIN", "city": "SENS", "state": "", "postcode": "89100", "telephone": "+33 3 86 65 06 96", "facilities": ["open_saturday", "open_sunday", "toilet", "shop"], "products": [], "website": null, "watchlist_id": null, "formatted_address": "4 QUAI JEAN MOULIN\nSENS\n89100", "channel_of_trade": null}, {"id": "212636708", "name": "BP CRETEIL LE LAC", "lat": 48.7764811, "lng": 2.4410424, "site_brand": "BP", "country_code": "FR", "address": "ROUTE DE CHOISY  RN186", "city": "CRETEIL", "state": "", "postcode": "94034", "telephone": "+33 1 42 07 71 07", "facilities": ["open_saturday", "open_sunday", "car_wash", "toilet", "shop", "truck_suitable_site", "high_speed_pump"], "products": [], "website": null, "watchlist_id": null, "formatted_address": "ROUTE DE CHOISY  RN186\nCRETEIL\n94034", "channel_of_trade": null}, {"id": "1069884276", "name": "BP GRAND QUEVILLY", "lat": 49.4107769, "lng": 1.0279059, "site_brand": "BP", "country_code": "FR", "address": "AVENUE FRANKLIN ROOSEVELT", "city": "GRAND QUEVILLY", "state": "", "postcode": "76120", "telephone": "+33 2 35 69 59 01", "facilities": ["open_saturday", "open_sunday", "car_wash", "toilet", "shop", "truck_suitable_site", "high_speed_pump"], "products": [], "website": null, "watchlist_id": null, "formatted_address": "AVENUE FRANKLIN ROOSEVELT\nGRAND QUEVILLY\n76120", "channel_of_trade": null}, {"id": "2095027420", "name": "BP DE BOBIGNY PVC", "lat": 48.90731, "lng": 2.44164, "site_brand": "BP", "country_code": "FR", "address": "300 AVENUE P VAILLANT COUTURIER", "city": "BOBIGNY", "state": "", "postcode": "93000", "telephone": "+33 1 48 95 84 03", "facilities": ["open_saturday", "open_sunday", "car_wash", "toilet", "shop", "truck_suitable_site"], "products": [], "website": null, "watchlist_id": null, "formatted_address": "300 AVENUE P VAILLANT COUTURIER\nBOBIGNY\n93000", "channel_of_trade": null}, {"id": "774804", "name": "BP ASNIERES ARGENTEUIL", "lat": 48.9145398, "lng": 2.2831993, "site_brand": "BP", "country_code": "FR", "address": "96 AV D ARGENTEUIL", "city": "ASNIERES SUR SEINE", "state": "", "postcode": "92600", "telephone": "+33 1 47 90 03 34", "facilities": ["open_saturday", "open_sunday", "car_wash", "toilet", "supermarket", "shop"], "products": [], "website": null, "watchlist_id": null, "formatted_address": "96 AV D ARGENTEUIL\nASNIERES SUR SEINE\n92600", "channel_of_trade": null}, {"id": "1866394683", "name": "BP TAVERNY", "lat": 49.0156061, "lng": 2.2179144, "site_brand": "BP", "country_code": "FR", "address": "AVENUE DE LA DIVISION LECLERC", "city": "TAVERNY", "state": "", "postcode": "95150", "telephone": "+33 1 30 40 14 25", "facilities": ["open_saturday", "open_sunday", "car_wash", "toilet", "shop"], "products": [], "website": null, "watchlist_id": null, "formatted_address": "AVENUE DE LA DIVISION LECLERC\nTAVERNY\n95150", "channel_of_trade": null}, {"id": "768536572", "name": "BP RUNGIS NORD", "lat": 48.75214, "lng": 2.38957, "site_brand": "BP", "country_code": "FR", "address": "ROUTE NATIONALE 186", "city": "RUNGIS", "state": "", "postcode": "94579", "telephone": "+33 1 46 87 58 06", "facilities": ["open_saturday", "open_sunday", "open_24_hours", "car_wash", "toilet", "shop", "truck_suitable_site", "high_speed_pump"], "products": [], "website": null, "watchlist_id": null, "formatted_address": "ROUTE NATIONALE 186\nRUNGIS\n94579", "channel_of_trade": null}, {"id": "601024279", "name": "BP CALAIS VIRVAL", "lat": 50.9380493, "lng": 1.8819037, "site_brand": "BP", "country_code": "FR", "address": "320 RUE DE SAINT OMER", "city": "CALAIS", "state": "", "postcode": "62100", "telephone": "+33 3 21 96 78 99", "facilities": ["open_saturday", "open_sunday", "open_24_hours", "toilet", "shop", "truck_suitable_site", "high_speed_pump"], "products": [], "website": null, "watchlist_id": null, "formatted_address": "320 RUE DE SAINT OMER\nCALAIS\n62100", "channel_of_trade": null}, {"id": "1392525703", "name": "BP AIRE DE VILLEVAUDE", "lat": 48.904522, "lng": 2.645098, "site_brand": "BP", "country_code": "FR", "address": "AIRE DE VILLEVAUDE AUTOROUTE A 104", "city": "VILLEVAUDE", "state": "", "postcode": "77410", "telephone": "+33 1 60 26 79 85", "facilities": ["open_saturday", "open_sunday", "open_24_hours", "car_wash", "toilet", "bakery_bistro", "motorway_site", "shop", "truck_suitable_site", "high_speed_pump"], "products": [], "website": null, "watchlist_id": null, "formatted_address": "AIRE DE VILLEVAUDE AUTOROUTE A 104\nVILLEVAUDE\n77410", "channel_of_trade": null}, {"id": "1568519024", "name": "BP AIRE DE VENOY SOLEIL LEVANT", "lat": 47.789523, "lng": 3.671931, "site_brand": "BP", "country_code": "FR", "address": "AUT A6 AIRE DE VENOY SOLEIL LEVANT", "city": "VENOY", "state": "", "postcode": "89290", "telephone": "+33 3 86 94 14 39", "facilities": ["open_saturday", "open_sunday", "open_24_hours", "toilet", "bakery_bistro", "motorway_site", "supermarket", "shop", "truck_suitable_site"], "products": [], "website": null, "watchlist_id": null, "formatted_address": "AUT A6 AIRE DE VENOY SOLEIL LEVANT\nVENOY\n89290", "channel_of_trade": null}, {"id": "1040042084", "name": "BP AIRE DU JARDIN DES ARBRES", "lat": 47.851979, "lng": 2.68572, "site_brand": "BP", "country_code": "FR", "address": "AIRE DU JARDIN DES ARBRES", "city": "VARENNES CHANGY", "state": "", "postcode": "45290", "telephone": "+33 2 38 94 57 50", "facilities": ["open_saturday", "open_sunday", "open_24_hours", "toilet", "bakery_bistro", "restaurant", "motorway_site", "shop", "truck_suitable_site", "high_speed_pump"], "products": [], "website": null, "watchlist_id": null, "formatted_address": "AIRE DU JARDIN DES ARBRES\nVARENNES CHANGY\n45290", "channel_of_trade": null}, {"id": "282196280", "name": "BP TRUCKSTOP ROYE", "lat": 49.7012234, "lng": 2.7668438, "site_brand": "BP", "country_code": "FR", "address": "CHEMIN DEPARTEMENTAL 54 E", "city": "ROYE", "state": "", "postcode": "80700", "telephone": "+33 3 22 87 18 52", "facilities": ["open_saturday", "open_sunday", "open_24_hours", "toilet", "bakery_bistro", "shop", "truck_suitable_site", "high_speed_pump"], "products": [], "website": null, "watchlist_id": null, "formatted_address": "CHEMIN DEPARTEMENTAL 54 E\nROYE\n80700", "channel_of_trade": null}, {"id": "208847494", "name": "BP  AIRE DE TRANSLAY OUEST", "lat": 49.965386, "lng": 1.659427, "site_brand": "BP", "country_code": "FR", "address": "AUTOROUTE A 28", "city": "LE TRANSLAY", "state": "", "postcode": "80140", "telephone": "+33 3 22 28 27 04", "facilities": ["open_saturday", "open_sunday", "open_24_hours", "toilet", "bakery_bistro", "restaurant", "motorway_site", "shop", "truck_suitable_site", "high_speed_pump"], "products": [], "website": null, "watchlist_id": null, "formatted_address": "AUTOROUTE A 28\nLE TRANSLAY\n80140", "channel_of_trade": null}, {"id": "215233173", "name": "BP  MERY SUR OISE", "lat": 49.05321, "lng": 2.17587, "site_brand": "BP", "country_code": "FR", "address": "LIEUDIT LES 4 CHEMINS RN1", "city": "MERY SUR OISE", "state": "", "postcode": "95540", "telephone": "+33 1 34 48 14 73", "facilities": ["open_saturday", "open_sunday", "open_24_hours", "car_wash", "truck_suitable_site", "high_speed_pump"], "products": [], "website": null, "watchlist_id": null, "formatted_address": "LIEUDIT LES 4 CHEMINS RN1\nMERY SUR OISE\n95540", "channel_of_trade": null}, {"id": "574611364", "name": "BP  AIRE DE ST GERMAIN BUTTE G", "lat": 48.630957, "lng": 2.48642, "site_brand": "BP", "country_code": "FR", "address": "LIEUDIT BUTTE DE GRAVOIS RN104", "city": "SAINT GERMAIN LES CORBEIL", "state": "", "postcode": "91250", "telephone": "+33 1 69 89 67 00", "facilities": ["open_saturday", "open_sunday", "open_24_hours", "car_wash", "toilet", "bakery_bistro", "motorway_site", "shop", "truck_suitable_site", "high_speed_pump"], "products": [], "website": null, "watchlist_id": null, "formatted_address": "LIEUDIT BUTTE DE GRAVOIS RN104\nSAINT GERMAIN LES CORBEIL\n91250", "channel_of_trade": null}, {"id": "1177472191", "name": "BP AIRE DE MARCOUSSIS FOND PRE", "lat": 48.638343, "lng": 2.201503, "site_brand": "BP", "country_code": "FR", "address": "F6 VOIE EXPRESS FONDS PRES", "city": "MARCOUSSIS", "state": "", "postcode": "91460", "telephone": "+33 1 69 01 44 45", "facilities": ["open_saturday", "open_sunday", "open_24_hours", "toilet", "bakery_bistro", "motorway_site", "shop", "truck_suitable_site", "high_speed_pump"], "products": [], "website": null, "watchlist_id": null, "formatted_address": "F6 VOIE EXPRESS FONDS PRES\nMARCOUSSIS\n91460", "channel_of_trade": null}, {"id": "116645766", "name": "BP AIRE DE TRANSLAY EST", "lat": 49.963201, "lng": 1.657604, "site_brand": "BP", "country_code": "FR", "address": "AUTOROUTE A 28", "city": "LE TRANSLAY", "state": "", "postcode": "80140", "telephone": "+33 3 22 28 07 48", "facilities": ["open_saturday", "open_sunday", "open_24_hours", "toilet", "restaurant", "motorway_site", "shop", "truck_suitable_site", "high_speed_pump"], "products": [], "website": null, "watchlist_id": null, "formatted_address": "AUTOROUTE A 28\nLE TRANSLAY\n80140", "channel_of_trade": null}, {"id": "33419404", "name": "BP AIRE DE CHAUMONT SUR THARON", "lat": 47.66272, "lng": 1.925908, "site_brand": "BP", "country_code": "FR", "address": "AUTOROUTE A71", "city": "LAMOTTE BEUVRON", "state": "", "postcode": "41600", "telephone": "+33 2 54 88 96 21", "facilities": ["open_saturday", "open_sunday", "open_24_hours", "toilet", "motorway_site", "shop", "truck_suitable_site", "high_speed_pump"], "products": [], "website": null, "watchlist_id": "33419404", "formatted_address": "AUTOROUTE A71\nLAMOTTE BEUVRON\n41600", "channel_of_trade": null}, {"id": "1648234730", "name": "BP AIRE DE CHANGIS SUR MARNE", "lat": 48.96462, "lng": 3.05214, "site_brand": "BP", "country_code": "FR", "address": "AIRE DE CHANGIS A4", "city": "LA FERTE SOUS JOUARRE", "state": "", "postcode": "77260", "telephone": "+33 1 60 22 20 77", "facilities": ["open_saturday", "open_sunday", "open_24_hours", "toilet", "motorway_site", "shop", "truck_suitable_site", "high_speed_pump"], "products": [], "website": null, "watchlist_id": null, "formatted_address": "AIRE DE CHANGIS A4\nLA FERTE SOUS JOUARRE\n77260", "channel_of_trade": null}, {"id": "780287813", "name": "BP AIRE DE BARALLE", "lat": 50.225636, "lng": 3.069854, "site_brand": "BP", "country_code": "FR", "address": "AIRE DE BARALLE AUTOROUTE A 26", "city": "MARQUION", "state": "", "postcode": "62860", "telephone": "+33 3 21 50 28 77", "facilities": ["open_saturday", "open_sunday", "open_24_hours", "toilet", "bakery_bistro", "restaurant", "motorway_site", "shop", "truck_suitable_site", "high_speed_pump"], "products": [], "website": null, "watchlist_id": null, "formatted_address": "AIRE DE BARALLE AUTOROUTE A 26\nMARQUION\n62860", "channel_of_trade": null}, {"id": "1092735990", "name": "BP AIRE D ANGRES", "lat": 50.402105, "lng": 2.747754, "site_brand": "BP", "country_code": "FR", "address": "AIRE DANGRES A26", "city": "ANGRES", "state": "", "postcode": "62143", "telephone": "+33 3 21 45 20 91", "facilities": ["open_saturday", "open_sunday", "open_24_hours", "toilet", "motorway_site", "shop", "truck_suitable_site", "high_speed_pump"], "products": [], "website": null, "watchlist_id": null, "formatted_address": "AIRE DANGRES A26\nANGRES\n62143", "channel_of_trade": null}, {"id": "9506682", "name": "BP ERAGNY DIR ST GERMAIN", "lat": 49.0239013, "lng": 2.096628, "site_brand": "BP", "country_code": "FR", "address": "RN184  DIR ST GERMAIN EN LAYE", "city": "ERAGNY SUR OISE", "state": "", "postcode": "95610", "telephone": "+33 1 34 64 38 40", "facilities": ["open_saturday", "open_sunday", "car_wash", "toilet", "shop", "truck_suitable_site", "high_speed_pump"], "products": [], "website": null, "watchlist_id": null, "formatted_address": "RN184  DIR ST GERMAIN EN LAYE\nERAGNY SUR OISE\n95610", "channel_of_trade": null}, {"id": "1052820082", "name": "BP  VIRY RN7", "lat": 48.66333, "lng": 2.36663, "site_brand": "BP", "country_code": "FR", "address": "158 RN 7", "city": "VIRY CHATILLON", "state": "", "postcode": "91170", "telephone": "+33 1 69 44 24 34", "facilities": ["open_saturday", "open_sunday", "car_wash", "shop"], "products": [], "website": null, "watchlist_id": null, "formatted_address": "158 RN 7\nVIRY CHATILLON\n91170", "channel_of_trade": null}, {"id": "1658900379", "name": "BP VILLENEUVE ASCQ", "lat": 50.6435748, "lng": 3.1443213, "site_brand": "BP", "country_code": "FR", "address": "BOULEVARD DE MONS", "city": "VILLENEUVE D'ASCQ", "state": "", "postcode": "59650", "telephone": "+33 3 20 91 64 07", "facilities": ["open_saturday", "open_sunday", "car_wash", "toilet", "shop", "truck_suitable_site", "high_speed_pump"], "products": [], "website": null, "watchlist_id": null, "formatted_address": "BOULEVARD DE MONS\nVILLENEUVE D'ASCQ\n59650", "channel_of_trade": null}, {"id": "1626205285", "name": "BP VILLEPINTE PN2", "lat": 48.97469, "lng": 2.49626, "site_brand": "BP", "country_code": "FR", "address": "ZAC DE PARIS NORD II", "city": "VILLEPINTE - ROISSY CDG", "state": "", "postcode": "95940", "telephone": "+33 1 48 63 74 79", "facilities": ["open_saturday", "open_sunday", "car_wash", "bakery_bistro", "shop"], "products": [], "website": null, "watchlist_id": null, "formatted_address": "ZAC DE PARIS NORD II\nVILLEPINTE - ROISSY CDG\n95940", "channel_of_trade": null}, {"id": "538905025", "name": "BP  VIGNEUX", "lat": 48.7001572, "lng": 2.4199085, "site_brand": "BP", "country_code": "FR", "address": "54 AV  HENRI BARBUSSE", "city": "VIGNEUX SUR SEINE", "state": "", "postcode": "91270", "telephone": "+33 1 69 40 37 44", "facilities": ["open_saturday", "open_sunday", "car_wash", "shop"], "products": [], "website": null, "watchlist_id": null, "formatted_address": "54 AV  HENRI BARBUSSE\nVIGNEUX SUR SEINE\n91270", "channel_of_trade": null}, {"id": "317649740", "name": "BP LEVALLOIS VICTOR HUGO", "lat": 48.8935369, "lng": 2.299548, "site_brand": "BP", "country_code": "FR", "address": "162 RUE VICTOR HUGO", "city": "LEVALLOIS PERRET", "state": "", "postcode": "92300", "telephone": "+33 1 47 39 06 97", "facilities": ["open_saturday", "open_sunday", "car_wash", "toilet", "supermarket", "shop"], "products": [], "website": null, "watchlist_id": null, "formatted_address": "162 RUE VICTOR HUGO\nLEVALLOIS PERRET\n92300", "channel_of_trade": null}, {"id": "654497914", "name": "BP  PARIS VERSAILLES", "lat": 48.8452202, "lng": 2.2715433, "site_brand": "BP", "country_code": "FR", "address": "99 AV DE VERSAILLES", "city": "PARIS", "state": "", "postcode": "75016", "telephone": "+33 1 42 24 81 46", "facilities": ["open_saturday", "open_sunday", "toilet", "shop"], "products": [], "website": null, "watchlist_id": null, "formatted_address": "99 AV DE VERSAILLES\nPARIS\n75016", "channel_of_trade": null}, {"id": "216984662", "name": "BP VELIZY", "lat": 48.78163, "lng": 2.18021, "site_brand": "BP", "country_code": "FR", "address": "27 RUE LOUIS BREGUET", "city": "VELIZY VILLACOUBLAY", "state": "", "postcode": "78140", "telephone": "+33 1 39 46 14 57", "facilities": ["open_saturday", "open_sunday", "car_wash", "shop", "truck_suitable_site", "high_speed_pump"], "products": [], "website": null, "watchlist_id": null, "formatted_address": "27 RUE LOUIS BREGUET\nVELIZY VILLACOUBLAY\n78140", "channel_of_trade": null}, {"id": "935476309", "name": "BP VAUJOURS", "lat": 48.9347947, "lng": 2.5676372, "site_brand": "BP", "country_code": "FR", "address": "64 RUE DE MEAUX", "city": "VAUJOURS", "state": "", "postcode": "93410", "telephone": "+33 1 48 60 70 12", "facilities": ["open_saturday", "open_sunday", "car_wash", "toilet", "shop"], "products": [], "website": null, "watchlist_id": null, "formatted_address": "64 RUE DE MEAUX\nVAUJOURS\n93410", "channel_of_trade": null}, {"id": "484476711", "name": "BP VAUCRESSON", "lat": 48.8377104, "lng": 2.1656669, "site_brand": "BP", "country_code": "FR", "address": "BD REPUBLIQUE ZAC PEPINIERE", "city": "VAUCRESSON", "state": "", "postcode": "92420", "telephone": "+33 1 47 41 31 53", "facilities": ["open_saturday", "open_sunday", "car_wash", "toilet", "shop"], "products": [], "website": null, "watchlist_id": null, "formatted_address": "BD REPUBLIQUE ZAC PEPINIERE\nVAUCRESSON\n92420", "channel_of_trade": null}, {"id": "162539301", "name": "BP ROCQUENCOURT", "lat": 48.83701, "lng": 2.1045, "site_brand": "BP", "country_code": "FR", "address": "ANGLE RN 307 ET 317", "city": "ROCQUENCOURT", "state": "", "postcode": "78150", "telephone": "+33 1 39 54 25 05", "facilities": ["open_saturday", "open_sunday", "open_24_hours", "car_wash", "toilet", "shop", "truck_suitable_site", "high_speed_pump"], "products": [], "website": null, "watchlist_id": null, "formatted_address": "ANGLE RN 307 ET 317\nROCQUENCOURT\n78150", "channel_of_trade": null}, {"id": "754175650", "name": "BP THIAIS SUD", "lat": 48.7657818, "lng": 2.392155, "site_brand": "BP", "country_code": "FR", "address": "334 THIAIS SUD C C BELLE 2PINE", "city": "THIAIS", "state": "", "postcode": "94651", "telephone": "+33 1 45 60 45 71", "facilities": ["open_saturday", "open_sunday", "car_wash", "toilet", "shop", "truck_suitable_site", "high_speed_pump"], "products": [], "website": null, "watchlist_id": null, "formatted_address": "334 THIAIS SUD C C BELLE 2PINE\nTHIAIS\n94651", "channel_of_trade": null}, {"id": "638586576", "name": "BP SRAN  NOGENT LE ROTROU", "lat": 48.3274065, "lng": 0.8035826, "site_brand": "BP", "country_code": "FR", "address": "ROUTE DALENCON", "city": "NOGENT LE ROTROU", "state": "", "postcode": "28403", "telephone": "+33 2 37 53 47 48", "facilities": ["open_saturday", "open_sunday", "toilet", "shop"], "products": [], "website": null, "watchlist_id": null, "formatted_address": "ROUTE DALENCON\nNOGENT LE ROTROU\n28403", "channel_of_trade": null}, {"id": "1329975188", "name": "BP TRAPPES SNCF", "lat": 48.77992, "lng": 2.00888, "site_brand": "BP", "country_code": "FR", "address": "LA BOISSIERE   RN 10", "city": "TRAPPES", "state": "", "postcode": "78190", "telephone": "+33 1 30 51 80 26", "facilities": ["open_saturday", "open_sunday", "car_wash", "toilet", "shop", "truck_suitable_site", "high_speed_pump"], "products": [], "website": null, "watchlist_id": null, "formatted_address": "LA BOISSIERE   RN 10\nTRAPPES\n78190", "channel_of_trade": null}, {"id": "1326412056", "name": "BP  AMIENS SANTERRE", "lat": 49.52922, "lng": 2.19827, "site_brand": "BP", "country_code": "FR", "address": "190 CHAUSSEE JULES FERRY", "city": "AMIENS", "state": "", "postcode": "80000", "telephone": "+33 3 22 47 36 52", "facilities": ["open_saturday", "open_sunday", "car_wash", "toilet", "shop"], "products": [], "website": null, "watchlist_id": null, "formatted_address": "190 CHAUSSEE JULES FERRY\nAMIENS\n80000", "channel_of_trade": null}, {"id": "1010573794", "name": "BP RUEIL MALMAISON", "lat": 48.86255, "lng": 2.18316, "site_brand": "BP", "country_code": "FR", "address": "246 RTE DE LEMPEREUR", "city": "RUEIL MALMAISON", "state": "", "postcode": "92500", "telephone": "+33 1 47 08 35 37", "facilities": ["open_saturday", "open_sunday", "car_wash", "toilet", "shop", "truck_suitable_site"], "products": [], "website": null, "watchlist_id": null, "formatted_address": "246 RTE DE LEMPEREUR\nRUEIL MALMAISON\n92500", "channel_of_trade": null}, {"id": "1007808791", "name": "BP VILLEMOMBLE", "lat": 48.88523, "lng": 2.50493, "site_brand": "BP", "country_code": "FR", "address": "32 AV DE ROSNY", "city": "VILLEMOMBLE", "state": "", "postcode": "93250", "telephone": "+33 1 48 94 20 27", "facilities": ["open_saturday", "open_sunday", "open_24_hours", "car_wash", "toilet", "supermarket", "shop"], "products": [], "website": null, "watchlist_id": null, "formatted_address": "32 AV DE ROSNY\nVILLEMOMBLE\n93250", "channel_of_trade": null}, {"id": "857861921", "name": "BP  COLOMBES EDG QUINET", "lat": 48.9234327, "lng": 2.2491331, "site_brand": "BP", "country_code": "FR", "address": "14 BD EDGAR QUINET", "city": "COLOMBES", "state": "", "postcode": "92700", "telephone": "+33 1 47 82 64 41", "facilities": ["open_saturday", "open_sunday", "car_wash", "toilet", "shop"], "products": [], "website": null, "watchlist_id": null, "formatted_address": "14 BD EDGAR QUINET\nCOLOMBES\n92700", "channel_of_trade": null}, {"id": "1993285427", "name": "BP ST QUENTIN CD 36", "lat": 48.75842, "lng": 2.04511, "site_brand": "BP", "country_code": "FR", "address": "CD 36", "city": "VOISINS LE BRETONNEUX", "state": "", "postcode": "78960", "telephone": "+33 1 30 43 20 84", "facilities": ["open_saturday", "open_sunday", "car_wash", "toilet", "shop", "truck_suitable_site"], "products": [], "website": null, "watchlist_id": null, "formatted_address": "CD 36\nVOISINS LE BRETONNEUX\n78960", "channel_of_trade": null}, {"id": "1008612329", "name": "BP SCEAUX 4 CHEMINS", "lat": 48.7741555, "lng": 2.2799682, "site_brand": "BP", "country_code": "FR", "address": "77 AV EDOUARD DEPREUX", "city": "SCEAUX", "state": "", "postcode": "92330", "telephone": "+33 1 43 50 60 28", "facilities": ["open_saturday", "open_sunday", "car_wash", "toilet", "shop"], "products": [], "website": null, "watchlist_id": null, "formatted_address": "77 AV EDOUARD DEPREUX\nSCEAUX\n92330", "channel_of_trade": null}, {"id": "552599840", "name": "BP LHAY LES ROSES", "lat": 48.77966, "lng": 2.33921, "site_brand": "BP", "country_code": "FR", "address": "110 BD P VAILLANT COUTURIER", "city": "L'HAY LES ROSES", "state": "", "postcode": "94240", "telephone": "+33 1 46 64 48 60", "facilities": ["open_saturday", "open_sunday", "car_wash", "toilet", "shop"], "products": [], "website": null, "watchlist_id": null, "formatted_address": "110 BD P VAILLANT COUTURIER\nL'HAY LES ROSES\n94240", "channel_of_trade": null}, {"id": "475208705", "name": "BP LE PLESSIS TREVISE", "lat": 48.81044, "lng": 2.5724, "site_brand": "BP", "country_code": "FR", "address": "26 AV ARDOUIN", "city": "LE PLESSIS TREVISE", "state": "", "postcode": "94420", "telephone": "+33 1 45 76 90 94", "facilities": ["open_saturday", "open_sunday", "car_wash", "toilet", "shop"], "products": [], "website": null, "watchlist_id": null, "formatted_address": "26 AV ARDOUIN\nLE PLESSIS TREVISE\n94420", "channel_of_trade": null}, {"id": "1566499610", "name": "BP CALAIS PETIT COURGAIN", "lat": 50.9541538, "lng": 1.8571124, "site_brand": "BP", "country_code": "FR", "address": "RUE MOLLIEN", "city": "CALAIS", "state": "", "postcode": "62100", "telephone": "+33 3 21 96 49 35", "facilities": ["open_saturday", "open_sunday", "car_wash", "toilet", "shop", "truck_suitable_site", "high_speed_pump"], "products": [], "website": null, "watchlist_id": null, "formatted_address": "RUE MOLLIEN\nCALAIS\n62100", "channel_of_trade": null}, {"id": "246402766", "name": "BP ST OUEN L AUMONE", "lat": 49.0396278, "lng": 2.1157117, "site_brand": "BP", "country_code": "FR", "address": "52 RUE DE PARIS", "city": "SAINT OUEN L'AUMONE", "state": "", "postcode": "95310", "telephone": "+33 1 34 64 13 27", "facilities": ["open_saturday", "open_sunday", "car_wash", "toilet", "shop", "truck_suitable_site"], "products": [], "website": null, "watchlist_id": null, "formatted_address": "52 RUE DE PARIS\nSAINT OUEN L'AUMONE\n95310", "channel_of_trade": null}, {"id": "485560643", "name": "BP NOISY LE SEC BREMENT", "lat": 48.8881342, "lng": 2.4588694, "site_brand": "BP", "country_code": "FR", "address": "107 RUE DE BREMENT", "city": "NOISY LE SEC", "state": "", "postcode": "93130", "telephone": "+33 1 48 40 99 90", "facilities": ["open_saturday", "open_sunday", "car_wash", "toilet", "supermarket", "shop"], "products": [], "website": null, "watchlist_id": null, "formatted_address": "107 RUE DE BREMENT\nNOISY LE SEC\n93130", "channel_of_trade": null}, {"id": "549452833", "name": "BP  PARIS MONTPARNASSE", "lat": 48.8409479, "lng": 2.3170535, "site_brand": "BP", "country_code": "FR", "address": "47 BD DE VAUGIRARD", "city": "PARIS", "state": "", "postcode": "75015", "telephone": "+33 1 43 21 37 42", "facilities": ["open_saturday", "open_sunday", "open_24_hours", "car_wash", "toilet", "shop"], "products": [], "website": null, "watchlist_id": null, "formatted_address": "47 BD DE VAUGIRARD\nPARIS\n75015", "channel_of_trade": null}, {"id": "12806960", "name": "BP NANTERRE MONT VALERIEN", "lat": 48.88244, "lng": 2.22237, "site_brand": "BP", "country_code": "FR", "address": "36 RUE DES FUSILLES", "city": "NANTERRE", "state": "", "postcode": "92000", "telephone": "+33 1 45 06 52 83", "facilities": ["open_saturday", "open_sunday", "toilet", "shop"], "products": [], "website": null, "watchlist_id": "12806960", "formatted_address": "36 RUE DES FUSILLES\nNANTERRE\n92000", "channel_of_trade": null}, {"id": "1104101099", "name": "BP MONTGERON", "lat": 48.6808722, "lng": 2.4931988, "site_brand": "BP", "country_code": "FR", "address": "ROUTE NATIONALE 6", "city": "MONTGERON", "state": "", "postcode": "91230", "telephone": "+33 1 69 40 55 74", "facilities": ["open_saturday", "open_sunday", "open_24_hours", "car_wash", "toilet", "shop", "truck_suitable_site", "high_speed_pump"], "products": [], "website": null, "watchlist_id": null, "formatted_address": "ROUTE NATIONALE 6\nMONTGERON\n91230", "channel_of_trade": null}, {"id": "817963476", "name": "BP CHELLES", "lat": 48.8995919, "lng": 2.6143505, "site_brand": "BP", "country_code": "FR", "address": "20 AV DE CLAYE", "city": "CHELLES", "state": "", "postcode": "77500", "telephone": "+33 9 52 19 97 46", "facilities": ["open_saturday", "open_sunday", "car_wash", "toilet", "shop", "truck_suitable_site", "high_speed_pump"], "products": [], "website": null, "watchlist_id": null, "formatted_address": "20 AV DE CLAYE\nCHELLES\n77500", "channel_of_trade": null}, {"id": "44838633", "name": "BP  ST MICHEL SUR ORGE", "lat": 48.63221, "lng": 2.29728, "site_brand": "BP", "country_code": "FR", "address": "ROUTE DE LA BOELE", "city": "SAINT MICHEL SUR ORGE", "state": "", "postcode": "91240", "telephone": "+33 1 69 01 57 20", "facilities": ["open_saturday", "open_sunday", "car_wash", "toilet", "shop"], "products": [], "website": null, "watchlist_id": "44838633", "formatted_address": "ROUTE DE LA BOELE\nSAINT MICHEL SUR ORGE\n91240", "channel_of_trade": null}, {"id": "684922154", "name": "BP MEAUX", "lat": 48.960524, "lng": 2.8715505, "site_brand": "BP", "country_code": "FR", "address": "14 RUE SENLIS", "city": "MEAUX", "state": "", "postcode": "77100", "telephone": "+33 1 64 34 39 37", "facilities": ["open_saturday", "open_sunday", "car_wash", "toilet", "shop"], "products": [], "website": null, "watchlist_id": null, "formatted_address": "14 RUE SENLIS\nMEAUX\n77100", "channel_of_trade": null}, {"id": "1900014613", "name": "BP MAISONS LAFFITTE", "lat": 48.9449136, "lng": 2.1418412, "site_brand": "BP", "country_code": "FR", "address": "18 AV 20 DU GAL DE GAULLE", "city": "MAISONS LAFFITTE", "state": "", "postcode": "78600", "telephone": "+33 1 39 62 54 63", "facilities": ["open_saturday", "open_sunday", "car_wash", "toilet", "shop", "truck_suitable_site"], "products": [], "website": null, "watchlist_id": null, "formatted_address": "18 AV 20 DU GAL DE GAULLE\nMAISONS LAFFITTE\n78600", "channel_of_trade": null}, {"id": "2093870282", "name": "BP  IVRY MAIRIE", "lat": 48.8134769, "lng": 2.3887916, "site_brand": "BP", "country_code": "FR", "address": "79 AV  GEORGES GOSNAT", "city": "IVRY SUR SEINE", "state": "", "postcode": "94200", "telephone": "+33 1 46 72 51 63", "facilities": ["open_saturday", "open_sunday", "car_wash", "toilet", "shop"], "products": [], "website": null, "watchlist_id": null, "formatted_address": "79 AV  GEORGES GOSNAT\nIVRY SUR SEINE\n94200", "channel_of_trade": null}, {"id": "1447412182", "name": "BP AMIENS LONGPRE", "lat": 49.55615, "lng": 2.17331, "site_brand": "BP", "country_code": "FR", "address": "7 AVENUE R DUMOULIN", "city": "AMIENS  2", "state": "", "postcode": "80046", "telephone": "+33 3 22 52 01 04", "facilities": ["open_saturday", "open_sunday", "car_wash", "toilet", "shop", "truck_suitable_site", "high_speed_pump"], "products": [], "website": null, "watchlist_id": null, "formatted_address": "7 AVENUE R DUMOULIN\nAMIENS  2\n80046", "channel_of_trade": null}, {"id": "536794386", "name": "BP  LIVRY GARGAN  SUR SPEEDY", "lat": 48.9141983, "lng": 2.5262067, "site_brand": "BP", "country_code": "FR", "address": "137 AV ARISTIDE BRIAND", "city": "LIVRY GARGAN", "state": "", "postcode": "93190", "telephone": "+33 1 43 30 39 65", "facilities": ["open_saturday", "open_sunday", "open_24_hours", "car_wash", "toilet", "bakery_bistro", "shop", "truck_suitable_site"], "products": [], "website": null, "watchlist_id": null, "formatted_address": "137 AV ARISTIDE BRIAND\nLIVRY GARGAN\n93190", "channel_of_trade": null}, {"id": "1595674896", "name": "BP  LIVRY GARGAN", "lat": 48.9115208, "lng": 2.5187379, "site_brand": "BP", "country_code": "FR", "address": "69 AVENUE ARISTIDE BRIAND", "city": "LIVRY GARGAN", "state": "", "postcode": "93190", "telephone": "+33 1 43 81 43 51", "facilities": ["open_saturday", "open_sunday", "car_wash", "toilet"], "products": [], "website": null, "watchlist_id": null, "formatted_address": "69 AVENUE ARISTIDE BRIAND\nLIVRY GARGAN\n93190", "channel_of_trade": null}, {"id": "232788200", "name": "BP LEVALLOIS PRESIDENT WILSON", "lat": 48.8964432, "lng": 2.286498, "site_brand": "BP", "country_code": "FR", "address": "106 RUE DU PRESIDENT WILSON", "city": "LEVALLOIS PERRET", "state": "", "postcode": "92300", "telephone": "+33 1 49 68 80 04", "facilities": ["open_saturday", "open_sunday", "car_wash", "toilet", "supermarket", "shop"], "products": [], "website": null, "watchlist_id": null, "formatted_address": "106 RUE DU PRESIDENT WILSON\nLEVALLOIS PERRET\n92300", "channel_of_trade": null}, {"id": "222498276", "name": "BP NANTERRE LENINE", "lat": 48.88767, "lng": 2.18693, "site_brand": "BP", "country_code": "FR", "address": "93 AV LENINE", "city": "NANTERRE", "state": "", "postcode": "92000", "telephone": "+33 1 47 24 03 41", "facilities": ["open_saturday", "open_sunday", "car_wash", "toilet", "shop"], "products": [], "website": null, "watchlist_id": null, "formatted_address": "93 AV LENINE\nNANTERRE\n92000", "channel_of_trade": null}, {"id": "1480516786", "name": "BP PARIS LECOURBE", "lat": 48.8391276, "lng": 2.292061, "site_brand": "BP", "country_code": "FR", "address": "151 RUE DE LA CONVENTION", "city": "PARIS", "state": "", "postcode": "75015", "telephone": "+33 1 48 28 12 62", "facilities": ["open_saturday", "open_sunday", "open_24_hours", "car_wash", "toilet", "shop", "truck_suitable_site"], "products": [], "website": null, "watchlist_id": null, "formatted_address": "151 RUE DE LA CONVENTION\nPARIS\n75015", "channel_of_trade": null}, {"id": "1494273742", "name": "BP SEVRAN LECLERC", "lat": 48.9390636, "lng": 2.5264652, "site_brand": "BP", "country_code": "FR", "address": "29 AV DU GENERAL LECLERC", "city": "SEVRAN", "state": "", "postcode": "93270", "telephone": "+33 1 43 85 31 05", "facilities": ["open_saturday", "open_sunday", "car_wash", "toilet", "shop"], "products": [], "website": null, "watchlist_id": null, "formatted_address": "29 AV DU GENERAL LECLERC\nSEVRAN\n93270", "channel_of_trade": null}, {"id": "1278357217", "name": "BP PUTEAUX SAINT JULIEN", "lat": 48.88266, "lng": 2.24757, "site_brand": "BP", "country_code": "FR", "address": "47 QUAI DION BOUTON", "city": "PUTEAUX", "state": "", "postcode": "92800", "telephone": "+33 1 47 73 81 44", "facilities": ["open_saturday", "open_sunday", "toilet", "shop"], "products": [], "website": null, "watchlist_id": null, "formatted_address": "47 QUAI DION BOUTON\nPUTEAUX\n92800", "channel_of_trade": null}, {"id": "1649197372", "name": "BP BOULOGNE PT DU JOUR", "lat": 48.8254741, "lng": 2.2480686, "site_brand": "BP", "country_code": "FR", "address": "263 BD JEAN JAURES", "city": "BOULOGNE BILLANCOURT", "state": "", "postcode": "92100", "telephone": "+33 1 47 61 18 32", "facilities": ["open_saturday", "open_sunday", "car_wash", "toilet", "shop"], "products": [], "website": null, "watchlist_id": null, "formatted_address": "263 BD JEAN JAURES\nBOULOGNE BILLANCOURT\n92100", "channel_of_trade": null}, {"id": "574585404", "name": "BP JOINVILLE CHAPSAL SUR SPEED", "lat": 48.8238178, "lng": 2.4652332, "site_brand": "BP", "country_code": "FR", "address": "39 RUE CHAPSAL", "city": "JOINVILLE LE PONT", "state": "", "postcode": "94340", "telephone": "+33 1 48 83 43 90", "facilities": ["open_saturday", "open_sunday", "toilet", "shop"], "products": [], "website": null, "watchlist_id": null, "formatted_address": "39 RUE CHAPSAL\nJOINVILLE LE PONT\n94340", "channel_of_trade": null}, {"id": "61526750", "name": "BP  PERSAN J JAURES", "lat": 49.1462471, "lng": 2.2843476, "site_brand": "BP", "country_code": "FR", "address": "5 A 11 AV JEAN JAURES", "city": "PERSAN", "state": "", "postcode": "95340", "telephone": "+33 1 34 70 00 31", "facilities": ["open_saturday", "open_sunday", "car_wash", "toilet", "shop", "truck_suitable_site", "high_speed_pump"], "products": [], "website": null, "watchlist_id": "61526750", "formatted_address": "5 A 11 AV JEAN JAURES\nPERSAN\n95340", "channel_of_trade": null}, {"id": "270320884", "name": "BP BOBIGNY J JAURES", "lat": 48.8996909, "lng": 2.4415077, "site_brand": "BP", "country_code": "FR", "address": "19 AV  JEAN JAURES", "city": "BOBIGNY", "state": "", "postcode": "93000", "telephone": "+33 1 48 10 02 84", "facilities": ["open_saturday", "open_sunday", "open_24_hours", "car_wash", "toilet", "supermarket", "shop"], "products": [], "website": null, "watchlist_id": null, "formatted_address": "19 AV  JEAN JAURES\nBOBIGNY\n93000", "channel_of_trade": null}, {"id": "769389817", "name": "BP  ARGENTEUIL J JAURES", "lat": 48.9397705, "lng": 2.2333376, "site_brand": "BP", "country_code": "FR", "address": "63 AV JEAN JAURES", "city": "ARGENTEUIL", "state": "", "postcode": "95100", "telephone": "+33 1 39 61 74 32", "facilities": ["open_saturday", "open_sunday", "car_wash", "toilet", "shop", "truck_suitable_site"], "products": [], "website": null, "watchlist_id": null, "formatted_address": "63 AV JEAN JAURES\nARGENTEUIL\n95100", "channel_of_trade": null}, {"id": "1295216709", "name": "BP AUBERVILLIERS V HUGO", "lat": 48.9116711, "lng": 2.3795235, "site_brand": "BP", "country_code": "FR", "address": "126 AV VICTOR HUGO", "city": "AUBERVILLIERS", "state": "", "postcode": "93300", "telephone": "+33 1 43 52 20 50", "facilities": ["open_saturday", "open_sunday", "car_wash", "toilet", "shop"], "products": [], "website": null, "watchlist_id": null, "formatted_address": "126 AV VICTOR HUGO\nAUBERVILLIERS\n93300", "channel_of_trade": null}, {"id": "372585299", "name": "BP  ARGENTEUIL HLM", "lat": 48.95698, "lng": 2.28388, "site_brand": "BP", "country_code": "FR", "address": "239 ROUTE DENGHIEN", "city": "ARGENTEUIL", "state": "", "postcode": "95100", "telephone": "+33 1 39 80 97 39", "facilities": ["open_saturday", "open_sunday", "shop", "truck_suitable_site"], "products": [], "website": null, "watchlist_id": null, "formatted_address": "239 ROUTE DENGHIEN\nARGENTEUIL\n95100", "channel_of_trade": null}, {"id": "402756858", "name": "BP SOISY HIPPODROME", "lat": 48.9781493, "lng": 2.2916002, "site_brand": "BP", "country_code": "FR", "address": "59 BIS AVENUE KELLERMANN", "city": "SOISY S/S MONTMORENCY", "state": "", "postcode": "95230", "telephone": "+33 1 39 34 48 00", "facilities": ["open_saturday", "open_sunday", "car_wash", "toilet", "bakery_bistro", "shop", "truck_suitable_site"], "products": [], "website": null, "watchlist_id": null, "formatted_address": "59 BIS AVENUE KELLERMANN\nSOISY S/S MONTMORENCY\n95230", "channel_of_trade": null}, {"id": "1674646574", "name": "BP AMIENS HENRIVILLE", "lat": 49.523863, "lng": 2.184612, "site_brand": "BP", "country_code": "FR", "address": "RUE PIERRE ROLLIN", "city": "AMIENS", "state": "", "postcode": "80000", "telephone": "+33 3 22 47 03 01", "facilities": ["open_saturday", "open_sunday", "car_wash", "toilet", "shop"], "products": [], "website": null, "watchlist_id": null, "formatted_address": "RUE PIERRE ROLLIN\nAMIENS\n80000", "channel_of_trade": null}, {"id": "1296829512", "name": "BP CERGY LHAUTIL", "lat": 49.03115, "lng": 2.07019, "site_brand": "BP", "country_code": "FR", "address": "ANGLE AV GROUETTES BLD L HAUTI", "city": "CERGY", "state": "", "postcode": "95000", "telephone": "+33 1 30 30 42 87", "facilities": ["open_saturday", "open_sunday", "car_wash", "toilet", "bakery_bistro", "shop"], "products": [], "website": null, "watchlist_id": null, "formatted_address": "ANGLE AV GROUETTES BLD L HAUTI\nCERGY\n95000", "channel_of_trade": null}, {"id": "372432470", "name": "BP  GIF GAL LECLERC", "lat": 48.7033367, "lng": 2.1293704, "site_brand": "BP", "country_code": "FR", "address": "27 AV DU GENERAL LECLERC", "city": "GIF SUR YVETTE", "state": "", "postcode": "91190", "telephone": "+33 1 69 07 63 61", "facilities": ["open_saturday", "open_sunday", "car_wash", "toilet", "shop"], "products": [], "website": null, "watchlist_id": null, "formatted_address": "27 AV DU GENERAL LECLERC\nGIF SUR YVETTE\n91190", "channel_of_trade": null}, {"id": "105962566", "name": "BP CLAMART GARE", "lat": 48.8117078, "lng": 2.2712168, "site_brand": "BP", "country_code": "FR", "address": "5 RUE DE VANVES", "city": "CLAMART", "state": "", "postcode": "92140", "telephone": "+33 1 47 36 39 58", "facilities": ["open_saturday", "open_sunday", "car_wash", "toilet", "shop"], "products": [], "website": null, "watchlist_id": null, "formatted_address": "5 RUE DE VANVES\nCLAMART\n92140", "channel_of_trade": null}, {"id": "63114390", "name": "BP  PUTEAUX LE FRANCE", "lat": 48.88266, "lng": 2.24708, "site_brand": "BP", "country_code": "FR", "address": "42 QUAI DE DION BOUTON", "city": "PUTEAUX", "state": "", "postcode": "92800", "telephone": "+33 1 49 03 75 86", "facilities": ["open_saturday", "open_sunday", "car_wash", "toilet", "shop"], "products": [], "website": null, "watchlist_id": "63114390", "formatted_address": "42 QUAI DE DION BOUTON\nPUTEAUX\n92800", "channel_of_trade": null}, {"id": "406650729", "name": "BP FONTAINEBLEAU LA FOURCHE", "lat": 48.4082725, "lng": 2.6863294, "site_brand": "BP", "country_code": "FR", "address": "CARREFOUR DE LA LIBERATION", "city": "FONTAINEBLEAU", "state": "", "postcode": "77300", "telephone": "+33 1 64 22 42 82", "facilities": ["open_saturday", "open_sunday", "car_wash", "toilet", "shop"], "products": [], "website": null, "watchlist_id": null, "formatted_address": "CARREFOUR DE LA LIBERATION\nFONTAINEBLEAU\n77300", "channel_of_trade": null}, {"id": "1207967449", "name": "BP FORGES LES EAUX", "lat": 49.6109117, "lng": 1.5514101, "site_brand": "BP", "country_code": "FR", "address": "70 RUE DE LA LIBERATION", "city": "FORGES LES EAUX", "state": "", "postcode": "76440", "telephone": "+33 2 35 90 50 95", "facilities": ["open_saturday", "open_sunday", "car_wash", "toilet", "shop", "truck_suitable_site", "high_speed_pump"], "products": [], "website": null, "watchlist_id": null, "formatted_address": "70 RUE DE LA LIBERATION\nFORGES LES EAUX\n76440", "channel_of_trade": null}, {"id": "536755045", "name": "BP ST FARGEAU", "lat": 48.52997, "lng": 2.53998, "site_brand": "BP", "country_code": "FR", "address": "LOTISS DES BORDES RN 7", "city": "ST FARGEAU PONTHIERRY", "state": "", "postcode": "77310", "telephone": "+33 1 60 65 71 92", "facilities": ["open_saturday", "open_sunday", "car_wash", "toilet", "shop", "truck_suitable_site"], "products": [], "website": null, "watchlist_id": null, "formatted_address": "LOTISS DES BORDES RN 7\nST FARGEAU PONTHIERRY\n77310", "channel_of_trade": null}, {"id": "658702709", "name": "BP MASSY", "lat": 48.72775, "lng": 2.26978, "site_brand": "BP", "country_code": "FR", "address": "VOIE EXPRESS CD 117", "city": "MASSY", "state": "", "postcode": "91300", "telephone": "+33 1 60 14 74 74", "facilities": ["open_saturday", "open_sunday", "open_24_hours", "car_wash", "toilet", "shop"], "products": [], "website": null, "watchlist_id": null, "formatted_address": "VOIE EXPRESS CD 117\nMASSY\n91300", "channel_of_trade": null}, {"id": "46043845", "name": "BP SEVRES EUROPE", "lat": 48.8219702, "lng": 2.2066847, "site_brand": "BP", "country_code": "FR", "address": "AV DE L EUROPE", "city": "SEVRES", "state": "", "postcode": "92310", "telephone": "+33 1 46 26 88 34", "facilities": ["open_saturday", "open_sunday", "car_wash", "toilet", "shop"], "products": [], "website": null, "watchlist_id": "46043845", "formatted_address": "AV DE L EUROPE\nSEVRES\n92310", "channel_of_trade": null}, {"id": "548614053", "name": "BP  DRANCY", "lat": 48.9131225, "lng": 2.4629568, "site_brand": "BP", "country_code": "FR", "address": "274 AV J JAURES", "city": "DRANCY", "state": "", "postcode": "93700", "telephone": "+33 1 48 30 30 50", "facilities": ["open_saturday", "open_sunday", "car_wash", "toilet", "shop"], "products": [], "website": null, "watchlist_id": null, "formatted_address": "274 AV J JAURES\nDRANCY\n93700", "channel_of_trade": null}, {"id": "482181546", "name": "BP  DEUIL LA BARRE", "lat": 48.9681772, "lng": 2.3156465, "site_brand": "BP", "country_code": "FR", "address": "28 A 32 AV DE LA DIV LECLERC", "city": "DEUIL LA BARRE", "state": "", "postcode": "95170", "telephone": "+33 1 39 64 61 01", "facilities": ["open_saturday", "open_sunday", "car_wash", "toilet", "shop"], "products": [], "website": null, "watchlist_id": null, "formatted_address": "28 A 32 AV DE LA DIV LECLERC\nDEUIL LA BARRE\n95170", "channel_of_trade": null}, {"id": "1340916120", "name": "BP ARGENTEUIL Q ST DENIS", "lat": 48.9448, "lng": 2.26183, "site_brand": "BP", "country_code": "FR", "address": "RN 311 QUAI ST DENIS", "city": "ARGENTEUIL", "state": "", "postcode": "95100", "telephone": "+33 1 39 81 64 45", "facilities": ["open_saturday", "open_sunday", "truck_suitable_site", "high_speed_pump"], "products": [], "website": null, "watchlist_id": null, "formatted_address": "RN 311 QUAI ST DENIS\nARGENTEUIL\n95100", "channel_of_trade": null}, {"id": "700092582", "name": "BP VALENCIENNES CROIX DANZIN", "lat": 50.3661735, "lng": 3.5128024, "site_brand": "BP", "country_code": "FR", "address": "36 AV DE ST AMAND", "city": "VALENCIENNES", "state": "", "postcode": "59300", "telephone": "+33 3 27 47 62 52", "facilities": ["open_saturday", "open_sunday", "car_wash", "toilet", "shop"], "products": [], "website": null, "watchlist_id": null, "formatted_address": "36 AV DE ST AMAND\nVALENCIENNES\n59300", "channel_of_trade": null}, {"id": "755900483", "name": "BP ST MAUR CRETEIL", "lat": 48.7981807, "lng": 2.4806611, "site_brand": "BP", "country_code": "FR", "address": "57 BD DE CRETEIL", "city": "SAINT MAUR DES FOSSES", "state": "", "postcode": "94100", "telephone": "+33 1 42 83 49 83", "facilities": ["open_saturday", "open_sunday", "toilet", "supermarket", "shop"], "products": [], "website": null, "watchlist_id": null, "formatted_address": "57 BD DE CRETEIL\nSAINT MAUR DES FOSSES\n94100", "channel_of_trade": null}, {"id": "34374297", "name": "BP COURBEVOIE JOFFRE", "lat": 48.90183, "lng": 2.27837, "site_brand": "BP", "country_code": "FR", "address": "82 86 QUAI JOFFRE", "city": "COURBEVOIE", "state": "", "postcode": "92400", "telephone": "+33 1 43 33 79 06", "facilities": ["open_saturday", "open_sunday", "car_wash", "toilet", "shop", "truck_suitable_site"], "products": [], "website": null, "watchlist_id": "34374297", "formatted_address": "82 86 QUAI JOFFRE\nCOURBEVOIE\n92400", "channel_of_trade": null}, {"id": "859848059", "name": "BP VILLEPINTE CLEMENCEAU", "lat": 48.9550428, "lng": 2.5612264, "site_brand": "BP", "country_code": "FR", "address": "AVENUE G  CLEMENCEAU CD 40", "city": "VILLEPINTE", "state": "", "postcode": "93420", "telephone": "+33 1 48 61 92 03", "facilities": ["open_saturday", "open_sunday", "car_wash", "toilet", "shop", "truck_suitable_site"], "products": [], "website": null, "watchlist_id": null, "formatted_address": "AVENUE G  CLEMENCEAU CD 40\nVILLEPINTE\n93420", "channel_of_trade": null}, {"id": "870698378", "name": "BP NANTERRE CLEMENCEAU", "lat": 48.885672, "lng": 2.2190138, "site_brand": "BP", "country_code": "FR", "address": "265 AV GEORGES CLEMENCEAU", "city": "NANTERRE", "state": "", "postcode": "92000", "telephone": "+33 1 47 24 02 12", "facilities": ["open_saturday", "open_sunday", "car_wash", "toilet", "shop", "truck_suitable_site"], "products": [], "website": null, "watchlist_id": null, "formatted_address": "265 AV GEORGES CLEMENCEAU\nNANTERRE\n92000", "channel_of_trade": null}, {"id": "820954193", "name": "BP CERGY ST CHRISTOPHE", "lat": 49.04691, "lng": 2.0237, "site_brand": "BP", "country_code": "FR", "address": "ROND POINT DU CHENE (BD DE LOISE)", "city": "CERGY", "state": "", "postcode": "95800", "telephone": "+33 1 30 38 44 43", "facilities": ["open_saturday", "open_sunday", "car_wash", "toilet", "supermarket", "shop"], "products": [], "website": null, "watchlist_id": null, "formatted_address": "ROND POINT DU CHENE (BD DE LOISE)\nCERGY\n95800", "channel_of_trade": null}, {"id": "1076854374", "name": "BP CHILLY MAZARIN LONGJUMEAU", "lat": 48.71007, "lng": 2.29717, "site_brand": "BP", "country_code": "FR", "address": "RUE DE LONGJUMEAU RUE AMPERE", "city": "CHILLY MAZARIN", "state": "", "postcode": "91380", "telephone": "+33 1 69 30 50 75", "facilities": ["open_saturday", "open_sunday", "car_wash", "toilet", "shop"], "products": [], "website": null, "watchlist_id": null, "formatted_address": "RUE DE LONGJUMEAU RUE AMPERE\nCHILLY MAZARIN\n91380", "channel_of_trade": null}, {"id": "1544650292", "name": "BP GIF CHEVRY 2", "lat": 48.6836247, "lng": 2.1255754, "site_brand": "BP", "country_code": "FR", "address": "RTE DE GOMETZ CHEVRY 2", "city": "GIF SUR YVETTE", "state": "", "postcode": "91190", "telephone": "+33 1 60 12 16 80", "facilities": ["open_saturday", "open_sunday", "car_wash", "toilet", "shop"], "products": [], "website": null, "watchlist_id": null, "formatted_address": "RTE DE GOMETZ CHEVRY 2\nGIF SUR YVETTE\n91190", "channel_of_trade": null}, {"id": "122871929", "name": "BP CHATILLON SS BAGNEUX", "lat": 48.7968693, "lng": 2.2857576, "site_brand": "BP", "country_code": "FR", "address": "40 RUE DE FONTENAY", "city": "CHATILLON", "state": "", "postcode": "92320", "telephone": "+33 1 46 57 14 81", "facilities": ["open_saturday", "open_sunday", "car_wash", "toilet", "supermarket", "shop"], "products": [], "website": null, "watchlist_id": null, "formatted_address": "40 RUE DE FONTENAY\nCHATILLON\n92320", "channel_of_trade": null}, {"id": "1388565370", "name": "BP COLOMBES CHARLEBOURG", "lat": 48.9105509, "lng": 2.2347246, "site_brand": "BP", "country_code": "FR", "address": "64 BD CHARLES DE GAULLE", "city": "COLOMBES", "state": "", "postcode": "92700", "telephone": "+33 1 42 42 37 83", "facilities": ["open_saturday", "open_sunday", "open_24_hours", "car_wash", "toilet", "shop"], "products": [], "website": null, "watchlist_id": null, "formatted_address": "64 BD CHARLES DE GAULLE\nCOLOMBES\n92700", "channel_of_trade": null}, {"id": "1506751082", "name": "BP CHAMPIGNY", "lat": 48.823227, "lng": 2.4948737, "site_brand": "BP", "country_code": "FR", "address": "97 AV GLE DE GAULLE", "city": "CHAMPIGNY SUR MARNE", "state": "", "postcode": "94500", "telephone": "+33 1 47 06 19 79", "facilities": ["open_saturday", "open_sunday", "car_wash", "toilet", "supermarket", "shop", "truck_suitable_site", "high_speed_pump"], "products": [], "website": null, "watchlist_id": null, "formatted_address": "97 AV GLE DE GAULLE\nCHAMPIGNY SUR MARNE\n94500", "channel_of_trade": null}, {"id": "1461509527", "name": "BP STAINS CERISAIE", "lat": 48.9595097, "lng": 2.3987791, "site_brand": "BP", "country_code": "FR", "address": "201 203  AVENUE DE STALINGRAD", "city": "STAINS", "state": "", "postcode": "93240", "telephone": "+33 1 48 21 00 12", "facilities": ["open_saturday", "open_sunday", "toilet", "shop"], "products": [], "website": null, "watchlist_id": null, "formatted_address": "201 203  AVENUE DE STALINGRAD\nSTAINS\n93240", "channel_of_trade": null}, {"id": "1278337162", "name": "BP BRUNOY", "lat": 48.6943447, "lng": 2.5071582, "site_brand": "BP", "country_code": "FR", "address": "5 BD CHARLES DE GAULLE", "city": "BRUNOY", "state": "", "postcode": "91800", "telephone": "+33 1 60 46 87 75", "facilities": ["open_saturday", "open_sunday", "car_wash", "toilet", "shop"], "products": [], "website": null, "watchlist_id": null, "formatted_address": "5 BD CHARLES DE GAULLE\nBRUNOY\n91800", "channel_of_trade": null}, {"id": "1824652956", "name": "BP MONTREUIL A BRIAND", "lat": 48.86538, "lng": 2.45496, "site_brand": "BP", "country_code": "FR", "address": "16 AV ARISTIDE BRIAND", "city": "MONTREUIL", "state": "", "postcode": "93100", "telephone": "+33 1 42 87 20 38", "facilities": ["open_saturday", "open_sunday", "car_wash", "toilet", "supermarket", "shop"], "products": [], "website": null, "watchlist_id": null, "formatted_address": "16 AV ARISTIDE BRIAND\nMONTREUIL\n93100", "channel_of_trade": null}, {"id": "203373158", "name": "BP MONTROUGE A BRIAND", "lat": 48.816711, "lng": 2.3256222, "site_brand": "BP", "country_code": "FR", "address": "70 74 AV ARISTIDE BRIAND", "city": "MONTROUGE", "state": "", "postcode": "92120", "telephone": "+33 1 46 56 64 97", "facilities": ["open_saturday", "open_sunday", "car_wash", "toilet", "shop"], "products": [], "website": null, "watchlist_id": null, "formatted_address": "70 74 AV ARISTIDE BRIAND\nMONTROUGE\n92120", "channel_of_trade": null}, {"id": "2091578783", "name": "BP BONDY", "lat": 48.9065484, "lng": 2.4848875, "site_brand": "BP", "country_code": "FR", "address": "175 AV MAL GALLIENI", "city": "BONDY", "state": "", "postcode": "93140", "telephone": "+33 1 48 47 20 82", "facilities": ["open_saturday", "open_sunday", "car_wash", "toilet", "shop"], "products": [], "website": null, "watchlist_id": null, "formatted_address": "175 AV MAL GALLIENI\nBONDY\n93140", "channel_of_trade": null}, {"id": "1576341096", "name": "BP BOISSY ST LEGER", "lat": 48.7486652, "lng": 2.5089082, "site_brand": "BP", "country_code": "FR", "address": "36 AVENUE DU GENERAL LECLERC", "city": "BOISSY SAINT LEGER", "state": "", "postcode": "94470", "telephone": "+33 1 45 69 09 43", "facilities": ["open_saturday", "open_sunday", "car_wash", "toilet", "shop"], "products": [], "website": null, "watchlist_id": null, "formatted_address": "36 AVENUE DU GENERAL LECLERC\nBOISSY SAINT LEGER\n94470", "channel_of_trade": null}, {"id": "423490441", "name": "BP VERSAILLES CLEMENT ADER", "lat": 48.791226, "lng": 2.1089943, "site_brand": "BP", "country_code": "FR", "address": "AV CLEMENT ADER", "city": "VERSAILLES", "state": "", "postcode": "78000", "telephone": "+33 1 39 02 16 16", "facilities": ["open_saturday", "open_sunday", "open_24_hours", "toilet", "shop", "truck_suitable_site"], "products": [], "website": null, "watchlist_id": null, "formatted_address": "AV CLEMENT ADER\nVERSAILLES\n78000", "channel_of_trade": null}, {"id": "1327653234", "name": "BP  BEAUVAIS", "lat": 49.4336068, "lng": 2.0936696, "site_brand": "BP", "country_code": "FR", "address": "14 RUE DE CLERMONT", "city": "BEAUVAIS", "state": "", "postcode": "60000", "telephone": "+33 3 44 48 27 69", "facilities": ["open_saturday", "open_sunday", "car_wash", "toilet", "shop"], "products": [], "website": null, "watchlist_id": null, "formatted_address": "14 RUE DE CLERMONT\nBEAUVAIS\n60000", "channel_of_trade": null}, {"id": "1943404085", "name": "BP ROSNY SUR SEINE", "lat": 48.993342, "lng": 1.632718, "site_brand": "BP", "country_code": "FR", "address": "AIRE DE ROSNY SUR SEINE - A13", "city": "ROSNY SUR SEINE", "state": "", "postcode": "78710", "telephone": "+33 1 30 42 91 64", "facilities": ["open_saturday", "open_sunday", "open_24_hours"], "products": [], "website": null, "watchlist_id": null, "formatted_address": "AIRE DE ROSNY SUR SEINE - A13\nROSNY SUR SEINE\n78710", "channel_of_trade": null}, {"id": "2031055177", "name": "BP WANCOURT", "lat": 50.26134, "lng": 2.864153, "site_brand": "BP", "country_code": "FR", "address": "AUTOROUTE A1 AIRE DE WANCOURT EST", "city": "WANCOURT", "state": "", "postcode": "62128", "telephone": "+33 3 21 55 22 89", "facilities": ["open_saturday", "open_sunday", "open_24_hours", "car_wash", "shop", "truck_suitable_site"], "products": ["ad_blue_cannister", "ad_blue_pump", "auto_gas", "ad_blue"], "website": null, "watchlist_id": null, "formatted_address": "AUTOROUTE A1 AIRE DE WANCOURT EST\nWANCOURT\n62128", "channel_of_trade": null}, {"id": "1649994940", "name": "BP FONTAINE COLETTE", "lat": 47.1657816, "lng": 0.6294232, "site_brand": "BP", "country_code": "FR", "address": "AIRE DE FONTAINE COLETTE AUTOROUTE", "city": "SAINT EPAIN", "state": "", "postcode": "37800", "telephone": "", "facilities": ["open_saturday", "open_sunday", "open_24_hours", "toilet", "motorway_site", "shop", "truck_suitable_site", "high_speed_pump"], "products": [], "website": null, "watchlist_id": null, "formatted_address": "AIRE DE FONTAINE COLETTE AUTOROUTE\nSAINT EPAIN\n37800", "channel_of_trade": null}, {"id": "1380127642", "name": "BP MANOIR DU PERCHE", "lat": 48.2392202, "lng": 1.0800347, "site_brand": "BP", "country_code": "FR", "address": "AIRE DES MANOIRS DU PERCHE AUTOROUT", "city": "FRAZE", "state": "", "postcode": "28160", "telephone": "", "facilities": ["open_saturday", "open_sunday", "open_24_hours", "toilet", "motorway_site", "shop", "truck_suitable_site", "high_speed_pump"], "products": [], "website": null, "watchlist_id": null, "formatted_address": "AIRE DES MANOIRS DU PERCHE AUTOROUT\nFRAZE\n28160", "channel_of_trade": null}, {"id": "1870787324", "name": "BP AIRE DE VILLERS BRETONNEUX", "lat": 49.85484, "lng": 2.522655, "site_brand": "BP", "country_code": "FR", "address": "AIRE DE VILLERS BRETONNEUX", "city": "VILLERS BRETONNEUX", "state": "", "postcode": "80380", "telephone": "+33 3 22 48 32 70", "facilities": ["open_saturday", "open_sunday", "open_24_hours", "toilet", "bakery_bistro", "motorway_site", "shop", "truck_suitable_site", "high_speed_pump"], "products": [], "website": null, "watchlist_id": null, "formatted_address": "AIRE DE VILLERS BRETONNEUX\nVILLERS BRETONNEUX\n80380", "channel_of_trade": null}, {"id": "805429756", "name": "BP AIRE DE GIBERVILLE SUD", "lat": 49.166675, "lng": -0.276064, "site_brand": "BP", "country_code": "FR", "address": "AUTOROUTE A13 AIRE DE GIBERVILLE SU", "city": "GIBERVILLE", "state": "", "postcode": "14730", "telephone": "+33 2 31 35 21 30", "facilities": ["open_saturday", "open_sunday", "toilet", "motorway_site", "shop", "truck_suitable_site", "high_speed_pump"], "products": [], "website": null, "watchlist_id": null, "formatted_address": "AUTOROUTE A13 AIRE DE GIBERVILLE SU\nGIBERVILLE\n14730", "channel_of_trade": null}, {"id": "1663034230", "name": "BP VILLENEUVE LA GARENNE", "lat": 48.9352933, "lng": 2.3313611, "site_brand": "BP", "country_code": "FR", "address": "37 AVENUE DE VERDUN", "city": "VILLENEUVE LA GARENNE", "state": "", "postcode": "92390", "telephone": "+33 1 47 94 33 57", "facilities": ["open_saturday", "open_sunday", "car_wash", "toilet", "shop"], "products": [], "website": null, "watchlist_id": null, "formatted_address": "37 AVENUE DE VERDUN\nVILLENEUVE LA GARENNE\n92390", "channel_of_trade": null}, {"id": "585895360", "name": "BP ST THIBAULT DES VIGNES", "lat": 48.89305, "lng": 2.71197, "site_brand": "BP", "country_code": "FR", "address": "AVENUE ST GERMAIN DES NOYERS", "city": "SAINT THIBAULT DES VIGNES", "state": "", "postcode": "77400", "telephone": "+33 1 60 07 30 15", "facilities": ["open_saturday", "open_sunday", "car_wash", "toilet", "shop", "truck_suitable_site", "high_speed_pump"], "products": [], "website": null, "watchlist_id": null, "formatted_address": "AVENUE ST GERMAIN DES NOYERS\nSAINT THIBAULT DES VIGNES\n77400", "channel_of_trade": null}, {"id": "145478142", "name": "BP SENLIS FOCH", "lat": 49.2064996, "lng": 2.58959, "site_brand": "BP", "country_code": "FR", "address": "510 AVENUE MARECHAL FOCH", "city": "SENLIS", "state": "", "postcode": "60300", "telephone": "+33 3 44 32 30 30", "facilities": ["open_saturday", "open_sunday", "car_wash", "toilet", "shop"], "products": [], "website": null, "watchlist_id": null, "formatted_address": "510 AVENUE MARECHAL FOCH\nSENLIS\n60300", "channel_of_trade": null}, {"id": "1645933085", "name": "BP  LE BLANC MESNIL PVC", "lat": 48.92788, "lng": 2.47372, "site_brand": "BP", "country_code": "FR", "address": "60 68 PAUL VAILLANT COUTURIER", "city": "LE BLANC MESNIL", "state": "", "postcode": "93150", "telephone": "+33 1 48 66 31 10", "facilities": ["open_saturday", "open_sunday", "car_wash", "toilet", "shop"], "products": [], "website": null, "watchlist_id": null, "formatted_address": "60 68 PAUL VAILLANT COUTURIER\nLE BLANC MESNIL\n93150", "channel_of_trade": null}, {"id": "282983441", "name": "BP JOINVILLE EUROPE", "lat": 48.8128758, "lng": 2.4665563, "site_brand": "BP", "country_code": "FR", "address": "17/19 BVD DE LEUROPE", "city": "JOINVILLE LE PONT", "state": "", "postcode": "94340", "telephone": "+33 1 48 83 86 56", "facilities": ["open_saturday", "open_sunday", "car_wash", "toilet", "shop", "truck_suitable_site"], "products": [], "website": null, "watchlist_id": null, "formatted_address": "17/19 BVD DE LEUROPE\nJOINVILLE LE PONT\n94340", "channel_of_trade": null}]